~VERSION INFORMATION
 VERS.                 2.0:   CWLS LOG ASCII STANDARD - VERSION 2.0
 WRAP.                  NO:   SINGLE LINE PER DEPTH STEP
~WELL INFORMATION
#MNEM.UNIT       DATA           DESCRIPTION MNEMONIC
#---------    -------------   --------------------------
 STRT.M         550.0116                      : START DEPTH
 STOP.M         1468.2216                     : STOP DEPTH
 STEP.M         0.1524                        : STEP VALUE
 NULL.          -999.0000                     : NULL VALUE
 SRVC.          PYPOZO                        : Service Company/Logging company
 DATE.          01/07/2025                    : LAS file Creation Date
 WELL    .      PALO BLANCO 791                : Well Name
 COMP    .      PYPOZO 2.0                    : Company
 FLD     .      UNKNOWN                       : Field
 LOC     .      UNKNOWN                       : Location
 LATI    .      0                             : Latitude/Northing
 LONG    .      0                             : Longitude/Easting
 APDAT   .      0                             : Elevation Above Permanent Datum
~CURVE INFORMATION
#MNEM          UNIT     API CODE   Curve Type Comments
#---------- ---------- ----------  ---------- --------
 DEPTH     .M                    : Depth      
 BRITT     .UNIT                       : BRITT      
 BVW       .Dec                        : BVW        
 CAL       .IN                         : CAL        
 CNCF      .dec                        : CNCF       
 DPHI      .dec                        : DPHI       
 DTC       .US/F                       : DTC        
 DTS       .US/F                       : DTS        
 ECHADOS   .DEG                        : ECHADOS    
 FRAC_IND  .DEG                        : FRAC_IND   
 FRAC_NAT  .DEG                        : FRAC_NAT   
 GR        .GAPI                       : GR         
 KTIXIER   .mD                         : KTIXIER    
 M1R6      .OHMM                       : M1R6       
 M1R9      .OHMM                       : M1R9       
 MPERMC    .MD                         : MPERMC     
 MPOC01    .p.u                        : MPOC01     
 MPOC02    .p.u                        : MPOC02     
 MPOC03    .p.u                        : MPOC03     
 MPOC04    .p.u                        : MPOC04     
 MPOC05    .p.u                        : MPOC05     
 MPOC06    .p.u                        : MPOC06     
 MPOC07    .p.u                        : MPOC07     
 MPOC08    .p.u                        : MPOC08     
 MPOC09    .p.u                        : MPOC09     
 MPOC10    .p.u                        : MPOC10     
 MPOC11    .p.u                        : MPOC11     
 MPOC12    .p.u                        : MPOC12     
 MPOC13    .p.u                        : MPOC13     
 PAYFLAG   .UNIT                       : PAYFLAG    
 PHIE      .Dec                        : PHIE       
 POISDIN   .UNIT                       : POISDIN    
 SP        .MV                         : SP         
 SPHI      .dec                        : SPHI       
 SW        .Dec                        : SW         
 T2_CUT_33 .ms                         : T2_CUT_33  
 TVD       .M                          : TVD        
 TVDSS     .M                          : TVDSS      
 VCL       .Dec                        : VCL        
 VPVS      .ft/sec                     : VPVS       
 VSH-LAR   .UNIT                       : VSH-LAR    
 ZDEN      .G/C3                       : ZDEN       
~A Log data section
# ...
 1174.0896         0.4119         0.0120         8.7430         0.2908         0.0923        90.0140       194.2390         4.3490      -999.0000      -999.0000        77.5860         0.0001         2.9780         2.9530         0.0000         2.4696         6.5841        11.3902        14.8099        16.2829        16.4059        16.4059        16.4059        16.4059        16.4059        16.4059        16.4079        16.4089         0.0000         0.0120         0.3630        -0.6920         0.2773         1.0000        33.0000      1174.0604     -1034.0604         0.6914         2.1580         0.0668         2.5250 
 1174.2420         0.4168         0.0141         8.7470         0.2875         0.0940        89.6110       193.5900         4.3490      -999.0000      -999.0000        77.8140         0.0001         3.0050         2.9800         0.0000         2.0716         6.2443        11.1761        14.5971        15.9044        15.9685        15.9685        15.9685        15.9685        15.9685        15.9685        15.9685        15.9685         0.0000         0.0141         0.3640        -0.8130         0.2816         1.0000        33.0000      1174.2128     -1034.2128         0.6819         2.1600         0.0673         2.5220 
 1174.3944         0.4159         0.0063         8.7460         0.2908         0.0946        89.6800       194.1000         4.7559      -999.0000      -999.0000        78.7540         0.0000         2.8770         2.8530         0.0000         1.7223         6.0402        11.1380        14.5211        15.6232        15.6283        15.6283        15.6283        15.6283        15.6283        15.6283        15.6283        15.6283         0.0000         0.0063         0.3640        -0.8330         0.2853         1.0000        33.0000      1174.3652     -1034.3652         0.7281         2.1640         0.0699         2.5210 
 1174.5468         0.4118         0.0312         8.7440         0.2989         0.0952        90.0250       194.5060         5.1628      -999.0000      -999.0000        79.5490         0.0015         3.1670         3.1410         0.0000         1.0810         5.5318        11.0132        14.1656        15.1048        15.1218        15.1218        15.1218        15.1218        15.1218        15.1218        15.1218        15.1218         0.0000         0.0312         0.3640        -0.8040         0.2866         1.0000        33.0000      1174.5176     -1034.5176         0.6288         2.1610         0.0720         2.5200 
 1174.6992         0.4089         0.0091         8.7510         0.3018         0.0970        90.2630       194.3430         5.5697      -999.0000      -999.0000        79.8210         0.0000         2.9320         2.9080         0.0000         0.5833         5.1282        10.9051        13.8922        14.7332        14.7672        14.7672        14.7672        14.7672        14.7672        14.7672        14.7672        14.7672         0.0000         0.0091         0.3620        -0.7190         0.2844         1.0000        33.0000      1174.6700     -1034.6700         0.7076         2.1530         0.0728         2.5170 
 1174.8516         0.4094         0.0015         8.7590         0.2993         0.0982        90.2240       192.7390         5.9767        59.3250      -999.0000        79.2400         0.0000         2.7030         2.6830         0.0000         0.9025         5.3257        10.8900        14.0797        15.1923        15.2672        15.2672        15.2672        15.2672        15.2672        15.2672        15.2672        15.2672         0.0000         0.0015         0.3600        -0.7480         0.2793         1.0000        33.0000      1174.8224     -1034.8224         0.7966         2.1360         0.0712         2.5150 
 1175.0040         0.4126         0.0115         8.7570         0.3024         0.0958        89.9550       191.9280         6.3836        59.3250      -999.0000        78.0060         0.0001         2.9660         2.9450         0.0000         1.1938         5.6287        11.0457        14.2908        15.5438        15.6578        15.6578        15.6578        15.6578        15.6578        15.6578        15.6578        15.6578         0.0000         0.0115         0.3590        -0.9150         0.2735         1.0000        33.0000      1174.9749     -1034.9749         0.6942         2.1340         0.0679         2.5190 
 1175.1564         0.4133         0.0251         8.7450         0.3078         0.0923        89.9030       191.8350         6.7905        58.1120      -999.0000        77.9470         0.0008         3.1120         3.0920         0.0000         1.4127         6.2061        11.6520        14.5616        15.6109        15.7558        15.7558        15.7558        15.7558        15.7558        15.7558        15.7558        15.7558         0.0000         0.0251         0.3590        -1.1360         0.2692         1.0000        33.0000      1175.1272     -1035.1272         0.6444         2.1340         0.0677         2.5250 
 1175.3088         0.4173         0.0385         8.7370         0.2982         0.0905        89.5630       192.1020         6.7905        56.8990      -999.0000        79.1200         0.0029         3.2130         3.1940         0.0000         1.7273         6.6565        12.0607        14.7558        15.7776        16.0592        16.0672        16.0672        16.0672        16.0672        16.0672        16.0672        16.0672         0.0000         0.0385         0.3610        -1.3160         0.2684         1.0000        33.0000      1175.2797     -1035.2797         0.6125         2.1450         0.0709         2.5280 
 1175.4612         0.4258         0.0358         8.7380         0.2790         0.0887        88.8580       193.1760         7.7110        55.6860      -999.0000        79.2980         0.0023         3.1920         3.1750         0.0000         2.1583         6.9505        12.2277        14.8568        16.0655        16.6121        16.6361        16.6361        16.6361        16.6361        16.6361        16.6361        16.6361         0.0000         0.0358         0.3660        -1.3010         0.2709         1.0000        33.0000      1175.4320     -1035.4320         0.6183         2.1740         0.0713         2.5310 
 1175.6136         0.4281         0.0605         8.7420         0.2669         0.0881        88.6680       193.5140         8.6315        54.4730      -999.0000        78.0670         0.0111         3.4500         3.4330         0.0000         3.2826         8.3209        13.3693        15.7688        16.8034        17.2529        17.2729        17.2729        17.2729        17.2729        17.2729        17.2729        17.2729         0.0000         0.0605         0.3670        -1.0360         0.2741         1.0000        33.0000      1175.5845     -1035.5845         0.5452         2.1820         0.0680         2.5320 
 1175.7660         0.4228         0.0515         8.7460         0.2680         0.0893        89.1060       194.6700         9.5520        53.2600      -999.0000        76.7390         0.0524         3.7670         3.7510         0.0000         4.7756        10.2619        15.0263        17.1109        17.7784        17.9419        17.9449        17.9449        17.9449        17.9449        17.9449        17.9449        17.9449         0.0000         0.0774         0.3670        -0.7690         0.2760         0.6657        33.0000      1175.7368     -1035.7368         0.4690         2.1850         0.0645         2.5300 
 1175.9184         0.4166         0.0043         8.7430         0.2821         0.0911        89.6290       194.1550        10.4725        64.4890      -999.0000        76.0100         0.0000         2.8130         2.8020         0.0000         5.1438        10.8416        15.4707        17.2981        17.6865        17.7506        17.7506        17.7506        17.7696        17.7696        17.7696        17.7696        17.7696         0.0000         0.0043         0.3650        -0.9000         0.2758         1.0000        33.0000      1175.8893     -1035.8893         0.7477         2.1660         0.0626         2.5270 
