~VERSION INFORMATION
 VERS.                 2.0:   CWLS LOG ASCII STANDARD - VERSION 2.0
 WRAP.                  NO:   SINGLE LINE PER DEPTH STEP
~WELL INFORMATION
#MNEM.UNIT       DATA           DESCRIPTION MNEMONIC
#---------    -------------   --------------------------
 STRT.M         550.0116                      : START DEPTH
 STOP.M         1468.2216                     : STOP DEPTH
 STEP.M         0.1524                        : STEP VALUE
 NULL.          -999.0000                     : NULL VALUE
 SRVC.          PYPOZO                        : Service Company/Logging company
 DATE.          01/07/2025                    : LAS file Creation Date
 WELL    .      PALO BLANCO 791                : Well Name
 COMP    .      PYPOZO 2.0                    : Company
 FLD     .      UNKNOWN                       : Field
 LOC     .      UNKNOWN                       : Location
 LATI    .      0                             : Latitude/Northing
 LONG    .      0                             : Longitude/Easting
 APDAT   .      0                             : Elevation Above Permanent Datum
~CURVE INFORMATION
#MNEM          UNIT     API CODE   Curve Type Comments
#---------- ---------- ----------  ---------- --------
 DEPTH     .M                    : Depth      
 BRITT     .UNIT                       : BRITT      
 BVW       .Dec                        : BVW        
 CAL       .IN                         : CAL        
 CNCF      .dec                        : CNCF       
 DPHI      .dec                        : DPHI       
 DTC       .US/F                       : DTC        
 DTS       .US/F                       : DTS        
 ECHADOS   .DEG                        : ECHADOS    
 FRAC_IND  .DEG                        : FRAC_IND   
 FRAC_NAT  .DEG                        : FRAC_NAT   
 GR        .GAPI                       : GR         
 KTIXIER   .mD                         : KTIXIER    
 M1R6      .OHMM                       : M1R6       
 M1R9      .OHMM                       : M1R9       
 MPERMC    .MD                         : MPERMC     
 MPOC01    .p.u                        : MPOC01     
 MPOC02    .p.u                        : MPOC02     
 MPOC03    .p.u                        : MPOC03     
 MPOC04    .p.u                        : MPOC04     
 MPOC05    .p.u                        : MPOC05     
 MPOC06    .p.u                        : MPOC06     
 MPOC07    .p.u                        : MPOC07     
 MPOC08    .p.u                        : MPOC08     
 MPOC09    .p.u                        : MPOC09     
 MPOC10    .p.u                        : MPOC10     
 MPOC11    .p.u                        : MPOC11     
 MPOC12    .p.u                        : MPOC12     
 MPOC13    .p.u                        : MPOC13     
 PAYFLAG   .UNIT                       : PAYFLAG    
 PHIE      .Dec                        : PHIE       
 POISDIN   .UNIT                       : POISDIN    
 SP        .MV                         : SP         
 SPHI      .dec                        : SPHI       
 SW        .Dec                        : SW         
 T2_CUT_33 .ms                         : T2_CUT_33  
 TVD       .M                          : TVD        
 TVDSS     .M                          : TVDSS      
 VCL       .Dec                        : VCL        
 VPVS      .ft/sec                     : VPVS       
 VSH-LAR   .UNIT                       : VSH-LAR    
 ZDEN      .G/C3                       : ZDEN       
~A Log data section
# ...
 1059.1800         0.3670         0.0001         9.0400         0.3147         0.1726        93.7600       218.7970         4.3464      -999.0000      -999.0000        85.3590         0.0000         2.6850         2.6920         0.0020         2.9608         9.6508        16.4451        18.6044        18.6044        18.6044        18.6044        18.8185        19.5776        19.6525        19.6525        19.6525        19.6525         0.0000         0.0001         0.3880        -2.4390         0.3370         1.0000        33.0000      1059.1511      -919.1511         1.0000         2.3340         0.0888         2.3900 
 1059.3324         0.3393         0.0001         9.1650         0.3214         0.2089        96.0630       221.9120         4.5715      -999.0000      -999.0000        87.6500         0.0000         2.6780         2.6850         0.0010         4.3278        11.6398        18.2321        20.2224        20.2224        20.2224        20.2224        20.3935        21.0926        21.1905        21.1905        21.1905        21.1905         0.0000         0.0001         0.3850        -1.8270         0.3505         1.0000        33.0000      1059.3035      -919.3035         1.0000         2.3100         0.0959         2.3290 
 1059.4848         0.3200         0.0001         9.3490         0.3376         0.2149        97.6790       227.6890         4.7966      -999.0000      -999.0000        89.0550         0.0000         2.4400         2.4450         0.0030         5.6170        12.9252        18.9952        21.0320        21.0849        21.0849        21.0849        21.1740        21.8950        22.2135        22.2135        22.2135        22.2135         0.0000         0.0001         0.3870        -1.2190         0.3582         1.0000        33.0000      1059.4558      -919.4558         1.0000         2.3310         0.1004         2.3190 
 1059.6372         0.2990         0.0001         9.5260         0.3521         0.2071        99.4260       232.6040         5.0216      -999.0000      -999.0000        89.5810         0.0000         1.9530         1.9560         0.0050         6.8750        14.0372        19.5152        21.6500        21.7679        21.7679        21.7679        21.7701        22.5310        23.1116        23.1116        23.1116        23.1116         0.0000         0.0001         0.3880        -1.0670         0.3584         1.0000        33.0000      1059.6083      -919.6083         1.0000         2.3390         0.1022         2.3320 
 1059.7896         0.2822         0.0001         9.6240         0.3530         0.2048       100.8250       233.7030         5.2467      -999.0000      -999.0000        88.4250         0.0000         2.0210         2.0240         0.0090         6.9978        14.1808        19.5440        21.7409        21.9457        21.9457        21.9457        22.1504        23.0032        23.4824        23.4824        23.4824        23.4824         0.0000         0.0001         0.3860        -1.2180         0.3528         1.0000        33.0000      1059.7606      -919.7606         1.0000         2.3180         0.0984         2.3360 
 1059.9420         0.2667         0.0001         9.6780         0.3438         0.2095       102.1180       232.8670         5.2467      -999.0000      -999.0000        86.3910         0.0000         2.0390         2.0390         0.0120         6.6896        13.8127        19.2185        21.5035        21.7644        21.7644        21.7644        22.1044        23.0313        23.4124        23.4124        23.4124        23.4124         0.0000         0.0001         0.3810        -1.4030         0.3447         1.0000        33.0000      1059.9131      -919.9131         1.0000         2.2800         0.0920         2.3280 
 1060.0944         0.2681         0.0001         9.6940         0.3375         0.2161       102.0020       229.9970         5.2593      -999.0000      -999.0000        86.0550         0.0000         2.1490         2.1480         0.0080         4.8719        11.6545        17.6495        20.1092        20.3233        20.3233        20.3233        20.5595        21.4965        21.7886        21.7886        21.7886        21.7886         0.0000         0.0001         0.3780        -1.4910         0.3379         1.0000        33.0000      1060.0654      -920.0654         1.0000         2.2550         0.0910         2.3170 
 1060.2468         0.2767         0.0001         9.6280         0.3356         0.2202       101.2850       227.2370         5.2720      -999.0000      -999.0000        86.7150         0.0000         2.4800         2.4750         0.0070         4.2616        10.7209        16.6764        19.3002        19.6200        19.6200        19.6200        19.8709        20.7900        21.0560        21.0560        21.0560        21.0560         0.0000         0.0001         0.3760        -1.4990         0.3342         1.0000        33.0000      1060.2179      -920.2179         1.0000         2.2440         0.0930         2.3100 
 1060.3992         0.2930         0.0001         9.4920         0.3347         0.2173        99.9210       224.4440         5.2720      -999.0000      -999.0000        85.4800         0.0000         2.2870         2.2800         0.0100         4.7113        10.8608        16.2277        19.0045        19.5671        19.5671        19.5671        19.9339        20.8100        21.1059        21.1059        21.1059        21.1059         0.0000         0.0001         0.3760        -1.3740         0.3339         1.0000        33.0000      1060.3702      -920.3702         1.0000         2.2460         0.0892         2.3150 
 1060.5516         0.3001         0.0001         9.3750         0.3343         0.2060        99.3340       222.9490         5.2984      -999.0000      -999.0000        83.2650         0.0000         2.4200         2.4090         0.0080         4.3680        10.5298        15.9164        18.4201        18.8166        18.8166        18.8166        19.0858        19.8989        20.2648        20.2648        20.2648        20.2648         0.0000         0.0001         0.3760        -1.1140         0.3359         1.0000        33.0000      1060.5227      -920.5227         1.0000         2.2440         0.0826         2.3340 
 1060.7040         0.3025         0.0001         9.3220         0.3372         0.1923        99.1360       222.4470         5.3248      -999.0000      -999.0000        82.8300         0.0000         2.4830         2.4700         0.0050         3.7710        10.0438        15.6464        17.7451        17.8475        17.8475        17.8475        17.9528        18.6969        19.1428        19.1428        19.1428        19.1428         0.0000         0.0001         0.3760        -0.7940         0.3372         1.0000        33.0000      1060.6750      -920.6750         1.0000         2.2440         0.0813         2.3570 
 1060.8564         0.3005         0.0001         9.3390         0.3382         0.1857        99.3040       221.4420         5.3512      -999.0000      -999.0000        83.7870         0.0000         2.2680         2.2540         0.0030         3.2049         9.2253        15.0559        17.2728        17.3688        17.3688        17.3688        17.5526        18.2267        18.4851        18.4851        18.5030        18.5290         0.0000         0.0001         0.3740        -0.5660         0.3341         1.0000        33.0000      1060.8275      -920.8275         1.0000         2.2300         0.0841         2.3680 
 1061.0088         0.2993         0.0001         9.4040         0.3330         0.1839        99.3980       219.7400         5.3775      -999.0000      -999.0000        84.6920         0.0000         2.2850         2.2700         0.0020         2.8801         8.7283        14.6673        16.9373        17.0273        17.0273        17.0313        17.2942        17.8973        18.0045        18.0045        18.0345        18.0824         0.0000         0.0001         0.3710        -0.5620         0.3262         1.0000        33.0000      1060.9799      -920.9799         1.0000         2.2110         0.0868         2.3710 
