~VERSION INFORMATION
 VERS.                 2.0:   CWLS LOG ASCII STANDARD - VERSION 2.0
 WRAP.                  NO:   SINGLE LINE PER DEPTH STEP
~WELL INFORMATION
#MNEM.UNIT       DATA           DESCRIPTION MNEMONIC
#---------    -------------   --------------------------
 STRT.M         550.0116                      : START DEPTH
 STOP.M         1468.2216                     : STOP DEPTH
 STEP.M         0.1524                        : STEP VALUE
 NULL.          -999.0000                     : NULL VALUE
 SRVC.          PYPOZO                        : Service Company/Logging company
 DATE.          01/07/2025                    : LAS file Creation Date
 WELL    .      PALO BLANCO 791                : Well Name
 COMP    .      PYPOZO 2.0                    : Company
 FLD     .      UNKNOWN                       : Field
 LOC     .      UNKNOWN                       : Location
 LATI    .      0                             : Latitude/Northing
 LONG    .      0                             : Longitude/Easting
 APDAT   .      0                             : Elevation Above Permanent Datum
~CURVE INFORMATION
#MNEM          UNIT     API CODE   Curve Type Comments
#---------- ---------- ----------  ---------- --------
 DEPTH     .M                    : Depth      
 BRITT     .UNIT                       : BRITT      
 BVW       .Dec                        : BVW        
 CAL       .IN                         : CAL        
 CNCF      .dec                        : CNCF       
 DPHI      .dec                        : DPHI       
 DTC       .US/F                       : DTC        
 DTS       .US/F                       : DTS        
 ECHADOS   .DEG                        : ECHADOS    
 FRAC_IND  .DEG                        : FRAC_IND   
 FRAC_NAT  .DEG                        : FRAC_NAT   
 GR        .GAPI                       : GR         
 KTIXIER   .mD                         : KTIXIER    
 M1R6      .OHMM                       : M1R6       
 M1R9      .OHMM                       : M1R9       
 MPERMC    .MD                         : MPERMC     
 MPOC01    .p.u                        : MPOC01     
 MPOC02    .p.u                        : MPOC02     
 MPOC03    .p.u                        : MPOC03     
 MPOC04    .p.u                        : MPOC04     
 MPOC05    .p.u                        : MPOC05     
 MPOC06    .p.u                        : MPOC06     
 MPOC07    .p.u                        : MPOC07     
 MPOC08    .p.u                        : MPOC08     
 MPOC09    .p.u                        : MPOC09     
 MPOC10    .p.u                        : MPOC10     
 MPOC11    .p.u                        : MPOC11     
 MPOC12    .p.u                        : MPOC12     
 MPOC13    .p.u                        : MPOC13     
 PAYFLAG   .UNIT                       : PAYFLAG    
 PHIE      .Dec                        : PHIE       
 POISDIN   .UNIT                       : POISDIN    
 SP        .MV                         : SP         
 SPHI      .dec                        : SPHI       
 SW        .Dec                        : SW         
 T2_CUT_33 .ms                         : T2_CUT_33  
 TVD       .M                          : TVD        
 TVDSS     .M                          : TVDSS      
 VCL       .Dec                        : VCL        
 VPVS      .ft/sec                     : VPVS       
 VSH-LAR   .UNIT                       : VSH-LAR    
 ZDEN      .G/C3                       : ZDEN       
~A Log data section
# ...
  944.2704         0.2543         0.0001         9.0190         0.3398         0.1339       103.1530       241.2740      -999.0000      -999.0000      -999.0000        83.1910         0.0000         2.2750         2.2610      -999.0000      -999.0000      -999.0000      -999.0000      -999.0000      -999.0000      -999.0000      -999.0000      -999.0000      -999.0000      -999.0000      -999.0000      -999.0000      -999.0000         0.0000         0.0001         0.3880        -1.5290         0.3890         1.0000        33.0000       944.2426      -804.2426         1.0000         2.3390         0.0824         2.4550 
  944.4228         0.2501         0.0001         9.1230         0.3449         0.1423       103.5040       246.2700      -999.0000      -999.0000      -999.0000        82.5890         0.0000         1.8990         1.8920      -999.0000      -999.0000      -999.0000      -999.0000      -999.0000      -999.0000      -999.0000      -999.0000      -999.0000      -999.0000      -999.0000      -999.0000      -999.0000      -999.0000         0.0000         0.0001         0.3930        -1.4280         0.3935         1.0000        33.0000       944.3950      -804.3950         1.0000         2.3790         0.0806         2.4410 
  944.5752         0.2469         0.0001         9.2610         0.3445         0.1554       103.7660       247.6190      -999.0000      -999.0000      -999.0000        81.3290         0.0000         1.4560         1.4540      -999.0000      -999.0000      -999.0000      -999.0000      -999.0000      -999.0000      -999.0000      -999.0000      -999.0000      -999.0000      -999.0000      -999.0000      -999.0000      -999.0000         0.0000         0.0001         0.3930        -1.3460         0.3921         1.0000        33.0000       944.5474      -804.5474         1.0000         2.3860         0.0770         2.4190 
  944.7276         0.2392         0.0001         9.2740         0.3360         0.1673       104.4060       252.8930      -999.0000      -999.0000      -999.0000        81.6120         0.0000         1.5790         1.5810      -999.0000      -999.0000      -999.0000      -999.0000      -999.0000      -999.0000      -999.0000      -999.0000      -999.0000      -999.0000      -999.0000      -999.0000      -999.0000      -999.0000         0.0000         0.0001         0.3970        -1.2690         0.3934         1.0000        33.0000       944.6998      -804.6998         1.0000         2.4220         0.0778         2.3990 
  944.8800         0.2282         0.0001         9.1790         0.3222         0.1792       105.3240       260.2440      -999.0000      -999.0000      -999.0000        83.2120         0.0000         1.8360         1.8420      -999.0000      -999.0000      -999.0000      -999.0000      -999.0000      -999.0000      -999.0000      -999.0000      -999.0000      -999.0000      -999.0000      -999.0000      -999.0000      -999.0000         0.0000         0.0001         0.4020        -1.1660         0.4069         1.0000        33.0000       944.8522      -804.8522         1.0000         2.4710         0.0824         2.3790 
  945.0324         0.2116         0.0001         9.1650         0.3191         0.1964       106.7090       269.3240      -999.0000      -999.0000      -999.0000        84.9920         0.0000         1.6690         1.6760      -999.0000      -999.0000      -999.0000      -999.0000      -999.0000      -999.0000      -999.0000      -999.0000      -999.0000      -999.0000      -999.0000      -999.0000      -999.0000      -999.0000         0.0000         0.0001         0.4070        -1.0540         0.4326         1.0000        33.0000       945.0046      -805.0046         1.0000         2.5240         0.0877         2.3500 
  945.1848         0.1939         0.0001         9.3090         0.3365         0.2179       108.1820       274.8880      -999.0000      -999.0000      -999.0000        87.4860         0.0000         1.4830         1.4900      -999.0000      -999.0000      -999.0000      -999.0000      -999.0000      -999.0000      -999.0000      -999.0000      -999.0000      -999.0000      -999.0000      -999.0000      -999.0000      -999.0000         0.0000         0.0001         0.4080        -0.9600         0.4591         1.0000        33.0000       945.1570      -805.1570         1.0000         2.5410         0.0954         2.3140 
  945.3372         0.1764         0.0001         9.4980         0.3552         0.2488       109.6430       279.3770      -999.0000      -999.0000      -999.0000        90.7550         0.0000         1.8240         1.8340      -999.0000      -999.0000      -999.0000      -999.0000      -999.0000      -999.0000      -999.0000      -999.0000      -999.0000      -999.0000      -999.0000      -999.0000      -999.0000      -999.0000         0.0000         0.0001         0.4090        -0.9360         0.4694         1.0000        33.0000       945.3094      -805.3094         1.0000         2.5480         0.1060         2.2620 
  945.4896         0.1499         0.0001         9.5940         0.3539         0.2869       111.8520       278.4810      -999.0000      -999.0000      -999.0000        93.0130         0.0000         1.3050         1.3120      -999.0000      -999.0000      -999.0000      -999.0000      -999.0000      -999.0000      -999.0000      -999.0000      -999.0000      -999.0000      -999.0000      -999.0000      -999.0000      -999.0000         0.0000         0.0001         0.4040        -1.0020         0.4548         1.0000        33.0000       945.4618      -805.4618         1.0000         2.4900         0.1138         2.1980 
  945.6420         0.1411         0.0001         9.5380         0.3463         0.3006       112.5810       275.2040      -999.0000      -999.0000      -999.0000        92.4810         0.0000         1.0290         1.0340      -999.0000      -999.0000      -999.0000      -999.0000      -999.0000      -999.0000      -999.0000      -999.0000      -999.0000      -999.0000      -999.0000      -999.0000      -999.0000      -999.0000         0.0000         0.0001         0.4000        -1.0060         0.4241         1.0000        33.0000       945.6142      -805.6142         1.0000         2.4440         0.1119         2.1750 
  945.7944         0.1433         0.0001         9.3690         0.3438         0.2685       112.4000       267.6780      -999.0000      -999.0000      -999.0000        88.3970         0.0000         1.2090         1.2150      -999.0000      -999.0000      -999.0000      -999.0000      -999.0000      -999.0000      -999.0000      -999.0000      -999.0000      -999.0000      -999.0000      -999.0000      -999.0000      -999.0000         0.0000         0.0001         0.3930        -0.9370         0.3967         1.0000        33.0000       945.7665      -805.7665         1.0000         2.3810         0.0983         2.2290 
  945.9468         0.1630         0.0001         9.1830         0.3456         0.2024       110.7590       262.0340      -999.0000      -999.0000      -999.0000        82.6290         0.0000         1.4120         1.4180      -999.0000      -999.0000      -999.0000      -999.0000      -999.0000      -999.0000      -999.0000      -999.0000      -999.0000      -999.0000      -999.0000      -999.0000      -999.0000      -999.0000         0.0000         0.0001         0.3910        -0.9700         0.3875         1.0000        33.0000       945.9189      -805.9189         1.0000         2.3660         0.0807         2.3400 
  946.0992         0.1739         0.0001         9.0630         0.3593         0.1417       109.8510       258.7760      -999.0000      -999.0000      -999.0000        78.5790         0.0000         1.7290         1.7360      -999.0000      -999.0000      -999.0000      -999.0000      -999.0000      -999.0000      -999.0000      -999.0000      -999.0000      -999.0000      -999.0000      -999.0000      -999.0000      -999.0000         0.0000         0.0001         0.3900        -1.0390         0.3983         1.0000        33.0000       946.0714      -806.0714         0.9105         2.3560         0.0694         2.4420 
