~VERSION INFORMATION
 VERS.                 2.0:   CWLS LOG ASCII STANDARD - VERSION 2.0
 WRAP.                  NO:   SINGLE LINE PER DEPTH STEP
~WELL INFORMATION
#MNEM.UNIT       DATA           DESCRIPTION MNEMONIC
#---------    -------------   --------------------------
 STRT.M         550.0116                      : START DEPTH
 STOP.M         1468.2216                     : STOP DEPTH
 STEP.M         0.1524                        : STEP VALUE
 NULL.          -999.0000                     : NULL VALUE
 SRVC.          PYPOZO                        : Service Company/Logging company
 DATE.          01/07/2025                    : LAS file Creation Date
 WELL    .      PALO BLANCO 791                : Well Name
 COMP    .      PYPOZO 2.0                    : Company
 FLD     .      UNKNOWN                       : Field
 LOC     .      UNKNOWN                       : Location
 LATI    .      0                             : Latitude/Northing
 LONG    .      0                             : Longitude/Easting
 APDAT   .      0                             : Elevation Above Permanent Datum
~CURVE INFORMATION
#MNEM          UNIT     API CODE   Curve Type Comments
#---------- ---------- ----------  ---------- --------
 DEPTH     .M                    : Depth      
 BRITT     .UNIT                       : BRITT      
 BVW       .Dec                        : BVW        
 CAL       .IN                         : CAL        
 CNCF      .dec                        : CNCF       
 DPHI      .dec                        : DPHI       
 DTC       .US/F                       : DTC        
 DTS       .US/F                       : DTS        
 ECHADOS   .DEG                        : ECHADOS    
 FRAC_IND  .DEG                        : FRAC_IND   
 FRAC_NAT  .DEG                        : FRAC_NAT   
 GR        .GAPI                       : GR         
 KTIXIER   .mD                         : KTIXIER    
 M1R6      .OHMM                       : M1R6       
 M1R9      .OHMM                       : M1R9       
 MPERMC    .MD                         : MPERMC     
 MPOC01    .p.u                        : MPOC01     
 MPOC02    .p.u                        : MPOC02     
 MPOC03    .p.u                        : MPOC03     
 MPOC04    .p.u                        : MPOC04     
 MPOC05    .p.u                        : MPOC05     
 MPOC06    .p.u                        : MPOC06     
 MPOC07    .p.u                        : MPOC07     
 MPOC08    .p.u                        : MPOC08     
 MPOC09    .p.u                        : MPOC09     
 MPOC10    .p.u                        : MPOC10     
 MPOC11    .p.u                        : MPOC11     
 MPOC12    .p.u                        : MPOC12     
 MPOC13    .p.u                        : MPOC13     
 PAYFLAG   .UNIT                       : PAYFLAG    
 PHIE      .Dec                        : PHIE       
 POISDIN   .UNIT                       : POISDIN    
 SP        .MV                         : SP         
 SPHI      .dec                        : SPHI       
 SW        .Dec                        : SW         
 T2_CUT_33 .ms                         : T2_CUT_33  
 TVD       .M                          : TVD        
 TVDSS     .M                          : TVDSS      
 VCL       .Dec                        : VCL        
 VPVS      .ft/sec                     : VPVS       
 VSH-LAR   .UNIT                       : VSH-LAR    
 ZDEN      .G/C3                       : ZDEN       
~A Log data section
# ...
 1288.9992         0.4762         0.0001         8.6230         0.2675         0.0804        84.6560       189.0150         7.1783        50.6778        51.4314        74.0390         0.0000         2.8730         2.8060         0.0000         2.5457         6.8480        11.2077        13.0270        13.2216        13.6952        14.6702        15.0719        15.1242        15.1283        15.1283        15.1283        15.1283         0.0000         0.0001         0.3750        -3.3480         0.2294         1.0000        33.0000      1288.9695     -1148.9695         1.0000         2.2330         0.0576         2.5450 
 1289.1516         0.4824         0.0001         8.6210         0.2720         0.0798        84.1450       187.7950         7.4535        50.7335        51.4597        73.4550         0.0000         3.0530         2.9800         0.0000         2.5809         6.8189        11.1629        12.8151        12.8771        13.5190        14.7619        15.1619        15.1619        15.1619        15.1619        15.1619        15.1619         0.0000         0.0001         0.3740        -2.8640         0.2261         1.0000        33.0000      1289.1219     -1149.1219         1.0000         2.2320         0.0562         2.5460 
 1289.3040         0.4833         0.0001         8.6220         0.2682         0.0798        84.0630       187.7030         7.7288        50.7335        51.4880        74.2940         0.0000         3.0100         2.9390         0.0000         2.7298         6.9428        11.2359        12.7321        12.7322        13.4970        14.8838        15.2329        15.2329        15.2329        15.2329        15.2329        15.2329         0.0000         0.0001         0.3750        -2.2280         0.2266         1.0000        33.0000      1289.2743     -1149.2743         1.0000         2.2330         0.0583         2.5460 
 1289.4564         0.4834         0.0001         8.6220         0.2637         0.0786        84.0620       185.4610         8.0040        50.2450        51.5164        74.1040         0.0000         3.0700         3.0000         0.0000         2.6631         7.0139        11.3889        12.8189        12.8189        13.4251        14.6422        15.0022        15.0022        15.0022        15.0022        15.0022        15.0022         0.0000         0.0001         0.3710        -1.8910         0.2301         1.0000        33.0000      1289.4268     -1149.4268         1.0000         2.2060         0.0578         2.5480 
 1289.6088         0.4832         0.0001         8.6190         0.2603         0.0810        84.0720       184.4340         8.2793        49.7565        51.5447        72.1750         0.0000         3.2790         3.2070         0.0000         2.4835         6.9095        11.3583        12.7404        12.7404        13.2704        14.3456        14.6518        14.6518        14.6518        14.6518        14.6518        14.6518         0.0000         0.0001         0.3690        -1.7220         0.2327         1.0000        33.0000      1289.5791     -1149.5791         1.0000         2.1940         0.0531         2.5440 
 1289.7612         0.4814         0.0001         8.6120         0.2522         0.0857        84.2250       183.2470         8.5545        49.2680        51.5730        70.7200         0.0000         3.3960         3.3250         0.0000         2.1343         6.5443        11.0572        12.4153        12.4153        12.9912        13.9673        14.1214        14.1214        14.1214        14.1214        14.1214        14.1214         0.0000         0.0001         0.3660        -1.6410         0.2308         1.0000        33.0000      1289.7316     -1149.7316         0.8972         2.1760         0.0496         2.5360 
 1289.9136         0.4793         0.0002         8.6090         0.2444         0.0893        84.4000       183.2140         8.8298        49.2680        51.6014        70.3950         0.0000         3.3140         3.2480         0.0000         2.0959         6.6027        11.1007        12.4717        12.4717        12.8511        13.6006        13.7016        13.7016        13.7016        13.7016        13.7016        13.7016         0.0000         0.0002         0.3650        -1.6650         0.2240         1.0000        33.0000      1289.8839     -1149.8839         0.8736         2.1710         0.0489         2.5300 
 1290.0660         0.4884         0.0002         8.6090         0.2424         0.0863        83.6420       182.9480         9.1050        50.7078        51.6297        70.3320         0.0000         3.5590         3.4910         0.0000         2.1719         6.8027        11.2508        12.6577        12.6617        12.7681        13.2535        13.3405        13.3405        13.3405        13.3405        13.3405        13.3405         0.0000         0.0002         0.3680        -1.8320         0.2144         1.0000        33.0000      1290.0364     -1150.0364         0.8691         2.1870         0.0487         2.5350 
 1290.2184         0.4992         0.0013         8.6020         0.2451         0.0780        82.7420       182.6860         9.3803        52.1477        51.6297        69.3690         0.0000         3.6240         3.5580         0.0000         2.2919         6.8050        11.0642        12.6970        12.8079        12.8479        13.2280        13.4030        13.4030        13.4030        13.4030        13.4030        13.4030         0.0000         0.0013         0.3710        -1.8880         0.2060         1.0000        33.0000      1290.1887     -1150.1887         0.8040         2.2080         0.0465         2.5490 
 1290.3708         0.5131         0.0077         8.5960         0.2439         0.0673        81.5790       182.5640         9.6555        53.5875        52.4875        67.9230         0.0000         3.7020         3.6380         0.0000         2.5105         6.8718        10.8484        12.5296        12.6896        12.6896        12.9758        13.1808        13.1808        13.1808        13.1808        13.1808        13.1808         0.0000         0.0077         0.3750        -1.7300         0.2024         1.0000        33.0000      1290.3412     -1150.3412         0.7166         2.2380         0.0432         2.5670 
 1290.5232         0.5184         0.0107         8.6110         0.2373         0.0595        81.1380       182.1820         9.9307        55.0274        53.3452        67.6020         0.0001         4.1860         4.1160         0.0000         2.8947         7.0459        10.5862        12.0184        12.1314        12.1314        12.3465        12.4816        12.4816        12.4816        12.4816        12.4816        12.4816         0.0000         0.0107         0.3760        -1.6060         0.2042         1.0000        33.0000      1290.4935     -1150.4935         0.6986         2.2450         0.0425         2.5800 
 1290.6756         0.5204         0.0038         8.6400         0.2339         0.0571        80.9760       182.2680        10.2060        56.4672        54.2030        68.5470         0.0000         3.8360         3.7740         0.0000         3.2275         7.0930        10.2396        11.6305        11.7505        11.7505        11.9275        12.0276        12.0276        12.0276        12.0276        12.0276        12.0276         0.0000         0.0038         0.3770        -1.6780         0.2094         1.0000        33.0000      1290.6460     -1150.6460         0.7530         2.2510         0.0446         2.5840 
 1290.8280         0.5183         0.0011         8.6610         0.2372         0.0577        81.1510       183.0050        10.4812        57.9071        54.4060        69.4820         0.0000         3.5310         3.4760         0.0000         3.5238         7.0730         9.8603        11.2933        11.4383        11.4383        11.5903        11.6703        11.6723        11.6723        11.6723        11.6723        11.6723         0.0000         0.0011         0.3780        -1.8520         0.2157         1.0000        33.0000      1290.7983     -1150.7983         0.8113         2.2550         0.0467         2.5830 
