~VERSION INFORMATION
 VERS.                 2.0:   CWLS LOG ASCII STANDARD - VERSION 2.0
 WRAP.                  NO:   SINGLE LINE PER DEPTH STEP
~WELL INFORMATION
#MNEM.UNIT       DATA           DESCRIPTION MNEMONIC
#---------    -------------   --------------------------
 STRT.M         550.0116                      : START DEPTH
 STOP.M         1468.2216                     : STOP DEPTH
 STEP.M         0.1524                        : STEP VALUE
 NULL.          -999.0000                     : NULL VALUE
 SRVC.          PYPOZO                        : Service Company/Logging company
 DATE.          01/07/2025                    : LAS file Creation Date
 WELL    .      PALO BLANCO 791                : Well Name
 COMP    .      PYPOZO 2.0                    : Company
 FLD     .      UNKNOWN                       : Field
 LOC     .      UNKNOWN                       : Location
 LATI    .      0                             : Latitude/Northing
 LONG    .      0                             : Longitude/Easting
 APDAT   .      0                             : Elevation Above Permanent Datum
~CURVE INFORMATION
#MNEM          UNIT     API CODE   Curve Type Comments
#---------- ---------- ----------  ---------- --------
 DEPTH     .M                    : Depth      
 BRITT     .UNIT                       : BRITT      
 BVW       .Dec                        : BVW        
 CAL       .IN                         : CAL        
 CNCF      .dec                        : CNCF       
 DPHI      .dec                        : DPHI       
 DTC       .US/F                       : DTC        
 DTS       .US/F                       : DTS        
 ECHADOS   .DEG                        : ECHADOS    
 FRAC_IND  .DEG                        : FRAC_IND   
 FRAC_NAT  .DEG                        : FRAC_NAT   
 GR        .GAPI                       : GR         
 KTIXIER   .mD                         : KTIXIER    
 M1R6      .OHMM                       : M1R6       
 M1R9      .OHMM                       : M1R9       
 MPERMC    .MD                         : MPERMC     
 MPOC01    .p.u                        : MPOC01     
 MPOC02    .p.u                        : MPOC02     
 MPOC03    .p.u                        : MPOC03     
 MPOC04    .p.u                        : MPOC04     
 MPOC05    .p.u                        : MPOC05     
 MPOC06    .p.u                        : MPOC06     
 MPOC07    .p.u                        : MPOC07     
 MPOC08    .p.u                        : MPOC08     
 MPOC09    .p.u                        : MPOC09     
 MPOC10    .p.u                        : MPOC10     
 MPOC11    .p.u                        : MPOC11     
 MPOC12    .p.u                        : MPOC12     
 MPOC13    .p.u                        : MPOC13     
 PAYFLAG   .UNIT                       : PAYFLAG    
 PHIE      .Dec                        : PHIE       
 POISDIN   .UNIT                       : POISDIN    
 SP        .MV                         : SP         
 SPHI      .dec                        : SPHI       
 SW        .Dec                        : SW         
 T2_CUT_33 .ms                         : T2_CUT_33  
 TVD       .M                          : TVD        
 TVDSS     .M                          : TVDSS      
 VCL       .Dec                        : VCL        
 VPVS      .ft/sec                     : VPVS       
 VSH-LAR   .UNIT                       : VSH-LAR    
 ZDEN      .G/C3                       : ZDEN       
~A Log data section
# ...
  599.5416         0.1110      -999.0000        11.2710         0.3924         0.2673       115.0880       307.5760      -999.0000      -999.0000      -999.0000        92.9990    -49950.0000         1.9010         1.9200      -999.0000      -999.0000      -999.0000      -999.0000      -999.0000      -999.0000      -999.0000      -999.0000      -999.0000      -999.0000      -999.0000      -999.0000      -999.0000      -999.0000         0.0000      -999.0000         0.4190        -4.0140         0.4681      -999.0000        33.0000       599.5251      -459.5251      -999.0000         2.6730         0.1137         2.2310 
  599.6940         0.1048      -999.0000        11.1940         0.4018         0.2899       115.6110       308.4470      -999.0000      -999.0000      -999.0000        93.2080    -49950.0000         1.9040         1.9240      -999.0000      -999.0000      -999.0000      -999.0000      -999.0000      -999.0000      -999.0000      -999.0000      -999.0000      -999.0000      -999.0000      -999.0000      -999.0000      -999.0000         0.0000      -999.0000         0.4180        -3.6990         0.4655      -999.0000        33.0000       599.6774      -459.6774      -999.0000         2.6680         0.1144         2.1930 
  599.8464         0.0999      -999.0000        11.0600         0.4148         0.3143       116.0180       298.6260      -999.0000      -999.0000      -999.0000        91.9690    -49950.0000         1.7030         1.7220      -999.0000      -999.0000      -999.0000      -999.0000      -999.0000      -999.0000      -999.0000      -999.0000      -999.0000      -999.0000      -999.0000      -999.0000      -999.0000      -999.0000         0.0000      -999.0000         0.4110        -3.3830         0.4551      -999.0000        33.0000       599.8298      -459.8298      -999.0000         2.5740         0.1102         2.1520 
  599.9988         0.0952         0.0001        10.8930         0.4240         0.3238       116.4080       296.3000      -999.0000      -999.0000      -999.0000        91.0090        -0.0000         1.9130         1.9370      -999.0000      -999.0000      -999.0000      -999.0000      -999.0000      -999.0000      -999.0000      -999.0000      -999.0000      -999.0000      -999.0000      -999.0000      -999.0000      -999.0000         0.0000         0.0001         0.4090        -3.2700         0.4404         1.0000        33.0000       599.9822      -459.9822         1.0000         2.5450         0.1069         2.1360 
  600.1512         0.0931         0.0001        10.7700         0.4319         0.3125       116.5830       291.9050      -999.0000      -999.0000      -999.0000        91.5860         0.0000         2.0820         2.1100      -999.0000      -999.0000      -999.0000      -999.0000      -999.0000      -999.0000      -999.0000      -999.0000      -999.0000      -999.0000      -999.0000      -999.0000      -999.0000      -999.0000         0.0000         0.0001         0.4050        -3.4780         0.4289         1.0000        33.0000       600.1346      -460.1346         1.0000         2.5040         0.1089         2.1550 
  600.3036         0.0981         0.0001        10.7380         0.4553         0.2917       116.1680       291.2570      -999.0000      -999.0000      -999.0000        92.5820         0.0000         1.8480         1.8760      -999.0000      -999.0000      -999.0000      -999.0000      -999.0000      -999.0000      -999.0000      -999.0000      -999.0000      -999.0000      -999.0000      -999.0000      -999.0000      -999.0000         0.0000         0.0001         0.4050        -3.6700         0.4266         1.0000        33.0000       600.2870      -460.2870         1.0000         2.5070         0.1123         2.1900 
  600.4560         0.1113         0.0001        10.8230         0.4709         0.2792       115.0680       291.0100      -999.0000      -999.0000      -999.0000        92.3540         0.0000         2.0170         2.0490      -999.0000      -999.0000      -999.0000      -999.0000      -999.0000      -999.0000      -999.0000      -999.0000      -999.0000      -999.0000      -999.0000      -999.0000      -999.0000      -999.0000         0.0000         0.0001         0.4070        -3.7360         0.4332         1.0000        33.0000       600.4395      -460.4394         1.0000         2.5290         0.1115         2.2110 
  600.6084         0.1190         0.0001        10.9720         0.4536         0.2792       114.4260       292.7650      -999.0000      -999.0000      -999.0000        90.6000         0.0000         2.2940         2.3330      -999.0000      -999.0000      -999.0000      -999.0000      -999.0000      -999.0000      -999.0000      -999.0000      -999.0000      -999.0000      -999.0000      -999.0000      -999.0000      -999.0000         0.0000         0.0001         0.4100        -3.8950         0.4429         1.0000        33.0000       600.5919      -460.5918         1.0000         2.5590         0.1055         2.2110 
  600.7608         0.1190         0.0001        11.0690         0.4426         0.2792       114.4250       298.9680      -999.0000      -999.0000      -999.0000        88.6300         0.0000         1.8080         1.8410      -999.0000      -999.0000      -999.0000      -999.0000      -999.0000      -999.0000      -999.0000      -999.0000      -999.0000      -999.0000      -999.0000      -999.0000      -999.0000      -999.0000         0.0000         0.0001         0.4140        -4.0300         0.4511         1.0000        33.0000       600.7443      -460.7442         1.0000         2.6130         0.0991         2.2110 
  600.9132         0.1117         0.0001        11.0760         0.4624         0.2744       115.0310       303.1770      -999.0000      -999.0000      -999.0000        88.5650         0.0000         1.4950         1.5230      -999.0000      -999.0000      -999.0000      -999.0000      -999.0000      -999.0000      -999.0000      -999.0000      -999.0000      -999.0000      -999.0000      -999.0000      -999.0000      -999.0000         0.0000         0.0001         0.4160        -3.9640         0.4565         1.0000        33.0000       600.8966      -460.8966         1.0000         2.6360         0.0989         2.2190 
  601.0656         0.0985         0.0001        11.0410         0.4746         0.2714       116.1300       308.2590      -999.0000      -999.0000      -999.0000        90.8820         0.0000         1.7410         1.7750      -999.0000      -999.0000      -999.0000      -999.0000      -999.0000      -999.0000      -999.0000      -999.0000      -999.0000      -999.0000      -999.0000      -999.0000      -999.0000      -999.0000         0.0000         0.0001         0.4170        -3.8210         0.4589         1.0000        33.0000       601.0490      -461.0490         1.0000         2.6540         0.1065         2.2240 
  601.2180         0.0934         0.0001        10.9810         0.4543         0.2774       116.5580       304.1700      -999.0000      -999.0000      -999.0000        93.3360         0.0000         1.8520         1.8890      -999.0000      -999.0000      -999.0000      -999.0000      -999.0000      -999.0000      -999.0000      -999.0000      -999.0000      -999.0000      -999.0000      -999.0000      -999.0000      -999.0000         0.0000         0.0001         0.4140        -3.7110         0.4580         1.0000        33.0000       601.2014      -461.2014         1.0000         2.6100         0.1149         2.2140 
  601.3704         0.0980         0.0001        10.9630         0.4346         0.2893       116.1730       305.8130      -999.0000      -999.0000      -999.0000        93.5310         0.0000         1.8080         1.8450      -999.0000      -999.0000      -999.0000      -999.0000      -999.0000      -999.0000      -999.0000      -999.0000      -999.0000      -999.0000      -999.0000      -999.0000      -999.0000      -999.0000         0.0000         0.0001         0.4160        -3.5900         0.4544         1.0000        33.0000       601.3538      -461.3539         1.0000         2.6320         0.1156         2.1940 
