~VERSION INFORMATION
 VERS.                 2.0:   CWLS LOG ASCII STANDARD - VERSION 2.0
 WRAP.                  NO:   SINGLE LINE PER DEPTH STEP
~WELL INFORMATION
#MNEM.UNIT       DATA           DESCRIPTION MNEMONIC
#---------    -------------   --------------------------
 STRT.M         550.0116                      : START DEPTH
 STOP.M         1468.2216                     : STOP DEPTH
 STEP.M         0.1524                        : STEP VALUE
 NULL.          -999.0000                     : NULL VALUE
 SRVC.          PYPOZO                        : Service Company/Logging company
 DATE.          01/07/2025                    : LAS file Creation Date
 WELL    .      PALO BLANCO 791                : Well Name
 COMP    .      PYPOZO 2.0                    : Company
 FLD     .      UNKNOWN                       : Field
 LOC     .      UNKNOWN                       : Location
 LATI    .      0                             : Latitude/Northing
 LONG    .      0                             : Longitude/Easting
 APDAT   .      0                             : Elevation Above Permanent Datum
~CURVE INFORMATION
#MNEM          UNIT     API CODE   Curve Type Comments
#---------- ---------- ----------  ---------- --------
 DEPTH     .M                    : Depth      
 BRITT     .UNIT                       : BRITT      
 BVW       .Dec                        : BVW        
 CAL       .IN                         : CAL        
 CNCF      .dec                        : CNCF       
 DPHI      .dec                        : DPHI       
 DTC       .US/F                       : DTC        
 DTS       .US/F                       : DTS        
 ECHADOS   .DEG                        : ECHADOS    
 FRAC_IND  .DEG                        : FRAC_IND   
 FRAC_NAT  .DEG                        : FRAC_NAT   
 GR        .GAPI                       : GR         
 KTIXIER   .mD                         : KTIXIER    
 M1R6      .OHMM                       : M1R6       
 M1R9      .OHMM                       : M1R9       
 MPERMC    .MD                         : MPERMC     
 MPOC01    .p.u                        : MPOC01     
 MPOC02    .p.u                        : MPOC02     
 MPOC03    .p.u                        : MPOC03     
 MPOC04    .p.u                        : MPOC04     
 MPOC05    .p.u                        : MPOC05     
 MPOC06    .p.u                        : MPOC06     
 MPOC07    .p.u                        : MPOC07     
 MPOC08    .p.u                        : MPOC08     
 MPOC09    .p.u                        : MPOC09     
 MPOC10    .p.u                        : MPOC10     
 MPOC11    .p.u                        : MPOC11     
 MPOC12    .p.u                        : MPOC12     
 MPOC13    .p.u                        : MPOC13     
 PAYFLAG   .UNIT                       : PAYFLAG    
 PHIE      .Dec                        : PHIE       
 POISDIN   .UNIT                       : POISDIN    
 SP        .MV                         : SP         
 SPHI      .dec                        : SPHI       
 SW        .Dec                        : SW         
 T2_CUT_33 .ms                         : T2_CUT_33  
 TVD       .M                          : TVD        
 TVDSS     .M                          : TVDSS      
 VCL       .Dec                        : VCL        
 VPVS      .ft/sec                     : VPVS       
 VSH-LAR   .UNIT                       : VSH-LAR    
 ZDEN      .G/C3                       : ZDEN       
~A Log data section
# ...
 1403.9088         0.4510         0.0003         8.6230         0.2499         0.0690        86.7600       183.8460         5.8585      -999.0000      -999.0000        76.3540         0.0000         3.4700         3.4270         0.0000         1.8037         6.6787        10.9837        12.3907        12.4976        12.6366        13.3085        13.4744        13.4744        13.4744        13.4744        13.5194        13.7254         0.0000         0.0003         0.3570        -1.0540         0.2100         1.0000        33.0000      1403.8782     -1263.8782         0.8621         2.1190         0.0635         2.5640 
 1404.0612         0.4699         0.0021         8.6200         0.2437         0.0619        85.1830       180.8670         5.8353      -999.0000      -999.0000        72.5750         0.0000         2.8950         2.8610         0.0000         1.9804         6.4422        10.6085        12.5075        13.3721        13.7587        14.1023        14.1825        14.1825        14.1825        14.1825        14.2405        14.4764         0.0000         0.0021         0.3570        -0.0510         0.2175         1.0000        33.0000      1404.0305     -1264.0305         0.7810         2.1230         0.0540         2.5760 
 1404.2136         0.4899         0.0174         8.6230         0.2385         0.0589        83.5190       177.5030         5.8122      -999.0000      -999.0000        70.3420         0.0003         3.5340         3.4960         0.0000         2.0262         5.9697        10.0497        12.5282        14.0718        14.5948        14.6310        14.6310        14.6310        14.6310        14.6310        14.6940        14.9540         0.0000         0.0174         0.3580         1.0730         0.2300         1.0000        33.0000      1404.1830     -1264.1830         0.6688         2.1250         0.0487         2.5810 
 1404.3660         0.4907         0.0201         8.6370         0.2404         0.0595        83.4480       176.8510         5.7890      -999.0000      -999.0000        70.1380         0.0004         4.0180         3.9790         0.0000         1.2083         4.5503         8.7581        11.8291        13.5039        13.7524        13.7604        13.7604        13.7604        13.7604        13.7604        13.8114        14.0734         0.0000         0.0201         0.3570         2.1780         0.2398         1.0000        33.0000      1404.3353     -1264.3353         0.6594         2.1190         0.0483         2.5800 
 1404.5184         0.4883         0.0057         8.6340         0.2479         0.0643        83.6520       176.9380         5.7658      -999.0000      -999.0000        71.6540         0.0000         3.8270         3.7920         0.0000         1.1858         4.5815         8.7765        11.7708        13.5548        13.8826        13.8826        13.8826        13.8826        13.8826        13.8826        13.9386        14.1786         0.0000         0.0057         0.3560         2.8330         0.2434         1.0000        33.0000      1404.4878     -1264.4878         0.7325         2.1150         0.0518         2.5720 
 1404.6708         0.4841         0.0015         8.6100         0.2498         0.0720        83.9980       179.0540         5.7427      -999.0000      -999.0000        73.7510         0.0000         3.6620         3.6300         0.0000         1.4928         5.1516         9.2667        11.9189        13.6751        14.1590        14.1590        14.1590        14.1590        14.1590        14.1620        14.2350        14.4300         0.0000         0.0015         0.3590         3.1180         0.2416         1.0000        33.0000      1404.6401     -1264.6401         0.7978         2.1320         0.0569         2.5590 
 1404.8232         0.4837         0.0026         8.5960         0.2503         0.0756        84.0320       179.0620         5.7195      -999.0000      -999.0000        75.6990         0.0000         3.7540         3.7210         0.0000         1.7706         5.2488         9.2550        11.6544        12.5508        12.7043        12.7043        12.7043        12.7043        12.7043        12.7293        12.8502        12.9094         0.0000         0.0026         0.3590         2.9040         0.2369         1.0000        33.0000      1404.7926     -1264.7926         0.7713         2.1310         0.0618         2.5530 
 1404.9756         0.4833         0.0012         8.6040         0.2603         0.0708        84.0640       180.2530         5.6963      -999.0000      -999.0000        76.5270         0.0000         3.6310         3.5990         0.0000         2.1367         5.8422         9.8052        11.7857        12.1379        12.1449        12.1449        12.1449        12.1469        12.1719        12.2139        12.3029        12.3029         0.0000         0.0012         0.3610         1.9360         0.2318         1.0000        33.0000      1404.9449     -1264.9449         0.8072         2.1440         0.0640         2.5610 
 1405.1280         0.4811         0.0006         8.6110         0.2728         0.0607        84.2540       179.5100         5.6731      -999.0000      -999.0000        75.5940         0.0000         3.5360         3.5060         0.0000         2.5494         6.7606        10.7276        12.1964        12.2588        12.2588        12.2658        12.2808        12.2897        12.3547        12.4067        12.4068        12.4068         0.0000         0.0006         0.3590         0.8730         0.2281         1.0000        33.0000      1405.0974     -1265.0974         0.8362         2.1310         0.0616         2.5780 
 1405.2804         0.4785         0.0005         8.6040         0.2722         0.0518        84.4670       178.3330         5.6500      -999.0000      -999.0000        73.8530         0.0000         3.5210         3.4920         0.0000         2.5730         6.8359        10.7660        12.2609        12.3499        12.3499        12.5018        12.8136        12.9065        12.9275        12.9446        12.9446        12.9446         0.0000         0.0005         0.3550         0.8010         0.2276         1.0000        33.0000      1405.2498     -1265.2498         0.8407         2.1110         0.0572         2.5930 
 1405.4328         0.4740         0.0020         8.5960         0.2632         0.0530        84.8450       178.7390         5.6268      -999.0000      -999.0000        72.6320         0.0000         3.1360         3.1110         0.0000         2.8851         7.3246        11.3493        12.9360        13.0709        13.0709        13.2271        13.5884        13.6945        13.6945        13.6945        13.6945        13.6945         0.0000         0.0020         0.3550         1.7250         0.2326         1.0000        33.0000      1405.4021     -1265.4021         0.7841         2.1070         0.0542         2.5910 
 1405.5852         0.4669         0.0015         8.5990         0.2588         0.0625        85.4360       181.6780         5.6036      -999.0000      -999.0000        72.8540         0.0000         3.4090         3.3840         0.0000         3.4555         8.1873        12.4251        14.1600        14.3590        14.3590        14.3941        14.5842        14.6372        14.6372        14.6372        14.6372        14.6372         0.0000         0.0015         0.3580         2.6030         0.2419         1.0000        33.0000      1405.5546     -1265.5546         0.7964         2.1260         0.0547         2.5750 
 1405.7376         0.4622         0.0021         8.5950         0.2594         0.0744        85.8260       184.5750         5.5805      -999.0000      -999.0000        74.4940         0.0000         3.7140         3.6880         0.0000         2.9868         7.6789        12.0826        14.1730        14.6915        14.6915        14.9731        15.2799        15.2990        15.2990        15.2990        15.2990        15.2990         0.0000         0.0021         0.3620         3.0910         0.2491         1.0000        33.0000      1405.7069     -1265.7069         0.7807         2.1510         0.0588         2.5550 
