~VERSION INFORMATION
 VERS.                 2.0:   CWLS LOG ASCII STANDARD - VERSION 2.0
 WRAP.                  NO:   SINGLE LINE PER DEPTH STEP
~WELL INFORMATION
#MNEM.UNIT       DATA           DESCRIPTION MNEMONIC
#---------    -------------   --------------------------
 STRT.M         550.0116                      : START DEPTH
 STOP.M         1468.2216                     : STOP DEPTH
 STEP.M         0.1524                        : STEP VALUE
 NULL.          -999.0000                     : NULL VALUE
 SRVC.          PYPOZO                        : Service Company/Logging company
 DATE.          01/07/2025                    : LAS file Creation Date
 WELL    .      PALO BLANCO 791                : Well Name
 COMP    .      PYPOZO 2.0                    : Company
 FLD     .      UNKNOWN                       : Field
 LOC     .      UNKNOWN                       : Location
 LATI    .      0                             : Latitude/Northing
 LONG    .      0                             : Longitude/Easting
 APDAT   .      0                             : Elevation Above Permanent Datum
~CURVE INFORMATION
#MNEM          UNIT     API CODE   Curve Type Comments
#---------- ---------- ----------  ---------- --------
 DEPTH     .M                    : Depth      
 BRITT     .UNIT                       : BRITT      
 BVW       .Dec                        : BVW        
 CAL       .IN                         : CAL        
 CNCF      .dec                        : CNCF       
 DPHI      .dec                        : DPHI       
 DTC       .US/F                       : DTC        
 DTS       .US/F                       : DTS        
 ECHADOS   .DEG                        : ECHADOS    
 FRAC_IND  .DEG                        : FRAC_IND   
 FRAC_NAT  .DEG                        : FRAC_NAT   
 GR        .GAPI                       : GR         
 KTIXIER   .mD                         : KTIXIER    
 M1R6      .OHMM                       : M1R6       
 M1R9      .OHMM                       : M1R9       
 MPERMC    .MD                         : MPERMC     
 MPOC01    .p.u                        : MPOC01     
 MPOC02    .p.u                        : MPOC02     
 MPOC03    .p.u                        : MPOC03     
 MPOC04    .p.u                        : MPOC04     
 MPOC05    .p.u                        : MPOC05     
 MPOC06    .p.u                        : MPOC06     
 MPOC07    .p.u                        : MPOC07     
 MPOC08    .p.u                        : MPOC08     
 MPOC09    .p.u                        : MPOC09     
 MPOC10    .p.u                        : MPOC10     
 MPOC11    .p.u                        : MPOC11     
 MPOC12    .p.u                        : MPOC12     
 MPOC13    .p.u                        : MPOC13     
 PAYFLAG   .UNIT                       : PAYFLAG    
 PHIE      .Dec                        : PHIE       
 POISDIN   .UNIT                       : POISDIN    
 SP        .MV                         : SP         
 SPHI      .dec                        : SPHI       
 SW        .Dec                        : SW         
 T2_CUT_33 .ms                         : T2_CUT_33  
 TVD       .M                          : TVD        
 TVDSS     .M                          : TVDSS      
 VCL       .Dec                        : VCL        
 VPVS      .ft/sec                     : VPVS       
 VSH-LAR   .UNIT                       : VSH-LAR    
 ZDEN      .G/C3                       : ZDEN       
~A Log data section
# ...
  771.9060         0.2563         0.0529         8.8960         0.3052         0.1179       102.9850       223.9880      -999.0000      -999.0000      -999.0000        69.9590         0.0074         2.4460         2.4610      -999.0000      -999.0000      -999.0000      -999.0000      -999.0000      -999.0000      -999.0000      -999.0000      -999.0000      -999.0000      -999.0000      -999.0000      -999.0000      -999.0000         0.0000         0.0529         0.3660        -3.2130         0.3632         1.0000        33.0000       771.8834      -631.8834         0.5854         2.1750         0.0478         2.4820 
  772.0584         0.2559         0.0156         8.8860         0.3169         0.1250       103.0210       225.9690      -999.0000      -999.0000      -999.0000        72.1380         0.0002         2.1130         2.1250      -999.0000      -999.0000      -999.0000      -999.0000      -999.0000      -999.0000      -999.0000      -999.0000      -999.0000      -999.0000      -999.0000      -999.0000      -999.0000      -999.0000         0.0000         0.0156         0.3690        -3.2360         0.3600         1.0000        33.0000       772.0358      -632.0358         0.6755         2.1930         0.0530         2.4700 
  772.2108         0.2594         0.0038         8.8770         0.3232         0.1292       102.7210       224.3190      -999.0000      -999.0000      -999.0000        73.8120         0.0000         1.8440         1.8550      -999.0000      -999.0000      -999.0000      -999.0000      -999.0000      -999.0000      -999.0000      -999.0000      -999.0000      -999.0000      -999.0000      -999.0000      -999.0000      -999.0000         0.0000         0.0038         0.3670        -3.5180         0.3465         1.0000        33.0000       772.1882      -632.1882         0.7535         2.1840         0.0571         2.4630 
  772.3632         0.2694         0.0161         8.8790         0.3199         0.1256       101.8900       225.9530      -999.0000      -999.0000      -999.0000        72.1010         0.0002         2.0450         2.0580      -999.0000      -999.0000      -999.0000      -999.0000      -999.0000      -999.0000      -999.0000      -999.0000      -999.0000      -999.0000      -999.0000      -999.0000      -999.0000      -999.0000         0.0000         0.0161         0.3720        -3.8420         0.3293         1.0000        33.0000       772.3406      -632.3406         0.6739         2.2180         0.0529         2.4690 
  772.5156         0.2835         0.0966         8.8860         0.3189         0.1161       100.7200       231.2320      -999.0000      -999.0000      -999.0000        67.5240         0.0451         2.4430         2.4600      -999.0000      -999.0000      -999.0000      -999.0000      -999.0000      -999.0000      -999.0000      -999.0000      -999.0000      -999.0000      -999.0000      -999.0000      -999.0000      -999.0000         0.0000         0.0966         0.3830        -3.9440         0.3175         1.0000        33.0000       772.4930      -632.4930         0.4968         2.2960         0.0423         2.4850 
  772.6680         0.3000         0.1173         8.8830         0.3221         0.1071        99.3440       229.5990      -999.0000      -999.0000      -999.0000        64.0990         0.0808         2.3830         2.4030      -999.0000      -999.0000      -999.0000      -999.0000      -999.0000      -999.0000      -999.0000      -999.0000      -999.0000      -999.0000      -999.0000      -999.0000      -999.0000      -999.0000         0.0000         0.1173         0.3850        -3.7110         0.3191         1.0000        33.0000       772.6454      -632.6454         0.3888         2.3110         0.0350         2.5000 
  772.8204         0.3076         0.1181         8.8740         0.3217         0.1042        98.7050       225.8150      -999.0000      -999.0000      -999.0000        63.7880         0.0823         2.4500         2.4730      -999.0000      -999.0000      -999.0000      -999.0000      -999.0000      -999.0000      -999.0000      -999.0000      -999.0000      -999.0000      -999.0000      -999.0000      -999.0000      -999.0000         0.0000         0.1181         0.3820        -3.2620         0.3349         1.0000        33.0000       772.7977      -632.7977         0.3798         2.2880         0.0343         2.5050 
  772.9728         0.3051         0.0925         8.8710         0.3130         0.1083        98.9130       223.3490      -999.0000      -999.0000      -999.0000        67.2040         0.0396         2.6930         2.7230      -999.0000      -999.0000      -999.0000      -999.0000      -999.0000      -999.0000      -999.0000      -999.0000      -999.0000      -999.0000      -999.0000      -999.0000      -999.0000      -999.0000         0.0000         0.0925         0.3780        -2.9330         0.3579         1.0000        33.0000       772.9501      -632.9501         0.4790         2.2580         0.0416         2.4980 
  773.1252         0.2944         0.0098         8.8820         0.3086         0.1190        99.8070       226.7830      -999.0000      -999.0000      -999.0000        72.7570         0.0000         2.2390         2.2680      -999.0000      -999.0000      -999.0000      -999.0000      -999.0000      -999.0000      -999.0000      -999.0000      -999.0000      -999.0000      -999.0000      -999.0000      -999.0000      -999.0000         0.0000         0.0098         0.3800        -2.9910         0.3793         1.0000        33.0000       773.1025      -633.1025         0.7033         2.2720         0.0545         2.4800 
  773.2776         0.2741         0.0001         8.9020         0.3240         0.1310       101.5030       225.6490      -999.0000      -999.0000      -999.0000        76.3510         0.0000         1.8900         1.9170      -999.0000      -999.0000      -999.0000      -999.0000      -999.0000      -999.0000      -999.0000      -999.0000      -999.0000      -999.0000      -999.0000      -999.0000      -999.0000      -999.0000         0.0000         0.0001         0.3730        -3.2250         0.3933         1.0000        33.0000       773.2549      -633.2549         0.8916         2.2230         0.0635         2.4600 
  773.4300         0.2506         0.0001         8.9100         0.3571         0.1381       103.4590       231.3060      -999.0000      -999.0000      -999.0000        76.9030         0.0000         1.9250         1.9560      -999.0000      -999.0000      -999.0000      -999.0000      -999.0000      -999.0000      -999.0000      -999.0000      -999.0000      -999.0000      -999.0000      -999.0000      -999.0000      -999.0000         0.0000         0.0001         0.3750        -3.3040         0.3974         1.0000        33.0000       773.4073      -633.4073         0.9259         2.2360         0.0649         2.4480 
  773.5824         0.2304         0.0001         8.9010         0.3757         0.1399       105.1410       233.3280      -999.0000      -999.0000      -999.0000        77.1140         0.0000         1.9090         1.9410      -999.0000      -999.0000      -999.0000      -999.0000      -999.0000      -999.0000      -999.0000      -999.0000      -999.0000      -999.0000      -999.0000      -999.0000      -999.0000      -999.0000         0.0000         0.0001         0.3730        -3.2880         0.3921         1.0000        33.0000       773.5597      -633.5597         0.9394         2.2190         0.0655         2.4450 
  773.7348         0.2100         0.0001         8.8870         0.3642         0.1411       106.8410       247.7290      -999.0000      -999.0000      -999.0000        78.3680         0.0000         1.8970         1.9300      -999.0000      -999.0000      -999.0000      -999.0000      -999.0000      -999.0000      -999.0000      -999.0000      -999.0000      -999.0000      -999.0000      -999.0000      -999.0000      -999.0000         0.0000         0.0001         0.3860        -3.3050         0.3804         1.0000        33.0000       773.7121      -633.7121         1.0000         2.3190         0.0688         2.4430 
