~VERSION INFORMATION
 VERS.                 2.0:   CWLS LOG ASCII STANDARD - VERSION 2.0
 WRAP.                  NO:   SINGLE LINE PER DEPTH STEP
~WELL INFORMATION
#MNEM.UNIT       DATA           DESCRIPTION MNEMONIC
#---------    -------------   --------------------------
 STRT.M         550.0116                      : START DEPTH
 STOP.M         1468.2216                     : STOP DEPTH
 STEP.M         0.1524                        : STEP VALUE
 NULL.          -999.0000                     : NULL VALUE
 SRVC.          PYPOZO                        : Service Company/Logging company
 DATE.          01/07/2025                    : LAS file Creation Date
 WELL    .      PALO BLANCO 791                : Well Name
 COMP    .      PYPOZO 2.0                    : Company
 FLD     .      UNKNOWN                       : Field
 LOC     .      UNKNOWN                       : Location
 LATI    .      0                             : Latitude/Northing
 LONG    .      0                             : Longitude/Easting
 APDAT   .      0                             : Elevation Above Permanent Datum
~CURVE INFORMATION
#MNEM          UNIT     API CODE   Curve Type Comments
#---------- ---------- ----------  ---------- --------
 DEPTH     .M                    : Depth      
 BRITT     .UNIT                       : BRITT      
 BVW       .Dec                        : BVW        
 CAL       .IN                         : CAL        
 CNCF      .dec                        : CNCF       
 DPHI      .dec                        : DPHI       
 DTC       .US/F                       : DTC        
 DTS       .US/F                       : DTS        
 ECHADOS   .DEG                        : ECHADOS    
 FRAC_IND  .DEG                        : FRAC_IND   
 FRAC_NAT  .DEG                        : FRAC_NAT   
 GR        .GAPI                       : GR         
 KTIXIER   .mD                         : KTIXIER    
 M1R6      .OHMM                       : M1R6       
 M1R9      .OHMM                       : M1R9       
 MPERMC    .MD                         : MPERMC     
 MPOC01    .p.u                        : MPOC01     
 MPOC02    .p.u                        : MPOC02     
 MPOC03    .p.u                        : MPOC03     
 MPOC04    .p.u                        : MPOC04     
 MPOC05    .p.u                        : MPOC05     
 MPOC06    .p.u                        : MPOC06     
 MPOC07    .p.u                        : MPOC07     
 MPOC08    .p.u                        : MPOC08     
 MPOC09    .p.u                        : MPOC09     
 MPOC10    .p.u                        : MPOC10     
 MPOC11    .p.u                        : MPOC11     
 MPOC12    .p.u                        : MPOC12     
 MPOC13    .p.u                        : MPOC13     
 PAYFLAG   .UNIT                       : PAYFLAG    
 PHIE      .Dec                        : PHIE       
 POISDIN   .UNIT                       : POISDIN    
 SP        .MV                         : SP         
 SPHI      .dec                        : SPHI       
 SW        .Dec                        : SW         
 T2_CUT_33 .ms                         : T2_CUT_33  
 TVD       .M                          : TVD        
 TVDSS     .M                          : TVDSS      
 VCL       .Dec                        : VCL        
 VPVS      .ft/sec                     : VPVS       
 VSH-LAR   .UNIT                       : VSH-LAR    
 ZDEN      .G/C3                       : ZDEN       
~A Log data section
# ...
  829.3608         0.0320         0.0001        10.9000         0.4336         0.4923       121.6730       321.7200      -999.0000      -999.0000      -999.0000        88.0900         0.0000         1.2540         1.2540      -999.0000      -999.0000      -999.0000      -999.0000      -999.0000      -999.0000      -999.0000      -999.0000      -999.0000      -999.0000      -999.0000      -999.0000      -999.0000      -999.0000         0.0000         0.0001         0.4170        -3.7990         0.4616         1.0000        33.0000       829.3349      -689.3349         1.0000         2.6440         0.0973         1.8530 
  829.5132         0.0572         0.0001        10.3580         0.4183         0.4708       119.5760       316.1820      -999.0000      -999.0000      -999.0000        90.7130         0.0000         1.3160         1.3160      -999.0000      -999.0000      -999.0000      -999.0000      -999.0000      -999.0000      -999.0000      -999.0000      -999.0000      -999.0000      -999.0000      -999.0000      -999.0000      -999.0000         0.0000         0.0001         0.4170        -3.5270         0.4462         1.0000        33.0000       829.4873      -689.4873         1.0000         2.6440         0.1059         1.8890 
  829.6656         0.0717         0.0001         9.8900         0.3983         0.4452       118.3680       315.8040      -999.0000      -999.0000      -999.0000        92.1010         0.0000         1.3240         1.3240      -999.0000      -999.0000      -999.0000      -999.0000      -999.0000      -999.0000      -999.0000      -999.0000      -999.0000      -999.0000      -999.0000      -999.0000      -999.0000      -999.0000         0.0000         0.0001         0.4180        -3.3030         0.4369         1.0000        33.0000       829.6397      -689.6397         1.0000         2.6680         0.1106         1.9320 
  829.8180         0.0803         0.0001         9.7930         0.3950         0.4161       117.6520       320.9990      -999.0000      -999.0000      -999.0000        91.5460         0.0000         1.2470         1.2480      -999.0000      -999.0000      -999.0000      -999.0000      -999.0000      -999.0000      -999.0000      -999.0000      -999.0000      -999.0000      -999.0000      -999.0000      -999.0000      -999.0000         0.0000         0.0001         0.4220        -3.3150         0.4356         1.0000        33.0000       829.7921      -689.7921         1.0000         2.7280         0.1087         1.9810 
  829.9704         0.0839         0.0001         9.8230         0.4051         0.3863       117.3530       324.4790      -999.0000      -999.0000      -999.0000        91.6470         0.0000         1.5180         1.5210      -999.0000      -999.0000      -999.0000      -999.0000      -999.0000      -999.0000      -999.0000      -999.0000      -999.0000      -999.0000      -999.0000      -999.0000      -999.0000      -999.0000         0.0000         0.0001         0.4250        -3.6020         0.4415         1.0000        33.0000       829.9445      -689.9445         1.0000         2.7650         0.1091         2.0310 
  830.1228         0.0851         0.0001         9.7510         0.4172         0.3696       117.2520       326.4630      -999.0000      -999.0000      -999.0000        92.7460         0.0000         1.6590         1.6630      -999.0000      -999.0000      -999.0000      -999.0000      -999.0000      -999.0000      -999.0000      -999.0000      -999.0000      -999.0000      -999.0000      -999.0000      -999.0000      -999.0000         0.0000         0.0001         0.4260        -4.0350         0.4522         1.0000        33.0000       830.0969      -690.0969         1.0000         2.7840         0.1128         2.0590 
  830.2752         0.0860         0.0001         9.7360         0.4264         0.3768       117.1750       326.5730      -999.0000      -999.0000      -999.0000        92.9190         0.0000         1.4380         1.4430      -999.0000      -999.0000      -999.0000      -999.0000      -999.0000      -999.0000      -999.0000      -999.0000      -999.0000      -999.0000      -999.0000      -999.0000      -999.0000      -999.0000         0.0000         0.0001         0.4260        -4.3090         0.4634         1.0000        33.0000       830.2493      -690.2493         1.0000         2.7870         0.1134         2.0470 
  830.4276         0.0824         0.0001         9.7540         0.4311         0.3958       117.4730       330.0980      -999.0000      -999.0000      -999.0000        92.5660         0.0000         1.3280         1.3340      -999.0000      -999.0000      -999.0000      -999.0000      -999.0000      -999.0000      -999.0000      -999.0000      -999.0000      -999.0000      -999.0000      -999.0000      -999.0000      -999.0000         0.0000         0.0001         0.4270        -4.2560         0.4699         1.0000        33.0000       830.4017      -690.4017         1.0000         2.8100         0.1122         2.0150 
  830.5800         0.0814         0.0001         9.6180         0.4314         0.4077       117.5560       333.5230      -999.0000      -999.0000      -999.0000        93.6620         0.0000         1.3450         1.3530      -999.0000      -999.0000      -999.0000      -999.0000      -999.0000      -999.0000      -999.0000      -999.0000      -999.0000      -999.0000      -999.0000      -999.0000      -999.0000      -999.0000         0.0000         0.0001         0.4290        -4.1600         0.4689         1.0000        33.0000       830.5541      -690.5541         1.0000         2.8370         0.1160         1.9950 
  830.7324         0.0778         0.0001         9.5370         0.4233         0.4107       117.8620       340.7300      -999.0000      -999.0000      -999.0000        96.0320         0.0000         1.3190         1.3270      -999.0000      -999.0000      -999.0000      -999.0000      -999.0000      -999.0000      -999.0000      -999.0000      -999.0000      -999.0000      -999.0000      -999.0000      -999.0000      -999.0000         0.0000         0.0001         0.4320        -4.2620         0.4619         1.0000        33.0000       830.7065      -690.7065         1.0000         2.8910         0.1246         1.9900 
  830.8848         0.0793         0.0001         9.7740         0.4124         0.4101       117.7300       337.4540      -999.0000      -999.0000      -999.0000        96.2180         0.0000         1.2390         1.2480      -999.0000      -999.0000      -999.0000      -999.0000      -999.0000      -999.0000      -999.0000      -999.0000      -999.0000      -999.0000      -999.0000      -999.0000      -999.0000      -999.0000         0.0000         0.0001         0.4310        -4.3360         0.4536         1.0000        33.0000       830.8589      -690.8589         1.0000         2.8660         0.1252         1.9910 
  831.0372         0.0785         0.0001        10.0160         0.4168         0.4060       117.7990       337.2870      -999.0000      -999.0000      -999.0000        93.1570         0.0000         1.2940         1.3030      -999.0000      -999.0000      -999.0000      -999.0000      -999.0000      -999.0000      -999.0000      -999.0000      -999.0000      -999.0000      -999.0000      -999.0000      -999.0000      -999.0000         0.0000         0.0001         0.4310        -4.2020         0.4496         1.0000        33.0000       831.0112      -691.0112         1.0000         2.8630         0.1143         1.9980 
  831.1896         0.0852         0.0001         9.8960         0.4325         0.3994       117.2380       341.8770      -999.0000      -999.0000      -999.0000        90.7220         0.0000         1.3800         1.3910      -999.0000      -999.0000      -999.0000      -999.0000      -999.0000      -999.0000      -999.0000      -999.0000      -999.0000      -999.0000      -999.0000      -999.0000      -999.0000      -999.0000         0.0000         0.0001         0.4330        -4.0360         0.4536         1.0000        33.0000       831.1636      -691.1636         1.0000         2.9160         0.1059         2.0090 
