~VERSION INFORMATION
 VERS.                 2.0:   CWLS LOG ASCII STANDARD - VERSION 2.0
 WRAP.                  NO:   SINGLE LINE PER DEPTH STEP
~WELL INFORMATION
#MNEM.UNIT       DATA           DESCRIPTION MNEMONIC
#---------    -------------   --------------------------
 STRT.M         550.0116                      : START DEPTH
 STOP.M         1468.2216                     : STOP DEPTH
 STEP.M         0.1524                        : STEP VALUE
 NULL.          -999.0000                     : NULL VALUE
 SRVC.          PYPOZO                        : Service Company/Logging company
 DATE.          01/07/2025                    : LAS file Creation Date
 WELL    .      PALO BLANCO 791                : Well Name
 COMP    .      PYPOZO 2.0                    : Company
 FLD     .      UNKNOWN                       : Field
 LOC     .      UNKNOWN                       : Location
 LATI    .      0                             : Latitude/Northing
 LONG    .      0                             : Longitude/Easting
 APDAT   .      0                             : Elevation Above Permanent Datum
~CURVE INFORMATION
#MNEM          UNIT     API CODE   Curve Type Comments
#---------- ---------- ----------  ---------- --------
 DEPTH     .M                    : Depth      
 BRITT     .UNIT                       : BRITT      
 BVW       .Dec                        : BVW        
 CAL       .IN                         : CAL        
 CNCF      .dec                        : CNCF       
 DPHI      .dec                        : DPHI       
 DTC       .US/F                       : DTC        
 DTS       .US/F                       : DTS        
 ECHADOS   .DEG                        : ECHADOS    
 FRAC_IND  .DEG                        : FRAC_IND   
 FRAC_NAT  .DEG                        : FRAC_NAT   
 GR        .GAPI                       : GR         
 KTIXIER   .mD                         : KTIXIER    
 M1R6      .OHMM                       : M1R6       
 M1R9      .OHMM                       : M1R9       
 MPERMC    .MD                         : MPERMC     
 MPOC01    .p.u                        : MPOC01     
 MPOC02    .p.u                        : MPOC02     
 MPOC03    .p.u                        : MPOC03     
 MPOC04    .p.u                        : MPOC04     
 MPOC05    .p.u                        : MPOC05     
 MPOC06    .p.u                        : MPOC06     
 MPOC07    .p.u                        : MPOC07     
 MPOC08    .p.u                        : MPOC08     
 MPOC09    .p.u                        : MPOC09     
 MPOC10    .p.u                        : MPOC10     
 MPOC11    .p.u                        : MPOC11     
 MPOC12    .p.u                        : MPOC12     
 MPOC13    .p.u                        : MPOC13     
 PAYFLAG   .UNIT                       : PAYFLAG    
 PHIE      .Dec                        : PHIE       
 POISDIN   .UNIT                       : POISDIN    
 SP        .MV                         : SP         
 SPHI      .dec                        : SPHI       
 SW        .Dec                        : SW         
 T2_CUT_33 .ms                         : T2_CUT_33  
 TVD       .M                          : TVD        
 TVDSS     .M                          : TVDSS      
 VCL       .Dec                        : VCL        
 VPVS      .ft/sec                     : VPVS       
 VSH-LAR   .UNIT                       : VSH-LAR    
 ZDEN      .G/C3                       : ZDEN       
~A Log data section
# ...
 1231.5444         0.4141         0.0004         8.6220         0.2887         0.0857        89.8330       194.1050         7.5627        66.6053        63.3410        79.8230         0.0000         2.6550         2.6420         0.0010         5.3605        11.0816        15.0180        16.6769        16.9158        16.9158        16.9158        16.9308        17.0968        17.4288        17.7208        17.8338        17.8418         0.0000         0.0004         0.3640        -3.0860         0.2815         1.0000        33.0000      1231.5150     -1091.5150         0.8492         2.1610         0.0728         2.5360 
 1231.6968         0.4100         0.0001         8.6160         0.2832         0.0851        90.1760       193.7120         8.4100        66.6111        63.3509        81.3630         0.0000         2.5310         2.5160         0.0010         5.5617        10.9991        14.8313        16.6121        16.8791        16.8791        16.8791        16.8861        16.9722        17.2503        17.5103        17.5744        17.5784         0.0000         0.0001         0.3620        -3.2330         0.2818         1.0000        33.0000      1231.6674     -1091.6674         0.9520         2.1480         0.0771         2.5370 
 1231.8492         0.4094         0.0001         8.6070         0.2817         0.0851        90.2260       195.1250         8.9130        66.6170        63.3608        82.6080         0.0000         2.7140         2.6960         0.0000         5.7427        10.9271        14.6114        16.4514        16.7304        16.7304        16.7324        16.7583        16.8233        17.0344        17.2365        17.2646        17.2696         0.0000         0.0001         0.3640        -3.3840         0.2829         1.0000        33.0000      1231.8198     -1091.8198         0.8875         2.1630         0.0807         2.5370 
 1232.0016         0.4059         0.0001         8.6120         0.2865         0.0875        90.5160       194.6790         8.6788        66.6228        63.3707        82.6070         0.0000         2.7090         2.6900         0.0000         5.8698        10.8841        14.3025        16.0247        16.2727        16.2727        16.2797        16.4056        16.6053        16.7105        16.7857        16.8147        16.8357         0.0000         0.0001         0.3620        -3.4380         0.2856         1.0000        33.0000      1231.9722     -1091.9722         0.8903         2.1510         0.0807         2.5330 
 1232.1540         0.4052         0.0001         8.6300         0.2896         0.0905        90.5770       195.9260         8.4446        66.6286        63.3806        81.8860         0.0000         2.5470         2.5280         0.0000         6.2849        11.4312        14.7471        16.3562        16.5593        16.6092        16.7318        16.9258        17.1419        17.1750        17.1750        17.2030        17.2340         0.0000         0.0001         0.3640        -3.3710         0.2906         1.0000        33.0000      1232.1246     -1092.1246         0.9692         2.1630         0.0786         2.5280 
 1232.3064         0.3966         0.0001         8.6450         0.2869         0.0929        91.2910       200.3090         8.2104        66.6344        63.3905        81.8960         0.0000         2.4440         2.4270         0.0000         7.1183        12.8409        16.2948        17.7938        17.9329        18.1058        18.5056        18.7206        18.7817        18.7897        18.7897        18.8137        18.8477         0.0000         0.0001         0.3690        -3.3880         0.2985         1.0000        33.0000      1232.2770     -1092.2770         0.9919         2.1940         0.0786         2.5240 
 1232.4588         0.3759         0.0001         8.6420         0.2875         0.0946        93.0190       205.6590         7.9762        66.6402        63.4004        83.2760         0.0000         2.4560         2.4380         0.0000         7.5916        13.5844        17.0784        18.4257        18.5008        18.6869        19.2158        19.3939        19.3979        19.3979        19.3979        19.4119        19.4350         0.0000         0.0001         0.3710        -3.5320         0.3085         1.0000        33.0000      1232.4293     -1092.4293         1.0000         2.2110         0.0826         2.5210 
 1232.6112         0.3459         0.0001         8.6260         0.2962         0.0982        95.5150       212.4770         7.7420        66.6460        63.4103        86.1660         0.0000         2.2260         2.2100         0.0000         7.8678        13.9637        17.4417        18.6148        18.6269        18.7649        19.3399        19.4500        19.4510        19.4510        19.4510        19.4530        19.4570         0.0000         0.0001         0.3730        -3.6230         0.3176         1.0000        33.0000      1232.5818     -1092.5818         1.0000         2.2250         0.0913         2.5150 
 1232.7636         0.3287         0.0001         8.6150         0.3049         0.1048        96.9510       213.7440         6.5700        66.6518        63.4202        89.3770         0.0000         1.9960         1.9820         0.0000         7.8012        14.2975        17.9571        19.0043        19.0043        19.4357        20.2273        20.3163        20.3163        20.3163        20.3163        20.3163        20.3163         0.0000         0.0001         0.3700        -3.6140         0.3222         1.0000        33.0000      1232.7341     -1092.7341         1.0000         2.2050         0.1015         2.5040 
 1232.9160         0.3225         0.0001         8.6170         0.3036         0.1107        97.4640       212.6150         5.3980        66.6577        63.4301        91.4190         0.0000         1.9150         1.9010         0.0000         7.6571        14.6217        18.5076        19.4407        19.4407        20.2424        21.2901        21.3662        21.3662        21.3662        21.3662        21.3662        21.3662         0.0000         0.0001         0.3670        -3.6100         0.3201         1.0000        33.0000      1232.8866     -1092.8866         1.0000         2.1810         0.1083         2.4940 
 1233.0684         0.3275         0.0001         8.6230         0.2983         0.1131        97.0520       209.7050         6.5150        66.6635        63.4400        91.0060         0.0000         1.8850         1.8700         0.0000         7.4154        14.0619        17.8910        18.8829        18.8829        19.5501        20.4474        20.5304        20.5304        20.5304        20.5304        20.5304        20.5304         0.0000         0.0001         0.3640        -3.7370         0.3108         1.0000        33.0000      1233.0389     -1093.0389         1.0000         2.1610         0.1069         2.4900 
 1233.2208         0.3402         0.0001         8.6220         0.2992         0.1119        95.9910       208.6680         7.6320        66.6693        63.4499        88.0230         0.0000         2.0910         2.0720         0.0000         6.9875        13.1959        16.9081        17.9700        17.9820        18.5231        19.3001        19.4131        19.4131        19.4131        19.4131        19.4131        19.4131         0.0000         0.0001         0.3660        -3.9140         0.2927         1.0000        33.0000      1233.1914     -1093.1914         1.0000         2.1740         0.0971         2.4920 
 1233.3732         0.3781         0.0001         8.6150         0.3002         0.1095        92.8320       201.2420         2.9570        66.6751        63.4598        83.6920         0.0000         2.2520         2.2280         0.0000         5.7490        11.0265        14.3810        15.5549        15.6258        16.0989        16.9108        17.1546        17.1546        17.1546        17.1546        17.1546        17.1546         0.0000         0.0001         0.3650        -3.8780         0.2643         1.0000        33.0000      1233.3438     -1093.3438         0.9943         2.1680         0.0838         2.4960 
