~VERSION INFORMATION
 VERS.                 2.0:   CWLS LOG ASCII STANDARD - VERSION 2.0
 WRAP.                  NO:   SINGLE LINE PER DEPTH STEP
~WELL INFORMATION
#MNEM.UNIT       DATA           DESCRIPTION MNEMONIC
#---------    -------------   --------------------------
 STRT.M         550.0116                      : START DEPTH
 STOP.M         1468.2216                     : STOP DEPTH
 STEP.M         0.1524                        : STEP VALUE
 NULL.          -999.0000                     : NULL VALUE
 SRVC.          PYPOZO                        : Service Company/Logging company
 DATE.          01/07/2025                    : LAS file Creation Date
 WELL    .      PALO BLANCO 791                : Well Name
 COMP    .      PYPOZO 2.0                    : Company
 FLD     .      UNKNOWN                       : Field
 LOC     .      UNKNOWN                       : Location
 LATI    .      0                             : Latitude/Northing
 LONG    .      0                             : Longitude/Easting
 APDAT   .      0                             : Elevation Above Permanent Datum
~CURVE INFORMATION
#MNEM          UNIT     API CODE   Curve Type Comments
#---------- ---------- ----------  ---------- --------
 DEPTH     .M                    : Depth      
 BRITT     .UNIT                       : BRITT      
 BVW       .Dec                        : BVW        
 CAL       .IN                         : CAL        
 CNCF      .dec                        : CNCF       
 DPHI      .dec                        : DPHI       
 DTC       .US/F                       : DTC        
 DTS       .US/F                       : DTS        
 ECHADOS   .DEG                        : ECHADOS    
 FRAC_IND  .DEG                        : FRAC_IND   
 FRAC_NAT  .DEG                        : FRAC_NAT   
 GR        .GAPI                       : GR         
 KTIXIER   .mD                         : KTIXIER    
 M1R6      .OHMM                       : M1R6       
 M1R9      .OHMM                       : M1R9       
 MPERMC    .MD                         : MPERMC     
 MPOC01    .p.u                        : MPOC01     
 MPOC02    .p.u                        : MPOC02     
 MPOC03    .p.u                        : MPOC03     
 MPOC04    .p.u                        : MPOC04     
 MPOC05    .p.u                        : MPOC05     
 MPOC06    .p.u                        : MPOC06     
 MPOC07    .p.u                        : MPOC07     
 MPOC08    .p.u                        : MPOC08     
 MPOC09    .p.u                        : MPOC09     
 MPOC10    .p.u                        : MPOC10     
 MPOC11    .p.u                        : MPOC11     
 MPOC12    .p.u                        : MPOC12     
 MPOC13    .p.u                        : MPOC13     
 PAYFLAG   .UNIT                       : PAYFLAG    
 PHIE      .Dec                        : PHIE       
 POISDIN   .UNIT                       : POISDIN    
 SP        .MV                         : SP         
 SPHI      .dec                        : SPHI       
 SW        .Dec                        : SW         
 T2_CUT_33 .ms                         : T2_CUT_33  
 TVD       .M                          : TVD        
 TVDSS     .M                          : TVDSS      
 VCL       .Dec                        : VCL        
 VPVS      .ft/sec                     : VPVS       
 VSH-LAR   .UNIT                       : VSH-LAR    
 ZDEN      .G/C3                       : ZDEN       
~A Log data section
# ...
  886.8156         0.1769         0.0001         9.0080         0.3754         0.2339       109.5980       318.5570      -999.0000      -999.0000      -999.0000        88.1320         0.0000         1.5540         1.5640      -999.0000      -999.0000      -999.0000      -999.0000      -999.0000      -999.0000      -999.0000      -999.0000      -999.0000      -999.0000      -999.0000      -999.0000      -999.0000      -999.0000         0.0000         0.0001         0.4330        -1.3920         0.4626         1.0000        33.0000       886.7885      -746.7885         1.0000         2.9070         0.0975         2.2870 
  886.9680         0.1574         0.0001         9.4390         0.3825         0.3036       111.2230       332.9120      -999.0000      -999.0000      -999.0000        92.8050         0.0000         1.2850         1.2960      -999.0000      -999.0000      -999.0000      -999.0000      -999.0000      -999.0000      -999.0000      -999.0000      -999.0000      -999.0000      -999.0000      -999.0000      -999.0000      -999.0000         0.0000         0.0001         0.4370        -1.3460         0.5099         1.0000        33.0000       886.9409      -746.9409         1.0000         2.9930         0.1130         2.1700 
  887.1204         0.1162         0.0001         9.9060         0.4042         0.3643       114.6580       350.8200      -999.0000      -999.0000      -999.0000        99.4270         0.0000         1.0320         1.0420      -999.0000      -999.0000      -999.0000      -999.0000      -999.0000      -999.0000      -999.0000      -999.0000      -999.0000      -999.0000      -999.0000      -999.0000      -999.0000      -999.0000         0.0000         0.0001         0.4400        -1.7040         0.5368         1.0000        33.0000       887.0933      -747.0933         1.0000         3.0600         0.1374         2.0680 
  887.2728         0.0759         0.0001        10.2360         0.4215         0.4036       118.0130       355.0020      -999.0000      -999.0000      -999.0000       105.1130         0.0000         0.9260         0.9360      -999.0000      -999.0000      -999.0000      -999.0000      -999.0000      -999.0000      -999.0000      -999.0000      -999.0000      -999.0000      -999.0000      -999.0000      -999.0000      -999.0000         0.0000         0.0001         0.4380        -2.1430         0.5366         1.0000        33.0000       887.2457      -747.2457         1.0000         3.0080         0.1607         2.0020 
  887.4252         0.0346         0.0001        10.3650         0.4298         0.4274       121.4550       351.9340      -999.0000      -999.0000      -999.0000       107.1180         0.0000         0.9490         0.9610      -999.0000      -999.0000      -999.0000      -999.0000      -999.0000      -999.0000      -999.0000      -999.0000      -999.0000      -999.0000      -999.0000      -999.0000      -999.0000      -999.0000         0.0000         0.0001         0.4320        -2.3430         0.5171         1.0000        33.0000       887.3980      -747.3980         1.0000         2.8980         0.1696         1.9620 
  887.5776         0.0197         0.0001        10.3170         0.4365         0.4351       122.6980       338.8070      -999.0000      -999.0000      -999.0000       104.4930         0.0000         1.0840         1.0980      -999.0000      -999.0000      -999.0000      -999.0000      -999.0000      -999.0000      -999.0000      -999.0000      -999.0000      -999.0000      -999.0000      -999.0000      -999.0000      -999.0000         0.0000         0.0001         0.4250        -2.2620         0.4951         1.0000        33.0000       887.5504      -747.5504         1.0000         2.7610         0.1581         1.9490 
  887.7300         0.0171         0.0001        10.2650         0.4328         0.4238       122.9150       330.9010      -999.0000      -999.0000      -999.0000       100.2550         0.0000         1.0570         1.0710      -999.0000      -999.0000      -999.0000      -999.0000      -999.0000      -999.0000      -999.0000      -999.0000      -999.0000      -999.0000      -999.0000      -999.0000      -999.0000      -999.0000         0.0000         0.0001         0.4200        -2.1380         0.4850         1.0000        33.0000       887.7028      -747.7028         1.0000         2.6920         0.1407         1.9680 
  887.8824         0.0215         0.0001        10.4000         0.4109         0.4036       122.5530       328.3440      -999.0000      -999.0000      -999.0000        97.0270         0.0000         1.0390         1.0520      -999.0000      -999.0000      -999.0000      -999.0000      -999.0000      -999.0000      -999.0000      -999.0000      -999.0000      -999.0000      -999.0000      -999.0000      -999.0000      -999.0000         0.0000         0.0001         0.4190        -2.0160         0.4911         1.0000        33.0000       887.8552      -747.8552         1.0000         2.6790         0.1283         2.0020 
  888.0348         0.0233         0.0001        10.7200         0.3899         0.3851       122.3990       330.0470      -999.0000      -999.0000      -999.0000        94.0980         0.0000         1.2030         1.2160      -999.0000      -999.0000      -999.0000      -999.0000      -999.0000      -999.0000      -999.0000      -999.0000      -999.0000      -999.0000      -999.0000      -999.0000      -999.0000      -999.0000         0.0000         0.0001         0.4200        -1.6870         0.5059         1.0000        33.0000       888.0076      -748.0076         1.0000         2.6960         0.1176         2.0330 
  888.1872         0.0219         0.0001        11.0990         0.3878         0.3696       122.5150       333.1420      -999.0000      -999.0000      -999.0000        91.2030         0.0000         1.2400         1.2510      -999.0000      -999.0000      -999.0000      -999.0000      -999.0000      -999.0000      -999.0000      -999.0000      -999.0000      -999.0000      -999.0000      -999.0000      -999.0000      -999.0000         0.0000         0.0001         0.4220        -1.1200         0.5177         1.0000        33.0000       888.1600      -748.1600         1.0000         2.7190         0.1076         2.0590 
  888.3396         0.0157         0.0001        11.3300         0.3906         0.3577       123.0310       332.2180      -999.0000      -999.0000      -999.0000        89.8510         0.0000         1.1520         1.1600      -999.0000      -999.0000      -999.0000      -999.0000      -999.0000      -999.0000      -999.0000      -999.0000      -999.0000      -999.0000      -999.0000      -999.0000      -999.0000      -999.0000         0.0000         0.0001         0.4210        -0.6920         0.5175         1.0000        33.0000       888.3124      -748.3124         1.0000         2.7000         0.1031         2.0790 
  888.4920         0.0098         0.0001        11.2380         0.3896         0.3518       123.5250       329.3640      -999.0000      -999.0000      -999.0000        89.3460         0.0000         1.2380         1.2440      -999.0000      -999.0000      -999.0000      -999.0000      -999.0000      -999.0000      -999.0000      -999.0000      -999.0000      -999.0000      -999.0000      -999.0000      -999.0000      -999.0000         0.0000         0.0001         0.4180        -0.6650         0.5036         1.0000        33.0000       888.4648      -748.4648         1.0000         2.6660         0.1014         2.0890 
  888.6444         0.0059         0.0001        10.9480         0.3985         0.3542       123.8530       327.4090      -999.0000      -999.0000      -999.0000        88.7830         0.0000         1.2500         1.2540      -999.0000      -999.0000      -999.0000      -999.0000      -999.0000      -999.0000      -999.0000      -999.0000      -999.0000      -999.0000      -999.0000      -999.0000      -999.0000      -999.0000         0.0000         0.0001         0.4170        -0.7880         0.4793         1.0000        33.0000       888.6172      -748.6172         1.0000         2.6440         0.0996         2.0850 
