~VERSION INFORMATION
 VERS.                 2.0:   CWLS LOG ASCII STANDARD - VERSION 2.0
 WRAP.                  NO:   SINGLE LINE PER DEPTH STEP
~WELL INFORMATION
#MNEM.UNIT       DATA           DESCRIPTION MNEMONIC
#---------    -------------   --------------------------
 STRT.M         550.0116                      : START DEPTH
 STOP.M         1468.2216                     : STOP DEPTH
 STEP.M         0.1524                        : STEP VALUE
 NULL.          -999.0000                     : NULL VALUE
 SRVC.          PYPOZO                        : Service Company/Logging company
 DATE.          01/07/2025                    : LAS file Creation Date
 WELL    .      PALO BLANCO 791                : Well Name
 COMP    .      PYPOZO 2.0                    : Company
 FLD     .      UNKNOWN                       : Field
 LOC     .      UNKNOWN                       : Location
 LATI    .      0                             : Latitude/Northing
 LONG    .      0                             : Longitude/Easting
 APDAT   .      0                             : Elevation Above Permanent Datum
~CURVE INFORMATION
#MNEM          UNIT     API CODE   Curve Type Comments
#---------- ---------- ----------  ---------- --------
 DEPTH     .M                    : Depth      
 BRITT     .UNIT                       : BRITT      
 BVW       .Dec                        : BVW        
 CAL       .IN                         : CAL        
 CNCF      .dec                        : CNCF       
 DPHI      .dec                        : DPHI       
 DTC       .US/F                       : DTC        
 DTS       .US/F                       : DTS        
 ECHADOS   .DEG                        : ECHADOS    
 FRAC_IND  .DEG                        : FRAC_IND   
 FRAC_NAT  .DEG                        : FRAC_NAT   
 GR        .GAPI                       : GR         
 KTIXIER   .mD                         : KTIXIER    
 M1R6      .OHMM                       : M1R6       
 M1R9      .OHMM                       : M1R9       
 MPERMC    .MD                         : MPERMC     
 MPOC01    .p.u                        : MPOC01     
 MPOC02    .p.u                        : MPOC02     
 MPOC03    .p.u                        : MPOC03     
 MPOC04    .p.u                        : MPOC04     
 MPOC05    .p.u                        : MPOC05     
 MPOC06    .p.u                        : MPOC06     
 MPOC07    .p.u                        : MPOC07     
 MPOC08    .p.u                        : MPOC08     
 MPOC09    .p.u                        : MPOC09     
 MPOC10    .p.u                        : MPOC10     
 MPOC11    .p.u                        : MPOC11     
 MPOC12    .p.u                        : MPOC12     
 MPOC13    .p.u                        : MPOC13     
 PAYFLAG   .UNIT                       : PAYFLAG    
 PHIE      .Dec                        : PHIE       
 POISDIN   .UNIT                       : POISDIN    
 SP        .MV                         : SP         
 SPHI      .dec                        : SPHI       
 SW        .Dec                        : SW         
 T2_CUT_33 .ms                         : T2_CUT_33  
 TVD       .M                          : TVD        
 TVDSS     .M                          : TVDSS      
 VCL       .Dec                        : VCL        
 VPVS      .ft/sec                     : VPVS       
 VSH-LAR   .UNIT                       : VSH-LAR    
 ZDEN      .G/C3                       : ZDEN       
~A Log data section
# ...
 1116.6348         0.3994         0.0019         8.6740         0.2927         0.1030        91.0580       190.3940         4.6750      -999.0000      -999.0000        76.5040         0.0000         2.9490         2.9410         0.0010         1.7610         7.4725        13.1433        14.7747        14.7849        14.7849        14.7849        14.7849        14.8929        15.2740        15.6330        15.7389        15.7389         0.0000         0.0019         0.3520         0.4660         0.2608         1.0000        33.0000      1116.6057      -976.6058         0.7874         2.0910         0.0639         2.5070 
 1116.7872         0.4200         0.0023         8.6350         0.2813         0.1006        89.3450       187.8360         4.4630      -999.0000      -999.0000        76.5490         0.0000         3.1750         3.1660         0.0080         1.9448         7.4670        12.8683        14.3784        14.3784        14.3784        14.3914        14.5872        15.0309        15.3969        15.5840        15.6641        15.6921         0.0000         0.0023         0.3540         0.3650         0.2470         1.0000        33.0000      1116.7582      -976.7582         0.7784         2.1020         0.0640         2.5110 
 1116.9396         0.4341         0.0197         8.5960         0.2724         0.0994        88.1660       184.7930         4.2510      -999.0000      -999.0000        74.8240         0.0004         3.5140         3.5030         0.0150         2.1298         7.3303        12.3939        13.8449        13.8509        13.8539        13.9088        14.3274        15.1080        15.4640        15.4713        15.5173        15.5753         0.0000         0.0197         0.3530         0.4090         0.2394         1.0000        33.0000      1116.9105      -976.9106         0.6608         2.0960         0.0596         2.5130 
 1117.0920         0.4590         0.0500         8.5990         0.2711         0.1018        86.0950       180.2300         4.0390      -999.0000      -999.0000        71.6550         0.0416         4.1070         4.0940         0.0100         1.9683         6.3116        10.9483        12.7418        12.8167        12.8636        13.2620        13.8677        14.4101        14.6673        14.7542        14.8391        14.8911         0.0000         0.0730         0.3520         0.6620         0.2384         0.6843        33.0000      1117.0630      -977.0630         0.5013         2.0930         0.0518         2.5090 
 1117.2444         0.4699         0.0781         8.6330         0.2741         0.1024        85.1830       179.1740         3.8270      -999.0000      -999.0000        68.2340         0.1135         3.5580         3.5470         0.0060         2.0415         5.9047        10.2499        12.2109        12.3120        12.3989        13.1234        13.9540        14.3122        14.4664        14.5844        14.6884        14.7484         0.0000         0.1067         0.3540         0.8440         0.2420         0.7316        33.0000      1117.2153      -977.2154         0.3532         2.1030         0.0439         2.5080 
 1117.3968         0.4756         0.0821         8.6630         0.2797         0.0982        84.7060       180.6480         3.6150      -999.0000      -999.0000        67.0250         0.1706         3.6550         3.6450         0.0060         2.6470         6.8784        11.2424        12.9728        13.0039        13.1158        14.1304        15.2709        15.5660        15.6132        15.6503        15.7263        15.8303         0.0000         0.1181         0.3590         0.8430         0.2479         0.6950        33.0000      1117.3678      -977.3679         0.3081         2.1330         0.0412         2.5150 
 1117.5492         0.4699         0.0674         8.6780         0.2858         0.0940        85.1820       181.3380         3.5348      -999.0000      -999.0000        68.2210         0.1797         4.1890         4.1790         0.0070         2.9240         7.0577        11.3031        13.2811        13.5453        13.7571        14.7246        15.8211        16.2237        16.2915        16.2915        16.3366        16.4207         1.0000         0.1103         0.3580         0.9580         0.2542         0.6113        33.0000      1117.5201      -977.5202         0.3527         2.1290         0.0439         2.5220 
 1117.7016         0.4711         0.0710         8.6890         0.2874         0.0952        85.0800       181.3000         3.4546      -999.0000      -999.0000        69.1120         0.1197         3.6960         3.6880         0.0100         2.9380         6.5987        10.6151        13.2241        13.9663        14.3351        14.9856        15.7541        16.4037        16.5935        16.5935        16.6006        16.6147         0.0000         0.1038         0.3590         1.2510         0.2590         0.6836        33.0000      1117.6726      -977.6727         0.3881         2.1310         0.0459         2.5200 
 1117.8540         0.4679         0.0723         8.6970         0.2864         0.0970        85.3470       180.0870         3.3744      -999.0000      -999.0000        69.6630         0.0910         3.4700         3.4640         0.0080         2.7145         6.2894        10.5728        13.6272        14.8714        15.4730        15.9013        16.2819        16.7993        17.1400        17.1929        17.1929        17.1929         0.0000         0.0990         0.3550         1.5090         0.2615         0.7300        33.0000      1117.8250      -977.8250         0.4111         2.1100         0.0471         2.5170 
 1118.0064         0.4626         0.0699         8.6860         0.2854         0.0964        85.7910       181.5860         3.2942      -999.0000      -999.0000        72.2610         0.0209         3.7180         3.7130         0.0040         2.4663         6.0643        10.7147        14.1492        15.8884        16.7260        16.9593        16.9639        17.2672        17.7460        17.8589        17.8609        17.8649         0.0000         0.0728         0.3560         0.8580         0.2612         0.9608        33.0000      1117.9773      -977.9774         0.5313         2.1170         0.0533         2.5180 
 1118.1588         0.4580         0.0298         8.6560         0.2815         0.0929        86.1740       182.8360         3.2140      -999.0000      -999.0000        75.7890         0.0013         3.6010         3.5960         0.0030         2.8147         6.6855        11.2526        14.7355        16.7553        17.5543        17.6784        17.7554        18.0624        18.3265        18.3726        18.4216        18.4895         0.0000         0.0298         0.3570        -0.4280         0.2582         1.0000        33.0000      1118.1298      -978.1298         0.6322         2.1220         0.0621         2.5240 
 1118.3112         0.4479         0.0036         8.6340         0.2752         0.0899        87.0170       183.6610         4.9400      -999.0000      -999.0000        77.5850         0.0000         3.2290         3.2240         0.0030         3.0767         6.9751        11.2927        14.8257        17.1890        18.0079        18.0539        18.1570        18.4151        18.5632        18.6061        18.6711        18.7631         0.0000         0.0036         0.3550        -1.6400         0.2543         1.0000        33.0000      1118.2821      -978.2822         0.7564         2.1110         0.0667         2.5290 
 1118.4636         0.4501         0.0061         8.6350         0.2715         0.0905        86.8340       183.9110         4.4385      -999.0000      -999.0000        77.4480         0.0000         3.3050         3.2990         0.0020         3.1549         6.5643        10.2798        13.8668        16.7064        17.6743        17.7093        17.7393        17.8335        18.0714        18.2483        18.2683        18.2944         0.0000         0.0061         0.3570        -2.8030         0.2513         1.0000        33.0000      1118.4346      -978.4346         0.7291         2.1180         0.0664         2.5280 
