~VERSION INFORMATION
 VERS.                 2.0:   CWLS LOG ASCII STANDARD - VERSION 2.0
 WRAP.                  NO:   SINGLE LINE PER DEPTH STEP
~WELL INFORMATION
#MNEM.UNIT       DATA           DESCRIPTION MNEMONIC
#---------    -------------   --------------------------
 STRT.M         550.0116                      : START DEPTH
 STOP.M         1468.2216                     : STOP DEPTH
 STEP.M         0.1524                        : STEP VALUE
 NULL.          -999.0000                     : NULL VALUE
 SRVC.          PYPOZO                        : Service Company/Logging company
 DATE.          01/07/2025                    : LAS file Creation Date
 WELL    .      PALO BLANCO 791                : Well Name
 COMP    .      PYPOZO 2.0                    : Company
 FLD     .      UNKNOWN                       : Field
 LOC     .      UNKNOWN                       : Location
 LATI    .      0                             : Latitude/Northing
 LONG    .      0                             : Longitude/Easting
 APDAT   .      0                             : Elevation Above Permanent Datum
~CURVE INFORMATION
#MNEM          UNIT     API CODE   Curve Type Comments
#---------- ---------- ----------  ---------- --------
 DEPTH     .M                    : Depth      
 BRITT     .UNIT                       : BRITT      
 BVW       .Dec                        : BVW        
 CAL       .IN                         : CAL        
 CNCF      .dec                        : CNCF       
 DPHI      .dec                        : DPHI       
 DTC       .US/F                       : DTC        
 DTS       .US/F                       : DTS        
 ECHADOS   .DEG                        : ECHADOS    
 FRAC_IND  .DEG                        : FRAC_IND   
 FRAC_NAT  .DEG                        : FRAC_NAT   
 GR        .GAPI                       : GR         
 KTIXIER   .mD                         : KTIXIER    
 M1R6      .OHMM                       : M1R6       
 M1R9      .OHMM                       : M1R9       
 MPERMC    .MD                         : MPERMC     
 MPOC01    .p.u                        : MPOC01     
 MPOC02    .p.u                        : MPOC02     
 MPOC03    .p.u                        : MPOC03     
 MPOC04    .p.u                        : MPOC04     
 MPOC05    .p.u                        : MPOC05     
 MPOC06    .p.u                        : MPOC06     
 MPOC07    .p.u                        : MPOC07     
 MPOC08    .p.u                        : MPOC08     
 MPOC09    .p.u                        : MPOC09     
 MPOC10    .p.u                        : MPOC10     
 MPOC11    .p.u                        : MPOC11     
 MPOC12    .p.u                        : MPOC12     
 MPOC13    .p.u                        : MPOC13     
 PAYFLAG   .UNIT                       : PAYFLAG    
 PHIE      .Dec                        : PHIE       
 POISDIN   .UNIT                       : POISDIN    
 SP        .MV                         : SP         
 SPHI      .dec                        : SPHI       
 SW        .Dec                        : SW         
 T2_CUT_33 .ms                         : T2_CUT_33  
 TVD       .M                          : TVD        
 TVDSS     .M                          : TVDSS      
 VCL       .Dec                        : VCL        
 VPVS      .ft/sec                     : VPVS       
 VSH-LAR   .UNIT                       : VSH-LAR    
 ZDEN      .G/C3                       : ZDEN       
~A Log data section
# ...
 1346.4540         0.4291         0.0024         8.5690         0.2566         0.0774        88.5860       184.4070         3.6284        67.2926      -999.0000        74.6850         0.0000         3.0240         3.0250         0.0010         0.5170         3.5440         8.4920        12.2931        14.1583        14.6241        14.6661        14.6661        14.6661        14.6661        14.9021        15.0681        15.0681         0.0000         0.0024         0.3500        -0.6950         0.2505         1.0000        33.0000      1346.4238     -1206.4238         0.7762         2.0820         0.0593         2.5500 
 1346.6064         0.4459         0.0491         8.5770         0.2609         0.0583        87.1850       184.0980         3.6064        67.3556      -999.0000        71.0170         0.0059         3.3450         3.3420         0.0010         0.4930         3.5350         8.5110        12.1153        13.8305        14.4633        14.5741        14.5741        14.5741        14.5741        14.7353        14.9931        14.9931         0.0000         0.0491         0.3550        -0.9840         0.2411         1.0000        33.0000      1346.5763     -1206.5763         0.5922         2.1120         0.0503         2.5820 
 1346.7588         0.4621         0.0591         8.6140         0.2570         0.0488        85.8320       183.9320         3.5843        67.4185      -999.0000        69.2170         0.0170         4.3670         4.3540         0.0010         0.5919         3.6639         8.4970        11.6524        12.7299        13.2240        13.5978        13.6967        13.6967        13.7067        13.8667        14.0928        14.1087         0.0000         0.0653         0.3610        -1.2340         0.2324         0.9049        33.0000      1346.7286     -1206.7286         0.5169         2.1430         0.0461         2.5980 
 1346.9112         0.4682         0.0536         8.6610         0.2493         0.0583        85.3270       184.2350         3.5623        67.4815      -999.0000        70.7120         0.0077         4.0470         4.0290         0.0000         0.6739         3.7380         8.3774        11.1568        11.7354        12.0627        12.5796        12.7376        12.7376        12.7526        12.8887        13.0827        13.1436         0.0000         0.0536         0.3630        -1.2980         0.2209         1.0000        33.0000      1346.8811     -1206.8811         0.5789         2.1590         0.0496         2.5820 
 1347.0636         0.4798         0.0122         8.6900         0.2485         0.0738        84.3600       183.8380         3.5402        67.5445      -999.0000        73.1000         0.0001         3.3350         3.3140         0.0000         0.6940         3.6491         7.9853        10.6114        11.1245        11.2516        11.5708        11.6719        11.6719        11.6759        11.7189        11.8979        12.0729         0.0000         0.0122         0.3670        -1.7520         0.2064         1.0000        33.0000      1347.0334     -1207.0334         0.6907         2.1790         0.0553         2.5560 
 1347.2160         0.4948         0.0124         8.6830         0.2477         0.0798        83.1040       183.8570         3.5182        67.6075      -999.0000        73.0760         0.0001         3.1140         3.0920         0.0000         1.2126         4.4258         8.5272        10.6384        10.9448        10.9749        11.1481        11.3009        11.3208        11.3208        11.3238        11.4460        11.6111         0.0000         0.0124         0.3720        -2.5660         0.1953         1.0000        33.0000      1347.1858     -1207.1858         0.6895         2.2120         0.0553         2.5460 
 1347.3684         0.5093         0.0567         8.6490         0.2313         0.0744        81.9030       182.4400         3.4961        67.6704      -999.0000        70.2690         0.0091         3.0810         3.0570         0.0000         2.0593         5.7709         9.6811        11.0417        11.0459        11.0469        11.1070        11.3849        11.4359        11.4359        11.4359        11.4720        11.5461         0.0000         0.0567         0.3740        -2.7500         0.1963         1.0000        33.0000      1347.3383     -1207.3383         0.5599         2.2280         0.0486         2.5550 
 1347.5208         0.5222         0.0613         8.6080         0.2123         0.0631        80.8280       181.5320         3.4741        67.7334      -999.0000        66.5850         0.0115         3.9790         3.9490         0.0000         1.9642         5.7930         9.7220        10.8763        10.8763        10.8763        10.9003        11.0186        11.0446        11.0456        11.0466        11.0607        11.0897         0.0000         0.0613         0.3760        -2.0030         0.2116         1.0000        33.0000      1347.4906     -1207.4906         0.4198         2.2460         0.0403         2.5740 
 1347.6732         0.5279         0.0589         8.5870         0.2100         0.0554        80.3520       179.9870         3.4520        67.7964      -999.0000        66.3120         0.0105         4.4100         4.3810         0.0000         1.9449         5.9068         9.8508        10.8809        10.8809        10.8809        10.8928        10.9748        10.9998        11.0017        11.0037        11.0038        11.0038         0.0000         0.0592         0.3760        -1.2740         0.2331         0.9939        33.0000      1347.6431     -1207.6431         0.4105         2.2400         0.0397         2.5870 
 1347.8256         0.5287         0.0395         8.5880         0.2271         0.0577        80.2820       181.6570         3.4300        67.8594      -999.0000        71.2190         0.0031         4.1470         4.1250         0.0000         2.1037         6.2425        10.1885        11.2394        11.2394        11.2394        11.2864        11.5830        11.6540        11.6569        11.6600        11.6600        11.6600         0.0000         0.0395         0.3790        -1.1950         0.2497         1.0000        33.0000      1347.7954     -1207.7954         0.6012         2.2630         0.0508         2.5830 
 1347.9780         0.5197         0.0001         8.6050         0.2489         0.0661        81.0300       183.4890         3.4300        67.9223      -999.0000        76.9590         0.0000         2.9170         2.9060         0.0000         2.1969         6.4439        10.3399        11.3570        11.3570        11.3660        11.4529        11.6611        11.7071        11.7092        11.7112        11.7112        11.7112         0.0000         0.0001         0.3790        -1.5090         0.2573         1.0000        33.0000      1347.9479     -1207.9479         0.9210         2.2640         0.0651         2.5690 
 1348.1304         0.5006         0.0001         8.6420         0.2545         0.0714        82.6270       187.1830         3.4150        67.9853      -999.0000        78.9130         0.0000         2.8520         2.8450         0.0000         2.1782         6.4482        10.3132        11.3371        11.3441        11.3641        11.4800        11.4993        11.4994        11.4994        11.4994        11.4994        11.4994         0.0000         0.0001         0.3790        -1.8920         0.2602         1.0000        33.0000      1348.1002     -1208.1002         1.0000         2.2650         0.0703         2.5600 
 1348.2828         0.4706         0.0001         8.6830         0.2488         0.0726        85.1240       192.4100         3.4000        67.9853      -999.0000        78.4350         0.0000         3.2840         3.2800         0.0000         1.3836         5.1890         9.3648        10.9463        11.0253        11.0323        11.0733        11.0803        11.0803        11.0803        11.0803        11.0803        11.0803         0.0000         0.0001         0.3780        -2.2340         0.2658         1.0000        33.0000      1348.2527     -1208.2527         0.9496         2.2600         0.0690         2.5580 
