~VERSION INFORMATION
 VERS.                 2.0:   CWLS LOG ASCII STANDARD - VERSION 2.0
 WRAP.                  NO:   SINGLE LINE PER DEPTH STEP
~WELL INFORMATION
#MNEM.UNIT       DATA           DESCRIPTION MNEMONIC
#---------    -------------   --------------------------
 STRT.M         550.0116                      : START DEPTH
 STOP.M         1468.2216                     : STOP DEPTH
 STEP.M         0.1524                        : STEP VALUE
 NULL.          -999.0000                     : NULL VALUE
 SRVC.          PYPOZO                        : Service Company/Logging company
 DATE.          01/07/2025                    : LAS file Creation Date
 WELL    .      PALO BLANCO 791                : Well Name
 COMP    .      PYPOZO 2.0                    : Company
 FLD     .      UNKNOWN                       : Field
 LOC     .      UNKNOWN                       : Location
 LATI    .      0                             : Latitude/Northing
 LONG    .      0                             : Longitude/Easting
 APDAT   .      0                             : Elevation Above Permanent Datum
~CURVE INFORMATION
#MNEM          UNIT     API CODE   Curve Type Comments
#---------- ---------- ----------  ---------- --------
 DEPTH     .M                    : Depth      
 BRITT     .UNIT                       : BRITT      
 BVW       .Dec                        : BVW        
 CAL       .IN                         : CAL        
 CNCF      .dec                        : CNCF       
 DPHI      .dec                        : DPHI       
 DTC       .US/F                       : DTC        
 DTS       .US/F                       : DTS        
 ECHADOS   .DEG                        : ECHADOS    
 FRAC_IND  .DEG                        : FRAC_IND   
 FRAC_NAT  .DEG                        : FRAC_NAT   
 GR        .GAPI                       : GR         
 KTIXIER   .mD                         : KTIXIER    
 M1R6      .OHMM                       : M1R6       
 M1R9      .OHMM                       : M1R9       
 MPERMC    .MD                         : MPERMC     
 MPOC01    .p.u                        : MPOC01     
 MPOC02    .p.u                        : MPOC02     
 MPOC03    .p.u                        : MPOC03     
 MPOC04    .p.u                        : MPOC04     
 MPOC05    .p.u                        : MPOC05     
 MPOC06    .p.u                        : MPOC06     
 MPOC07    .p.u                        : MPOC07     
 MPOC08    .p.u                        : MPOC08     
 MPOC09    .p.u                        : MPOC09     
 MPOC10    .p.u                        : MPOC10     
 MPOC11    .p.u                        : MPOC11     
 MPOC12    .p.u                        : MPOC12     
 MPOC13    .p.u                        : MPOC13     
 PAYFLAG   .UNIT                       : PAYFLAG    
 PHIE      .Dec                        : PHIE       
 POISDIN   .UNIT                       : POISDIN    
 SP        .MV                         : SP         
 SPHI      .dec                        : SPHI       
 SW        .Dec                        : SW         
 T2_CUT_33 .ms                         : T2_CUT_33  
 TVD       .M                          : TVD        
 TVDSS     .M                          : TVDSS      
 VCL       .Dec                        : VCL        
 VPVS      .ft/sec                     : VPVS       
 VSH-LAR   .UNIT                       : VSH-LAR    
 ZDEN      .G/C3                       : ZDEN       
~A Log data section
# ...
 1461.3636      -999.0000      -999.0000      -999.0000      -999.0000      -999.0000      -999.0000      -999.0000         4.2186      -999.0000      -999.0000      -999.0000    -49950.0000         4.2060         4.1190         0.0030         2.8436         6.0875         9.1810        11.3762        12.6299        13.2312        13.4662        13.5207        13.5521        13.7809        14.2254        14.3784        14.3936         0.0000      -999.0000      -999.0000       -54.0230      -999.0000      -999.0000        33.0000      1461.3314     -1321.3314      -999.0000      -999.0000      -999.0000      -999.0000 
 1461.5160      -999.0000      -999.0000      -999.0000      -999.0000      -999.0000      -999.0000      -999.0000         4.2249      -999.0000      -999.0000      -999.0000    -49950.0000         4.2850         4.2030         0.0040         3.0080         6.2240         9.2090        11.2392        12.1435        12.4938        12.7957        12.9037        12.9346        13.3085        13.8105        13.9295        13.9295         0.0000      -999.0000      -999.0000       -57.2550      -999.0000      -999.0000        33.0000      1461.4838     -1321.4838      -999.0000      -999.0000      -999.0000      -999.0000 
 1461.6684      -999.0000      -999.0000      -999.0000      -999.0000      -999.0000      -999.0000      -999.0000         4.2313      -999.0000      -999.0000      -999.0000    -49950.0000         4.6340         4.5530         0.0040         3.0839         6.3546         9.3275        11.1011        11.6186        11.8624        12.2144        12.3385        12.4433        13.0199        13.4153        13.4864        13.4864         0.0000      -999.0000      -999.0000       -58.5720      -999.0000      -999.0000        33.0000      1461.6362     -1321.6362      -999.0000      -999.0000      -999.0000      -999.0000 
 1461.8208      -999.0000      -999.0000      -999.0000      -999.0000      -999.0000      -999.0000      -999.0000         4.2376      -999.0000      -999.0000      -999.0000    -49950.0000         4.6720         4.6000         0.0040         3.1819         6.6388         9.6937        11.0980        11.2853        11.7581        12.1301        12.1362        12.3711        13.2298        13.3441        13.3481        13.3481         0.0000      -999.0000      -999.0000       -56.8210      -999.0000      -999.0000        33.0000      1461.7886     -1321.7886      -999.0000      -999.0000      -999.0000      -999.0000 
 1461.9732      -999.0000      -999.0000      -999.0000      -999.0000      -999.0000      -999.0000      -999.0000         4.2439      -999.0000      -999.0000      -999.0000    -49950.0000         4.1530         4.0970         0.0040         2.5002         5.2703         8.3603        10.6198        11.6923        12.1284        12.2628        12.2628        12.3999        13.0723        13.3650        13.3829        13.3829         0.0000      -999.0000      -999.0000       -54.5290      -999.0000      -999.0000        33.0000      1461.9409     -1321.9409      -999.0000      -999.0000      -999.0000      -999.0000 
 1462.1256      -999.0000      -999.0000      -999.0000      -999.0000      -999.0000      -999.0000      -999.0000         4.2503      -999.0000      -999.0000      -999.0000    -49950.0000         4.1610         4.1120         0.0050         2.5803         5.2828         8.1252        10.6196        12.2085        12.6195        12.6225        12.6405        12.8573        13.4103        13.6965        13.7335        13.7584         0.0000      -999.0000      -999.0000       -53.6220      -999.0000      -999.0000        33.0000      1462.0934     -1322.0934      -999.0000      -999.0000      -999.0000      -999.0000 
 1462.2780      -999.0000      -999.0000      -999.0000      -999.0000      -999.0000      -999.0000      -999.0000         4.2566      -999.0000      -999.0000      -999.0000    -49950.0000         3.7650         3.7240         0.0070         3.4557         6.7398         9.0726        11.1073        12.7522        13.1642        13.1642        13.2241        13.7047        14.2228        14.2921        14.3531        14.4270         0.0000      -999.0000      -999.0000       -53.3720      -999.0000      -999.0000        33.0000      1462.2457     -1322.2457      -999.0000      -999.0000      -999.0000      -999.0000 
 1462.4304      -999.0000      -999.0000      -999.0000      -999.0000      -999.0000      -999.0000      -999.0000         4.2630      -999.0000      -999.0000      -999.0000    -49950.0000         4.3520         4.3060         0.0070         3.6309         6.7660         9.0560        11.0171        12.5052        12.9412        12.9412        13.1491        13.6940        13.9932        14.0122        14.1022        14.2222         0.0000      -999.0000      -999.0000       -52.6180      -999.0000      -999.0000        33.0000      1462.3982     -1322.3982      -999.0000      -999.0000      -999.0000      -999.0000 
 1462.5828      -999.0000      -999.0000      -999.0000      -999.0000      -999.0000      -999.0000      -999.0000         4.2693      -999.0000      -999.0000      -999.0000    -49950.0000         5.6480         5.5830         0.0060         3.6820         6.6372         8.8862        10.7233        11.7349        11.9881        12.0131        12.3610        12.8700        13.0161        13.0281        13.1920        13.3600         0.0000      -999.0000      -999.0000       -51.2110      -999.0000      -999.0000        33.0000      1462.5505     -1322.5505      -999.0000      -999.0000      -999.0000      -999.0000 
 1462.7352      -999.0000      -999.0000      -999.0000      -999.0000      -999.0000      -999.0000      -999.0000         4.2756      -999.0000      -999.0000      -999.0000    -49950.0000         4.8790         4.8120         0.0080         3.6550         6.4242         8.5973        10.2285        10.6429        10.6431        10.6930        11.1330        11.6160        11.7299        11.7619        11.9809        12.1649         0.0000      -999.0000      -999.0000       -49.4580      -999.0000      -999.0000        33.0000      1462.7030     -1322.7030      -999.0000      -999.0000      -999.0000      -999.0000 
 1462.8876      -999.0000      -999.0000      -999.0000      -999.0000      -999.0000      -999.0000      -999.0000         4.2820      -999.0000      -999.0000      -999.0000    -49950.0000         5.0490         4.9620         0.0220         3.5970         6.2362         8.1484         9.3157         9.4609         9.4609         9.4720         9.7891        10.5708        11.0735        11.1275        11.1736        11.2118         0.0000      -999.0000      -999.0000       -47.3590      -999.0000      -999.0000        33.0000      1462.8553     -1322.8553      -999.0000      -999.0000      -999.0000      -999.0000 
 1463.0400      -999.0000      -999.0000      -999.0000      -999.0000      -999.0000      -999.0000      -999.0000         4.2883      -999.0000      -999.0000      -999.0000    -49950.0000         5.2010         5.0890         0.0170         2.4066         4.6124         6.8965         8.7078         9.3086         9.3506         9.3506         9.5547        10.1792        10.7204        10.9021        10.9321        10.9321         0.0000      -999.0000      -999.0000       -44.9020      -999.0000      -999.0000        33.0000      1463.0078     -1323.0078      -999.0000      -999.0000      -999.0000      -999.0000 
 1463.1924      -999.0000      -999.0000      -999.0000      -999.0000      -999.0000      -999.0000      -999.0000         4.2947      -999.0000      -999.0000      -999.0000    -49950.0000         5.3340         5.1940         0.0070         0.9710         2.6125         5.3313         8.0397         9.3431         9.4780         9.4780         9.5831         9.9672        10.4482        10.7192        10.7702        10.7702         0.0000      -999.0000      -999.0000       -42.5990      -999.0000      -999.0000        33.0000      1463.1602     -1323.1602      -999.0000      -999.0000      -999.0000      -999.0000 
