~VERSION INFORMATION
 VERS.                 2.0:   CWLS LOG ASCII STANDARD - VERSION 2.0
 WRAP.                  NO:   SINGLE LINE PER DEPTH STEP
~WELL INFORMATION
#MNEM.UNIT       DATA           DESCRIPTION MNEMONIC
#---------    -------------   --------------------------
 STRT.M         550.0116                      : START DEPTH
 STOP.M         1468.2216                     : STOP DEPTH
 STEP.M         0.1524                        : STEP VALUE
 NULL.          -999.0000                     : NULL VALUE
 SRVC.          PYPOZO                        : Service Company/Logging company
 DATE.          01/07/2025                    : LAS file Creation Date
 WELL    .      PALO BLANCO 791                : Well Name
 COMP    .      PYPOZO 2.0                    : Company
 FLD     .      UNKNOWN                       : Field
 LOC     .      UNKNOWN                       : Location
 LATI    .      0                             : Latitude/Northing
 LONG    .      0                             : Longitude/Easting
 APDAT   .      0                             : Elevation Above Permanent Datum
~CURVE INFORMATION
#MNEM          UNIT     API CODE   Curve Type Comments
#---------- ---------- ----------  ---------- --------
 DEPTH     .M                    : Depth      
 BRITT     .UNIT                       : BRITT      
 BVW       .Dec                        : BVW        
 CAL       .IN                         : CAL        
 CNCF      .dec                        : CNCF       
 DPHI      .dec                        : DPHI       
 DTC       .US/F                       : DTC        
 DTS       .US/F                       : DTS        
 ECHADOS   .DEG                        : ECHADOS    
 FRAC_IND  .DEG                        : FRAC_IND   
 FRAC_NAT  .DEG                        : FRAC_NAT   
 GR        .GAPI                       : GR         
 KTIXIER   .mD                         : KTIXIER    
 M1R6      .OHMM                       : M1R6       
 M1R9      .OHMM                       : M1R9       
 MPERMC    .MD                         : MPERMC     
 MPOC01    .p.u                        : MPOC01     
 MPOC02    .p.u                        : MPOC02     
 MPOC03    .p.u                        : MPOC03     
 MPOC04    .p.u                        : MPOC04     
 MPOC05    .p.u                        : MPOC05     
 MPOC06    .p.u                        : MPOC06     
 MPOC07    .p.u                        : MPOC07     
 MPOC08    .p.u                        : MPOC08     
 MPOC09    .p.u                        : MPOC09     
 MPOC10    .p.u                        : MPOC10     
 MPOC11    .p.u                        : MPOC11     
 MPOC12    .p.u                        : MPOC12     
 MPOC13    .p.u                        : MPOC13     
 PAYFLAG   .UNIT                       : PAYFLAG    
 PHIE      .Dec                        : PHIE       
 POISDIN   .UNIT                       : POISDIN    
 SP        .MV                         : SP         
 SPHI      .dec                        : SPHI       
 SW        .Dec                        : SW         
 T2_CUT_33 .ms                         : T2_CUT_33  
 TVD       .M                          : TVD        
 TVDSS     .M                          : TVDSS      
 VCL       .Dec                        : VCL        
 VPVS      .ft/sec                     : VPVS       
 VSH-LAR   .UNIT                       : VSH-LAR    
 ZDEN      .G/C3                       : ZDEN       
~A Log data section
# ...
 1001.7252         0.0269         0.0001         9.6300         0.3877         0.3357       122.1010       319.3660      -999.0000      -999.0000      -999.0000        92.0340         0.0000         1.2500         1.2560      -999.0000      -999.0000      -999.0000      -999.0000      -999.0000      -999.0000      -999.0000      -999.0000      -999.0000      -999.0000      -999.0000      -999.0000      -999.0000      -999.0000         0.0000         0.0001         0.4140        -0.7670         0.4469         1.0000        33.0000      1001.6970      -861.6970         1.0000         2.6160         0.1104         2.1160 
 1001.8776         0.0511         0.0001         9.4810         0.3952         0.3268       120.0810       314.9680      -999.0000      -999.0000      -999.0000        92.3020         0.0000         1.1980         1.2030      -999.0000      -999.0000      -999.0000      -999.0000      -999.0000      -999.0000      -999.0000      -999.0000      -999.0000      -999.0000      -999.0000      -999.0000      -999.0000      -999.0000         0.0000         0.0001         0.4150        -1.0270         0.4358         1.0000        33.0000      1001.8494      -861.8494         1.0000         2.6230         0.1113         2.1310 
 1002.0300         0.0877         0.0001         9.7110         0.3992         0.3065       117.0320       319.3720      -999.0000      -999.0000      -999.0000        92.2530         0.0000         1.1340         1.1380      -999.0000      -999.0000      -999.0000      -999.0000      -999.0000      -999.0000      -999.0000      -999.0000      -999.0000      -999.0000      -999.0000      -999.0000      -999.0000      -999.0000         0.0000         0.0001         0.4220        -1.2000         0.4245         1.0000        33.0000      1002.0018      -862.0018         1.0000         2.7290         0.1111         2.1650 
 1002.1824         0.1108         0.0001         9.9690         0.4048         0.2798       115.1100       323.1400      -999.0000      -999.0000      -999.0000        93.5600         0.0000         1.1160         1.1190      -999.0000      -999.0000      -999.0000      -999.0000      -999.0000      -999.0000      -999.0000      -999.0000      -999.0000      -999.0000      -999.0000      -999.0000      -999.0000      -999.0000         0.0000         0.0001         0.4270        -1.3630         0.4158         1.0000        33.0000      1002.1541      -862.1541         1.0000         2.8070         0.1157         2.2100 
 1002.3348         0.1264         0.0001        10.0060         0.4107         0.2530       113.8070       325.4710      -999.0000      -999.0000      -999.0000        95.7140         0.0000         1.2760         1.2790      -999.0000      -999.0000      -999.0000      -999.0000      -999.0000      -999.0000      -999.0000      -999.0000      -999.0000      -999.0000      -999.0000      -999.0000      -999.0000      -999.0000         0.0000         0.0001         0.4300        -1.4240         0.4153         1.0000        33.0000      1002.3065      -862.3065         1.0000         2.8600         0.1234         2.2550 
 1002.4872         0.1388         0.0001         9.8240         0.3999         0.2339       112.7710       325.4280      -999.0000      -999.0000      -999.0000        95.3000         0.0000         1.4620         1.4650      -999.0000      -999.0000      -999.0000      -999.0000      -999.0000      -999.0000      -999.0000      -999.0000      -999.0000      -999.0000      -999.0000      -999.0000      -999.0000      -999.0000         0.0000         0.0001         0.4320        -1.3950         0.4248         1.0000        33.0000      1002.4589      -862.4589         1.0000         2.8860         0.1219         2.2870 
 1002.6396         0.1405         0.0001         9.6170         0.3748         0.2363       112.6330       325.5890      -999.0000      -999.0000      -999.0000        92.0010         0.0000         1.4710         1.4750      -999.0000      -999.0000      -999.0000      -999.0000      -999.0000      -999.0000      -999.0000      -999.0000      -999.0000      -999.0000      -999.0000      -999.0000      -999.0000      -999.0000         0.0000         0.0001         0.4320        -1.4080         0.4406         1.0000        33.0000      1002.6113      -862.6113         1.0000         2.8910         0.1103         2.2830 
 1002.7920         0.1377         0.0001         9.5370         0.3567         0.2613       112.8690       325.7780      -999.0000      -999.0000      -999.0000        89.5050         0.0000         1.3050         1.3080      -999.0000      -999.0000      -999.0000      -999.0000      -999.0000      -999.0000      -999.0000      -999.0000      -999.0000      -999.0000      -999.0000      -999.0000      -999.0000      -999.0000         0.0000         0.0001         0.4320        -1.4950         0.4568         1.0000        33.0000      1002.7637      -862.7637         1.0000         2.8860         0.1019         2.2410 
 1002.9444         0.1252         0.0001         9.6330         0.3557         0.2929       113.9100       325.9550      -999.0000      -999.0000      -999.0000        88.9810         0.0000         1.1680         1.1710      -999.0000      -999.0000      -999.0000      -999.0000      -999.0000      -999.0000      -999.0000      -999.0000      -999.0000      -999.0000      -999.0000      -999.0000      -999.0000      -999.0000         0.0000         0.0001         0.4300        -1.6510         0.4685         1.0000        33.0000      1002.9161      -862.9161         1.0000         2.8620         0.1002         2.1880 
 1003.0968         0.1120         0.0001         9.8240         0.3727         0.3214       115.0120       326.2490      -999.0000      -999.0000      -999.0000        89.7030         0.0000         1.2000         1.2030      -999.0000      -999.0000      -999.0000      -999.0000      -999.0000      -999.0000      -999.0000      -999.0000      -999.0000      -999.0000      -999.0000      -999.0000      -999.0000      -999.0000         0.0000         0.0001         0.4290        -1.8680         0.4731         1.0000        33.0000      1003.0685      -863.0685         1.0000         2.8370         0.1026         2.1400 
 1003.2492         0.0930         0.0001         9.9230         0.3944         0.3482       116.5940       326.1110      -999.0000      -999.0000      -999.0000        92.2060         0.0000         1.0880         1.0920      -999.0000      -999.0000      -999.0000      -999.0000      -999.0000      -999.0000      -999.0000      -999.0000      -999.0000      -999.0000      -999.0000      -999.0000      -999.0000      -999.0000         0.0000         0.0001         0.4270        -1.9830         0.4697         1.0000        33.0000      1003.2209      -863.2209         1.0000         2.7970         0.1110         2.0950 
 1003.4016         0.0858         0.0001         9.8420         0.4022         0.3720       117.1930       326.1570      -999.0000      -999.0000      -999.0000        96.4150         0.0000         1.0700         1.0740      -999.0000      -999.0000      -999.0000      -999.0000      -999.0000      -999.0000      -999.0000      -999.0000      -999.0000      -999.0000      -999.0000      -999.0000      -999.0000      -999.0000         0.0000         0.0001         0.4260        -1.9110         0.4614         1.0000        33.0000      1003.3734      -863.3734         1.0000         2.7830         0.1260         2.0550 
 1003.5540         0.0858         0.0001         9.7670         0.4055         0.3845       117.1910       326.3610      -999.0000      -999.0000      -999.0000        98.9550         0.0000         1.2420         1.2480      -999.0000      -999.0000      -999.0000      -999.0000      -999.0000      -999.0000      -999.0000      -999.0000      -999.0000      -999.0000      -999.0000      -999.0000      -999.0000      -999.0000         0.0000         0.0001         0.4260        -1.6800         0.4539         1.0000        33.0000      1003.5258      -863.5258         1.0000         2.7850         0.1356         2.0340 
