~VERSION INFORMATION
 VERS.                 2.0:   CWLS LOG ASCII STANDARD - VERSION 2.0
 WRAP.                  NO:   SINGLE LINE PER DEPTH STEP
~WELL INFORMATION
#MNEM.UNIT       DATA           DESCRIPTION MNEMONIC
#---------    -------------   --------------------------
 STRT.M         550.0116                      : START DEPTH
 STOP.M         1468.2216                     : STOP DEPTH
 STEP.M         0.1524                        : STEP VALUE
 NULL.          -999.0000                     : NULL VALUE
 SRVC.          PYPOZO                        : Service Company/Logging company
 DATE.          01/07/2025                    : LAS file Creation Date
 WELL    .      PALO BLANCO 791                : Well Name
 COMP    .      PYPOZO 2.0                    : Company
 FLD     .      UNKNOWN                       : Field
 LOC     .      UNKNOWN                       : Location
 LATI    .      0                             : Latitude/Northing
 LONG    .      0                             : Longitude/Easting
 APDAT   .      0                             : Elevation Above Permanent Datum
~CURVE INFORMATION
#MNEM          UNIT     API CODE   Curve Type Comments
#---------- ---------- ----------  ---------- --------
 DEPTH     .M                    : Depth      
 BRITT     .UNIT                       : BRITT      
 BVW       .Dec                        : BVW        
 CAL       .IN                         : CAL        
 CNCF      .dec                        : CNCF       
 DPHI      .dec                        : DPHI       
 DTC       .US/F                       : DTC        
 DTS       .US/F                       : DTS        
 ECHADOS   .DEG                        : ECHADOS    
 FRAC_IND  .DEG                        : FRAC_IND   
 FRAC_NAT  .DEG                        : FRAC_NAT   
 GR        .GAPI                       : GR         
 KTIXIER   .mD                         : KTIXIER    
 M1R6      .OHMM                       : M1R6       
 M1R9      .OHMM                       : M1R9       
 MPERMC    .MD                         : MPERMC     
 MPOC01    .p.u                        : MPOC01     
 MPOC02    .p.u                        : MPOC02     
 MPOC03    .p.u                        : MPOC03     
 MPOC04    .p.u                        : MPOC04     
 MPOC05    .p.u                        : MPOC05     
 MPOC06    .p.u                        : MPOC06     
 MPOC07    .p.u                        : MPOC07     
 MPOC08    .p.u                        : MPOC08     
 MPOC09    .p.u                        : MPOC09     
 MPOC10    .p.u                        : MPOC10     
 MPOC11    .p.u                        : MPOC11     
 MPOC12    .p.u                        : MPOC12     
 MPOC13    .p.u                        : MPOC13     
 PAYFLAG   .UNIT                       : PAYFLAG    
 PHIE      .Dec                        : PHIE       
 POISDIN   .UNIT                       : POISDIN    
 SP        .MV                         : SP         
 SPHI      .dec                        : SPHI       
 SW        .Dec                        : SW         
 T2_CUT_33 .ms                         : T2_CUT_33  
 TVD       .M                          : TVD        
 TVDSS     .M                          : TVDSS      
 VCL       .Dec                        : VCL        
 VPVS      .ft/sec                     : VPVS       
 VSH-LAR   .UNIT                       : VSH-LAR    
 ZDEN      .G/C3                       : ZDEN       
~A Log data section
# ...
  656.9964         0.1955         0.0001         9.6310         0.4265         0.2607       108.0530       275.7960      -999.0000      -999.0000      -999.0000        89.6030         0.0000         2.1320         2.1530      -999.0000      -999.0000      -999.0000      -999.0000      -999.0000      -999.0000      -999.0000      -999.0000      -999.0000      -999.0000      -999.0000      -999.0000      -999.0000      -999.0000         0.0000         0.0001         0.4090        -1.5120         0.4060         1.0000        33.0000       656.9775      -516.9775         1.0000         2.5520         0.1022         2.2420 
  657.1488         0.1881         0.0001         9.5900         0.4018         0.2554       108.6710       275.3360      -999.0000      -999.0000      -999.0000        89.9560         0.0000         2.3880         2.4140      -999.0000      -999.0000      -999.0000      -999.0000      -999.0000      -999.0000      -999.0000      -999.0000      -999.0000      -999.0000      -999.0000      -999.0000      -999.0000      -999.0000         0.0000         0.0001         0.4080        -1.4700         0.4145         1.0000        33.0000       657.1298      -517.1298         1.0000         2.5340         0.1034         2.2510 
  657.3012         0.1713         0.0001         9.6130         0.3715         0.2488       110.0640       264.8430      -999.0000      -999.0000      -999.0000        88.8940         0.0000         2.0770         2.1000      -999.0000      -999.0000      -999.0000      -999.0000      -999.0000      -999.0000      -999.0000      -999.0000      -999.0000      -999.0000      -999.0000      -999.0000      -999.0000      -999.0000         0.0000         0.0001         0.3960        -1.3720         0.4190         1.0000        33.0000       657.2822      -517.2822         1.0000         2.4060         0.0999         2.2620 
  657.4536         0.1610         0.0001         9.7800         0.3575         0.2440       110.9290       261.5940      -999.0000      -999.0000      -999.0000        87.6800         0.0000         2.0530         2.0760      -999.0000      -999.0000      -999.0000      -999.0000      -999.0000      -999.0000      -999.0000      -999.0000      -999.0000      -999.0000      -999.0000      -999.0000      -999.0000      -999.0000         0.0000         0.0001         0.3900        -1.4200         0.4154         1.0000        33.0000       657.4346      -517.4346         1.0000         2.3580         0.0960         2.2700 
  657.6060         0.1464         0.0001         9.9690         0.3528         0.2393       112.1390       264.9000      -999.0000      -999.0000      -999.0000        87.8710         0.0000         2.1100         2.1360      -999.0000      -999.0000      -999.0000      -999.0000      -999.0000      -999.0000      -999.0000      -999.0000      -999.0000      -999.0000      -999.0000      -999.0000      -999.0000      -999.0000         0.0000         0.0001         0.3910        -1.4040         0.4054         1.0000        33.0000       657.5870      -517.5870         1.0000         2.3620         0.0966         2.2780 
  657.7584         0.1484         0.0001         9.9610         0.3533         0.2327       111.9730       278.8300      -999.0000      -999.0000      -999.0000        88.3820         0.0000         2.0230         2.0480      -999.0000      -999.0000      -999.0000      -999.0000      -999.0000      -999.0000      -999.0000      -999.0000      -999.0000      -999.0000      -999.0000      -999.0000      -999.0000      -999.0000         0.0000         0.0001         0.4040        -1.1360         0.3959         1.0000        33.0000       657.7394      -517.7394         1.0000         2.4900         0.0983         2.2890 
  657.9108         0.1589         0.0001         9.7660         0.3588         0.2321       111.1000       285.8210      -999.0000      -999.0000      -999.0000        87.8300         0.0000         2.1940         2.2230      -999.0000      -999.0000      -999.0000      -999.0000      -999.0000      -999.0000      -999.0000      -999.0000      -999.0000      -999.0000      -999.0000      -999.0000      -999.0000      -999.0000         0.0000         0.0001         0.4110        -0.8060         0.3928         1.0000        33.0000       657.8918      -517.8918         1.0000         2.5730         0.0965         2.2900 
  658.0632         0.1760         0.0001         9.6650         0.3620         0.2429       109.6780       289.3510      -999.0000      -999.0000      -999.0000        86.4570         0.0000         2.3650         2.3970      -999.0000      -999.0000      -999.0000      -999.0000      -999.0000      -999.0000      -999.0000      -999.0000      -999.0000      -999.0000      -999.0000      -999.0000      -999.0000      -999.0000         0.0000         0.0001         0.4160        -0.8210         0.3971         1.0000        33.0000       658.0442      -518.0442         0.9699         2.6380         0.0922         2.2720 
  658.2156         0.1838         0.0001         9.8300         0.3675         0.2571       109.0220       289.4290      -999.0000      -999.0000      -999.0000        86.1660         0.0000         2.1740         2.2050      -999.0000      -999.0000      -999.0000      -999.0000      -999.0000      -999.0000      -999.0000      -999.0000      -999.0000      -999.0000      -999.0000      -999.0000      -999.0000      -999.0000         0.0000         0.0001         0.4170        -1.2500         0.4052         1.0000        33.0000       658.1966      -518.1966         0.9544         2.6550         0.0913         2.2480 
  658.3680         0.1882         0.0001        10.1350         0.3824         0.2649       108.6540       289.4090      -999.0000      -999.0000      -999.0000        87.5590         0.0000         2.0580         2.0880      -999.0000      -999.0000      -999.0000      -999.0000      -999.0000      -999.0000      -999.0000      -999.0000      -999.0000      -999.0000      -999.0000      -999.0000      -999.0000      -999.0000         0.0000         0.0001         0.4180        -1.7730         0.4124         1.0000        33.0000       658.3490      -518.3490         1.0000         2.6640         0.0957         2.2350 
  658.5204         0.1890         0.0001        10.3400         0.3947         0.2637       108.5910       285.8550      -999.0000      -999.0000      -999.0000        88.9800         0.0000         2.0290         2.0600      -999.0000      -999.0000      -999.0000      -999.0000      -999.0000      -999.0000      -999.0000      -999.0000      -999.0000      -999.0000      -999.0000      -999.0000      -999.0000      -999.0000         0.0000         0.0001         0.4160        -1.9660         0.4143         1.0000        33.0000       658.5014      -518.5014         1.0000         2.6320         0.1002         2.2370 
  658.6728         0.1893         0.0001        10.3630         0.3928         0.2577       108.5690       282.3020      -999.0000      -999.0000      -999.0000        90.2150         0.0000         1.9500         1.9810      -999.0000      -999.0000      -999.0000      -999.0000      -999.0000      -999.0000      -999.0000      -999.0000      -999.0000      -999.0000      -999.0000      -999.0000      -999.0000      -999.0000         0.0000         0.0001         0.4130        -1.7810         0.4110         1.0000        33.0000       658.6538      -518.6538         1.0000         2.6000         0.1043         2.2470 
  658.8252         0.1890         0.0001        10.2850         0.3769         0.2488       108.5880       275.4000      -999.0000      -999.0000      -999.0000        91.6090         0.0000         2.0320         2.0650      -999.0000      -999.0000      -999.0000      -999.0000      -999.0000      -999.0000      -999.0000      -999.0000      -999.0000      -999.0000      -999.0000      -999.0000      -999.0000      -999.0000         0.0000         0.0001         0.4080        -1.4710         0.4071         1.0000        33.0000       658.8062      -518.8062         1.0000         2.5360         0.1089         2.2620 
