~VERSION INFORMATION
 VERS.                 2.0:   CWLS LOG ASCII STANDARD - VERSION 2.0
 WRAP.                  NO:   SINGLE LINE PER DEPTH STEP
~WELL INFORMATION
#MNEM.UNIT       DATA           DESCRIPTION MNEMONIC
#---------    -------------   --------------------------
 STRT.M         550.0116                      : START DEPTH
 STOP.M         1468.2216                     : STOP DEPTH
 STEP.M         0.1524                        : STEP VALUE
 NULL.          -999.0000                     : NULL VALUE
 SRVC.          PYPOZO                        : Service Company/Logging company
 DATE.          01/07/2025                    : LAS file Creation Date
 WELL    .      PALO BLANCO 791                : Well Name
 COMP    .      PYPOZO 2.0                    : Company
 FLD     .      UNKNOWN                       : Field
 LOC     .      UNKNOWN                       : Location
 LATI    .      0                             : Latitude/Northing
 LONG    .      0                             : Longitude/Easting
 APDAT   .      0                             : Elevation Above Permanent Datum
~CURVE INFORMATION
#MNEM          UNIT     API CODE   Curve Type Comments
#---------- ---------- ----------  ---------- --------
 DEPTH     .M                    : Depth      
 BRITT     .UNIT                       : BRITT      
 BVW       .Dec                        : BVW        
 CAL       .IN                         : CAL        
 CNCF      .dec                        : CNCF       
 DPHI      .dec                        : DPHI       
 DTC       .US/F                       : DTC        
 DTS       .US/F                       : DTS        
 ECHADOS   .DEG                        : ECHADOS    
 FRAC_IND  .DEG                        : FRAC_IND   
 FRAC_NAT  .DEG                        : FRAC_NAT   
 GR        .GAPI                       : GR         
 KTIXIER   .mD                         : KTIXIER    
 M1R6      .OHMM                       : M1R6       
 M1R9      .OHMM                       : M1R9       
 MPERMC    .MD                         : MPERMC     
 MPOC01    .p.u                        : MPOC01     
 MPOC02    .p.u                        : MPOC02     
 MPOC03    .p.u                        : MPOC03     
 MPOC04    .p.u                        : MPOC04     
 MPOC05    .p.u                        : MPOC05     
 MPOC06    .p.u                        : MPOC06     
 MPOC07    .p.u                        : MPOC07     
 MPOC08    .p.u                        : MPOC08     
 MPOC09    .p.u                        : MPOC09     
 MPOC10    .p.u                        : MPOC10     
 MPOC11    .p.u                        : MPOC11     
 MPOC12    .p.u                        : MPOC12     
 MPOC13    .p.u                        : MPOC13     
 PAYFLAG   .UNIT                       : PAYFLAG    
 PHIE      .Dec                        : PHIE       
 POISDIN   .UNIT                       : POISDIN    
 SP        .MV                         : SP         
 SPHI      .dec                        : SPHI       
 SW        .Dec                        : SW         
 T2_CUT_33 .ms                         : T2_CUT_33  
 TVD       .M                          : TVD        
 TVDSS     .M                          : TVDSS      
 VCL       .Dec                        : VCL        
 VPVS      .ft/sec                     : VPVS       
 VSH-LAR   .UNIT                       : VSH-LAR    
 ZDEN      .G/C3                       : ZDEN       
~A Log data section
# ...
  714.4512         0.1456         0.0001        11.5100         0.3844         0.2274       112.2060       284.8320      -999.0000      -999.0000      -999.0000        90.8670         0.0000         1.7660         1.7670      -999.0000      -999.0000      -999.0000      -999.0000      -999.0000      -999.0000      -999.0000      -999.0000      -999.0000      -999.0000      -999.0000      -999.0000      -999.0000      -999.0000         0.0000         0.0001         0.4080        -3.5400         0.4420         1.0000        33.0000       714.4293      -574.4293         1.0000         2.5380         0.1064         2.2980 
  714.6036         0.1344         0.0001        11.6480         0.3697         0.2405       113.1390       287.3120      -999.0000      -999.0000      -999.0000        91.0460         0.0000         1.6650         1.6660      -999.0000      -999.0000      -999.0000      -999.0000      -999.0000      -999.0000      -999.0000      -999.0000      -999.0000      -999.0000      -999.0000      -999.0000      -999.0000      -999.0000         0.0000         0.0001         0.4080        -3.5520         0.4431         1.0000        33.0000       714.5816      -574.5816         1.0000         2.5390         0.1070         2.2760 
  714.7560         0.1275         0.0001        11.7450         0.3538         0.2512       113.7180       283.1020      -999.0000      -999.0000      -999.0000        90.8470         0.0000         1.6990         1.6990      -999.0000      -999.0000      -999.0000      -999.0000      -999.0000      -999.0000      -999.0000      -999.0000      -999.0000      -999.0000      -999.0000      -999.0000      -999.0000      -999.0000         0.0000         0.0001         0.4040        -3.5620         0.4399         1.0000        33.0000       714.7340      -574.7340         1.0000         2.4900         0.1064         2.2580 
  714.9084         0.1246         0.0001        11.8080         0.3591         0.2518       113.9580       278.3320      -999.0000      -999.0000      -999.0000        91.5060         0.0000         1.9010         1.9000      -999.0000      -999.0000      -999.0000      -999.0000      -999.0000      -999.0000      -999.0000      -999.0000      -999.0000      -999.0000      -999.0000      -999.0000      -999.0000      -999.0000         0.0000         0.0001         0.3990        -3.5880         0.4345         1.0000        33.0000       714.8864      -574.8864         1.0000         2.4420         0.1086         2.2570 
  715.0608         0.1286         0.0001        11.7790         0.3794         0.2440       113.6250       275.1640      -999.0000      -999.0000      -999.0000        92.1470         0.0000         2.0020         2.0000      -999.0000      -999.0000      -999.0000      -999.0000      -999.0000      -999.0000      -999.0000      -999.0000      -999.0000      -999.0000      -999.0000      -999.0000      -999.0000      -999.0000         0.0000         0.0001         0.3970        -3.6430         0.4299         1.0000        33.0000       715.0388      -575.0388         1.0000         2.4220         0.1108         2.2700 
  715.2132         0.1384         0.0001        11.6450         0.3888         0.2339       112.8090       276.6980      -999.0000      -999.0000      -999.0000        91.5110         0.0000         1.7560         1.7540      -999.0000      -999.0000      -999.0000      -999.0000      -999.0000      -999.0000      -999.0000      -999.0000      -999.0000      -999.0000      -999.0000      -999.0000      -999.0000      -999.0000         0.0000         0.0001         0.4000        -3.6410         0.4273         1.0000        33.0000       715.1912      -575.1912         1.0000         2.4530         0.1086         2.2870 
  715.3656         0.1492         0.0001        11.4510         0.3794         0.2256       111.9100       280.5500      -999.0000      -999.0000      -999.0000        90.1770         0.0000         1.6440         1.6420      -999.0000      -999.0000      -999.0000      -999.0000      -999.0000      -999.0000      -999.0000      -999.0000      -999.0000      -999.0000      -999.0000      -999.0000      -999.0000      -999.0000         0.0000         0.0001         0.4050        -3.6220         0.4259         1.0000        33.0000       715.3436      -575.3436         1.0000         2.5070         0.1041         2.3010 
  715.5180         0.1565         0.0001        11.2890         0.3719         0.2226       111.3020       281.5350      -999.0000      -999.0000      -999.0000        89.4320         0.0000         1.7170         1.7140      -999.0000      -999.0000      -999.0000      -999.0000      -999.0000      -999.0000      -999.0000      -999.0000      -999.0000      -999.0000      -999.0000      -999.0000      -999.0000      -999.0000         0.0000         0.0001         0.4070        -3.6130         0.4240         1.0000        33.0000       715.4960      -575.4960         1.0000         2.5290         0.1017         2.3060 
  715.6704         0.1555         0.0001        11.2210         0.3830         0.2220       111.3830       277.8450      -999.0000      -999.0000      -999.0000        89.6520         0.0000         2.0620         2.0590      -999.0000      -999.0000      -999.0000      -999.0000      -999.0000      -999.0000      -999.0000      -999.0000      -999.0000      -999.0000      -999.0000      -999.0000      -999.0000      -999.0000         0.0000         0.0001         0.4040        -3.5300         0.4208         1.0000        33.0000       715.6484      -575.6484         1.0000         2.4950         0.1024         2.3070 
  715.8228         0.1503         0.0001        11.2830         0.4057         0.2226       111.8170       281.5170      -999.0000      -999.0000      -999.0000        89.6510         0.0000         2.0270         2.0250      -999.0000      -999.0000      -999.0000      -999.0000      -999.0000      -999.0000      -999.0000      -999.0000      -999.0000      -999.0000      -999.0000      -999.0000      -999.0000      -999.0000         0.0000         0.0001         0.4060        -3.3250         0.4166         1.0000        33.0000       715.8008      -575.8008         1.0000         2.5180         0.1024         2.3060 
  715.9752         0.1581         0.0001        11.4370         0.4076         0.2268       111.1640       280.3110      -999.0000      -999.0000      -999.0000        88.0750         0.0000         1.8000         1.7990      -999.0000      -999.0000      -999.0000      -999.0000      -999.0000      -999.0000      -999.0000      -999.0000      -999.0000      -999.0000      -999.0000      -999.0000      -999.0000      -999.0000         0.0000         0.0001         0.4070        -3.0920         0.4122         1.0000        33.0000       715.9532      -575.9532         1.0000         2.5220         0.0973         2.2990 
  716.1276         0.1656         0.0001        11.6100         0.3821         0.2345       110.5410       274.8820      -999.0000      -999.0000      -999.0000        86.5650         0.0000         1.7740         1.7730      -999.0000      -999.0000      -999.0000      -999.0000      -999.0000      -999.0000      -999.0000      -999.0000      -999.0000      -999.0000      -999.0000      -999.0000      -999.0000      -999.0000         0.0000         0.0001         0.4040        -2.9080         0.4093         1.0000        33.0000       716.1057      -576.1057         0.9758         2.4870         0.0925         2.2860 
  716.2800         0.1688         0.0001        11.8160         0.3604         0.2351       110.2750       270.2550      -999.0000      -999.0000      -999.0000        86.8030         0.0000         1.9780         1.9770      -999.0000      -999.0000      -999.0000      -999.0000      -999.0000      -999.0000      -999.0000      -999.0000      -999.0000      -999.0000      -999.0000      -999.0000      -999.0000      -999.0000         0.0000         0.0001         0.4000        -2.8450         0.4098         1.0000        33.0000       716.2581      -576.2581         0.9889         2.4510         0.0933         2.2850 
