~VERSION INFORMATION
 VERS.                 2.0:   CWLS LOG ASCII STANDARD - VERSION 2.0
 WRAP.                  NO:   SINGLE LINE PER DEPTH STEP
~WELL INFORMATION
#MNEM.UNIT       DATA           DESCRIPTION MNEMONIC
#---------    -------------   --------------------------
 STRT.M         10.0000                      : START DEPTH
 STOP.M         1849.6204                     : STOP DEPTH
 STEP.M         0.1524                        : STEP VALUE
 NULL.          -999.0000                     : NULL VALUE
 SRVC.          PYPOZO                        : Service Company/Logging company
 DATE.          08/07/2025                    : LAS file Creation Date
 WELL    .      ABEDUL-1                       : Well Name
 COMP    .      PYPOZO 2.0                    : Company
 FLD     .      UNKNOWN                       : Field
 LOC     .      UNKNOWN                       : Location
 LATI    .      0                             : Latitude/Northing
 LONG    .      0                             : Longitude/Easting
 APDAT   .      0                             : Elevation Above Permanent Datum
~CURVE INFORMATION
#MNEM          UNIT     API CODE   Curve Type Comments
#---------- ---------- ----------  ---------- --------
 DEPTH     .M                    : Depth      
 CALI      .IN                         : CALI       
 CILD      .MM/M                       : CILD       
 DPHI      .V/V                        : DPHI       
 DRHO      .G/C3                       : DRHO       
 DT        .US/F                       : DT         
 GR        .GAPI                       : GR         
 ILD       .OHMM                       : ILD        
 MINV      .OHMM                       : MINV       
 MLL       .OHMM                       : MLL        
 MNOR      .OHMM                       : MNOR       
 NEUT      .NAPI                       : NEUT       
 RHOB      .G/C3                       : RHOB       
 SN        .OHMM                       : SN         
 SP        .MV                         : SP         
 SPHI      .V/V                        : SPHI       
 VCL_LARIONOV_TERTIARY.fraction                   : VCL_LARIONOV_TERTIARY 
 PHIE_RHOB_CLAY_CORR.fraction                   : PHIE_RHOB_CLAY_CORR 
 SW_ARCHIE_MOD.fraction                   : SW_ARCHIE_MOD 
 PERM_KC   .mD                         : PERM_KC    
~A Log data section
# ...
 1285.5880         9.2343       360.8951         0.0109         0.0985        83.5243        29.2802         3.8225         3.2827         4.9089         2.8282      1053.3328         2.6914         5.2598       -23.2964         0.2347         0.0259         0.0000         0.0044         0.4770 
 1285.7404         9.2265       368.3918         0.0140         0.1129        83.8913        28.8142         3.6983         3.1150         5.0523         2.7822      1057.9169         2.6861         5.1174       -23.3532         0.2371         0.0249         0.0000         0.0043         0.4772 
 1285.8928         9.2113       375.8884         0.0183         0.1059        83.0557        28.5870         3.5740         2.9473         5.1958         2.7363      1060.9530         2.6787         4.9751       -23.4100         0.2312         0.0244         0.0000         0.0043         0.4774 
 1286.0452         9.1845       383.3851         0.0238         0.0898        82.6095        28.7365         3.4498         2.9473         5.1958         2.7363      1062.4917         2.6692         4.8327       -23.4669         0.2281         0.0247         0.0000         0.0043         0.4778 
 1286.1976         9.1542       383.3851         0.0295         0.0781        82.4839        29.6107         3.4498         3.1069         5.2963         2.7726      1060.9142         2.6595         4.8327       -23.4669         0.2272         0.0266         0.0000         0.0043         0.4781 
 1286.3500         9.1064       393.3535         0.0343         0.0778        81.6257        30.1877         3.3807         3.2665         5.3968         2.8089      1054.6643         2.6513         4.6520       -23.3184         0.2211         0.0278         0.0000         0.0043         0.4784 
 1286.5024         9.0528       403.3219         0.0396         0.0850        80.4320        29.5634         3.3117         3.4261         5.4974         2.8453      1042.1838         2.6423         4.4713       -23.1699         0.2127         0.0265         0.0047         0.0042         0.4788 
 1286.6548         9.0343       413.2903         0.0471         0.0778        79.4293        28.6994         3.2427         3.5857         5.5979         2.8816      1056.1831         2.6294         4.2906       -23.0214         0.2056         0.0247         0.0125         0.0042         0.4793 
 1286.8072         9.0718       423.2587         0.0540         0.0558        78.8679        27.8315         3.1737         3.7453         5.6985         2.9179      1095.1045         2.6177         4.1099       -22.8729         0.2017         0.0229         0.0196         0.0042         0.4798 
 1286.9596         9.1640       433.2271         0.0612         0.0425        79.7168        26.5928         3.1047         3.9049         5.7990         2.9543      1127.7954         2.6053         3.9292       -22.7244         0.2078         0.0204         0.0271         0.0041         0.4804 
 1287.1120         9.2547       433.2271         0.0625         0.0433        81.1425        26.2195         3.1047         3.9049         5.7990         2.9543      1157.3710         2.6031         3.9292       -22.7244         0.2178         0.0197         0.0284         0.0041         0.4805 
 1287.2644         9.2949       425.0656         0.0551         0.0489        80.8555        26.3409         3.1857         3.8796         5.6013         2.9919      1171.0985         2.6158         4.0812       -22.7602         0.2157         0.0200         0.0207         0.0041         0.4799 
 1287.4168         9.2525       416.9040         0.0468         0.0541        79.9853        26.7095         3.2667         3.8544         5.4037         3.0296      1180.9011         2.6299         4.2331       -22.7960         0.2096         0.0207         0.0122         0.0042         0.4793 
 1287.5692         9.1584       408.7425         0.0380         0.0616        79.7412        27.0782         3.3477         3.8291         5.2060         3.0673      1182.2395         2.6449         4.3850       -22.8318         0.2078         0.0214         0.0031         0.0042         0.4787 
 1287.7216         9.1095       400.5809         0.0318         0.0736        78.7709        27.5704         3.4287         3.8038         5.0084         3.1050      1177.7513         2.6557         4.5370       -22.8676         0.2009         0.0224         0.0000         0.0042         0.4783 
 1287.8740         9.1058       392.4194         0.0263         0.0876        77.3141        28.0627         3.5097         3.7786         4.8107         3.1426      1150.7700         2.6651         4.6889       -22.9034         0.1906         0.0234         0.0000         0.0042         0.4779 
 1288.0264         9.1015       384.2578         0.0203         0.1017        77.1995        28.5550         3.5907         3.7786         4.8107         3.1426      1128.4900         2.6752         4.8409       -22.9392         0.1900         0.0244         0.0000         0.0043         0.4776 
 1288.1788         9.0915       384.2578         0.0133         0.1166        78.9492        29.1710         3.5907         3.7980         4.8979         3.1601      1106.2100         2.6872         4.8409       -22.9392         0.2024         0.0256         0.0000         0.0042         0.4772 
 1288.3312         9.0822       385.7007         0.0075         0.1348        80.8441        29.7636         3.5950         3.8174         4.9851         3.1776      1083.9299         2.6972         4.8542       -22.9369         0.2157         0.0269         0.0000         0.0042         0.4768 
 1288.4836         9.0815       387.1436         0.0092         0.1691        82.2215        30.5610         3.5993         3.8368         5.0723         3.1951      1061.6498         2.6943         4.8676       -22.9346         0.2254         0.0285         0.0000         0.0042         0.4769 
 1288.6360         9.0953       388.5864         0.0189         0.1854        83.2944        31.2090         3.6035         3.8562         5.1594         3.2126      1052.1130         2.6776         4.8810       -22.9324         0.2330         0.0299         0.0000         0.0042         0.4775 
 1288.7884         9.1244       390.0293         0.0293         0.1598        83.1300        31.5117         3.6078         3.8757         5.2466         3.2301      1056.9206         2.6599         4.8944       -22.9301         0.2318         0.0306         0.0000         0.0043         0.4781 
 1288.9408         9.1784       391.4721         0.0378         0.1262        81.8116        31.5094         3.6121         3.8951         5.3338         3.2476      1061.6206         2.6454         4.9078       -22.9278         0.2224         0.0306         0.0028         0.0043         0.4787 
 1289.0932         9.2340       391.4721         0.0441         0.0993        80.5134        31.3301         3.6121         3.8951         5.3338         3.2476      1069.2985         2.6346         4.9078       -22.9278         0.2133         0.0302         0.0093         0.0043         0.4791 
 1289.2456         9.2611       387.6669         0.0472         0.0767        79.7397        31.0846         3.6399         4.1144         5.2092         3.2187      1076.9966         2.6292         4.9464       -22.9739         0.2078         0.0297         0.0126         0.0043         0.4793 
 1289.3980         9.2578       383.8616         0.0410         0.0744        78.3280        30.8393         3.6676         4.3337         5.0846         3.1899      1089.4480         2.6399         4.9851       -23.0200         0.1978         0.0291         0.0061         0.0043         0.4789 
 1289.5504         9.2287       380.0563         0.0291         0.0868        75.7492        30.4295         3.6954         4.5529         4.9600         3.1611      1100.3418         2.6603         5.0238       -23.0660         0.1795         0.0283         0.0000         0.0043         0.4781 
