~VERSION INFORMATION
 VERS.                 2.0:   CWLS LOG ASCII STANDARD - VERSION 2.0
 WRAP.                  NO:   SINGLE LINE PER DEPTH STEP
~WELL INFORMATION
#MNEM.UNIT       DATA           DESCRIPTION MNEMONIC
#---------    -------------   --------------------------
 STRT.M         10.0000                      : START DEPTH
 STOP.M         1849.6204                     : STOP DEPTH
 STEP.M         0.1524                        : STEP VALUE
 NULL.          -999.0000                     : NULL VALUE
 SRVC.          PYPOZO                        : Service Company/Logging company
 DATE.          08/07/2025                    : LAS file Creation Date
 WELL    .      ABEDUL-1                       : Well Name
 COMP    .      PYPOZO 2.0                    : Company
 FLD     .      UNKNOWN                       : Field
 LOC     .      UNKNOWN                       : Location
 LATI    .      0                             : Latitude/Northing
 LONG    .      0                             : Longitude/Easting
 APDAT   .      0                             : Elevation Above Permanent Datum
~CURVE INFORMATION
#MNEM          UNIT     API CODE   Curve Type Comments
#---------- ---------- ----------  ---------- --------
 DEPTH     .M                    : Depth      
 CALI      .IN                         : CALI       
 CILD      .MM/M                       : CILD       
 DPHI      .V/V                        : DPHI       
 DRHO      .G/C3                       : DRHO       
 DT        .US/F                       : DT         
 GR        .GAPI                       : GR         
 ILD       .OHMM                       : ILD        
 MINV      .OHMM                       : MINV       
 MLL       .OHMM                       : MLL        
 MNOR      .OHMM                       : MNOR       
 NEUT      .NAPI                       : NEUT       
 RHOB      .G/C3                       : RHOB       
 SN        .OHMM                       : SN         
 SP        .MV                         : SP         
 SPHI      .V/V                        : SPHI       
 VCL_LARIONOV_TERTIARY.fraction                   : VCL_LARIONOV_TERTIARY 
 PHIE_RHOB_CLAY_CORR.fraction                   : PHIE_RHOB_CLAY_CORR 
 SW_ARCHIE_MOD.fraction                   : SW_ARCHIE_MOD 
 PERM_KC   .mD                         : PERM_KC    
~A Log data section
# ...
  939.9448        10.6371       436.3649         0.0838         0.0848        96.1299        32.2484         2.7918         2.6820         2.5785         2.2047       880.6912         2.5667         3.5158       -21.4783         0.3236         0.0322         0.0505         0.0042         0.4822 
  940.0972        10.6374       436.3649         0.0734         0.1016        94.5031        32.3017         2.7918         2.6820         2.5785         2.2047       900.9307         2.5845         3.5158       -21.4783         0.3121         0.0323         0.0397         0.0041         0.4813 
  940.2496        10.6343       433.6964         0.0578         0.1171        93.2400        32.4185         2.8063         2.6494         2.5875         2.1911       918.0550         2.6111         3.5901       -21.4645         0.3032         0.0326         0.0236         0.0041         0.4801 
  940.4020        10.6308       431.0280         0.0554         0.1160        92.7079        32.4889         2.8209         2.6169         2.5965         2.1776       922.7182         2.6153         3.6643       -21.4507         0.2995         0.0327         0.0210         0.0041         0.4799 
  940.5544        10.6223       428.3596         0.0628         0.1017        93.5751        32.5693         2.8354         2.5843         2.6055         2.1641       922.7086         2.6026         3.7386       -21.4369         0.3057         0.0329         0.0287         0.0042         0.4805 
  940.7068        10.6031       425.6911         0.0711         0.0971        95.0338        32.7312         2.8499         2.5517         2.6146         2.1505       913.3530         2.5885         3.8128       -21.4231         0.3160         0.0332         0.0373         0.0042         0.4811 
  940.8592        10.5704       423.0227         0.0773         0.1069        95.4643        32.7286         2.8644         2.5191         2.6236         2.1370       897.7671         2.5778         3.8871       -21.4094         0.3189         0.0332         0.0438         0.0042         0.4817 
  941.0116        10.5321       420.3542         0.0865         0.1176        95.0317        32.7263         2.8790         2.5191         2.6236         2.1370       903.9879         2.5621         3.9613       -21.3956         0.3159         0.0332         0.0533         0.0043         0.4825 
  941.1640        10.5012       420.3542         0.0805         0.1203        95.0466        32.7241         2.8790         2.5569         2.6310         2.1178       927.3428         2.5724         3.9613       -21.3956         0.3160         0.0332         0.0470         0.0042         0.4819 
  941.3164        10.4904       424.3072         0.0730         0.1148        95.8215        32.5775         2.8576         2.5947         2.6384         2.0985       933.5636         2.5852         3.9198       -21.4943         0.3215         0.0329         0.0393         0.0042         0.4813 
  941.4688        10.4958       428.2601         0.0655         0.1071        97.3131        32.3325         2.8362         2.6325         2.6459         2.0793       930.8341         2.5981         3.8784       -21.5929         0.3321         0.0324         0.0315         0.0042         0.4807 
  941.6212        10.5040       432.2130         0.0708         0.1013        99.0915        31.9518         2.8149         2.6703         2.6533         2.0600       904.9397         2.5889         3.8369       -21.6916         0.3447         0.0315         0.0370         0.0042         0.4811 
  941.7736        10.5109       436.1659         0.0760         0.0974        99.6866        31.5880         2.7935         2.7081         2.6607         2.0407       882.8486         2.5801         3.7954       -21.7903         0.3488         0.0307         0.0424         0.0041         0.4815 
  941.9260        10.5177       440.1188         0.0780         0.0969        98.8183        31.2240         2.7721         2.7459         2.6682         2.0215       865.9960         2.5767         3.7540       -21.8889         0.3426         0.0300         0.0444         0.0041         0.4817 
  942.0784        10.5223       440.1188         0.0809         0.1020        97.6245        30.7353         2.7721         2.7459         2.6682         2.0215       856.7223         2.5716         3.7540       -21.8889         0.3342         0.0289         0.0475         0.0041         0.4820 
  942.2308        10.5247       433.9828         0.0840         0.1107        96.3978        30.3626         2.8067         2.6788         2.6404         1.9858       851.2751         2.5663         3.7925       -21.8247         0.3255         0.0281         0.0507         0.0042         0.4822 
  942.3832        10.5253       427.8468         0.0865         0.1187        94.9175        29.9899         2.8413         2.6117         2.6127         1.9500       855.7377         2.5621         3.8311       -21.7605         0.3150         0.0273         0.0533         0.0042         0.4825 
  942.5356        10.5251       421.7108         0.0884         0.1173        93.6384        29.6172         2.8759         2.5446         2.5850         1.9143       864.9055         2.5589         3.8697       -21.6963         0.3060         0.0266         0.0552         0.0043         0.4826 
  942.6880        10.5219       415.5748         0.0897         0.1052        93.4664        29.2446         2.9105         2.4775         2.5572         1.8786       872.5098         2.5566         3.9082       -21.6321         0.3049         0.0258         0.0566         0.0043         0.4828 
  942.8404        10.5130       409.4388         0.0873         0.0950        94.2500        29.1188         2.9450         2.4104         2.5295         1.8428       882.0606         2.5607         3.9468       -21.5680         0.3104         0.0255         0.0541         0.0043         0.4825 
  942.9928        10.5012       403.3028         0.0761         0.0950        94.0668        30.2276         2.9796         2.3433         2.5018         1.8071       893.9489         2.5798         3.9854       -21.5038         0.3090         0.0278         0.0425         0.0043         0.4816 
  943.1452        10.4878       403.3028         0.0641         0.1005        92.1797        31.4599         2.9796         2.3433         2.5018         1.8071       903.3828         2.6005         3.9854       -21.5038         0.2956         0.0305         0.0300         0.0043         0.4806 
  943.2976        10.4734       400.3839         0.0628         0.1026        90.6940        32.1983         2.9984         2.4299         2.5758         1.8477       912.4862         2.6025         3.9946       -21.8077         0.2852         0.0321         0.0288         0.0043         0.4805 
  943.4500        10.4676       397.4650         0.0683         0.0987        91.1323        32.2361         3.0171         2.5165         2.6498         1.8882       926.2706         2.5932         4.0038       -22.1116         0.2884         0.0322         0.0344         0.0043         0.4809 
  943.6024        10.4763       394.5461         0.0620         0.0933        92.7098        31.6999         3.0358         2.6031         2.7238         1.9287       936.6366         2.6040         4.0130       -22.4155         0.2996         0.0310         0.0279         0.0043         0.4804 
  943.7548        10.4900       391.6272         0.0650         0.0882        94.6833        31.2038         3.0546         2.6897         2.7978         1.9693       939.6442         2.5989         4.0222       -22.7194         0.3136         0.0299         0.0310         0.0043         0.4806 
  943.9072        10.4904       388.7083         0.0770         0.0834        96.7242        30.8842         3.0733         2.7763         2.8719         2.0098       936.5192         2.5783         4.0314       -23.0233         0.3280         0.0292         0.0435         0.0044         0.4816 
