~VERSION INFORMATION
 VERS.                 2.0:   CWLS LOG ASCII STANDARD - VERSION 2.0
 WRAP.                  NO:   SINGLE LINE PER DEPTH STEP
~WELL INFORMATION
#MNEM.UNIT       DATA           DESCRIPTION MNEMONIC
#---------    -------------   --------------------------
 STRT.M         10.0000                      : START DEPTH
 STOP.M         1849.6204                     : STOP DEPTH
 STEP.M         0.1524                        : STEP VALUE
 NULL.          -999.0000                     : NULL VALUE
 SRVC.          PYPOZO                        : Service Company/Logging company
 DATE.          08/07/2025                    : LAS file Creation Date
 WELL    .      ABEDUL-1                       : Well Name
 COMP    .      PYPOZO 2.0                    : Company
 FLD     .      UNKNOWN                       : Field
 LOC     .      UNKNOWN                       : Location
 LATI    .      0                             : Latitude/Northing
 LONG    .      0                             : Longitude/Easting
 APDAT   .      0                             : Elevation Above Permanent Datum
~CURVE INFORMATION
#MNEM          UNIT     API CODE   Curve Type Comments
#---------- ---------- ----------  ---------- --------
 DEPTH     .M                    : Depth      
 CALI      .IN                         : CALI       
 CILD      .MM/M                       : CILD       
 DPHI      .V/V                        : DPHI       
 DRHO      .G/C3                       : DRHO       
 DT        .US/F                       : DT         
 GR        .GAPI                       : GR         
 ILD       .OHMM                       : ILD        
 MINV      .OHMM                       : MINV       
 MLL       .OHMM                       : MLL        
 MNOR      .OHMM                       : MNOR       
 NEUT      .NAPI                       : NEUT       
 RHOB      .G/C3                       : RHOB       
 SN        .OHMM                       : SN         
 SP        .MV                         : SP         
 SPHI      .V/V                        : SPHI       
 VCL_LARIONOV_TERTIARY.fraction                   : VCL_LARIONOV_TERTIARY 
 PHIE_RHOB_CLAY_CORR.fraction                   : PHIE_RHOB_CLAY_CORR 
 SW_ARCHIE_MOD.fraction                   : SW_ARCHIE_MOD 
 PERM_KC   .mD                         : PERM_KC    
~A Log data section
# ...
 1355.5396         8.6294       233.4379         0.0129         0.1327        78.2151        23.8167         7.6617         8.8556        29.3567         7.7069      1418.1577         2.6879        11.5180       -23.2924         0.1970         0.0151         0.0000         0.0054         0.4771 
 1355.6920         8.6332       229.9247         0.0177         0.1405        77.1930        24.1846         7.7987         8.7659        28.0212         7.2268      1379.8784         2.6797        11.3553       -23.1861         0.1898         0.0158         0.0000         0.0055         0.4774 
 1355.8444         8.6266       226.4115         0.0251         0.1410        76.0568        24.9234         7.9357         8.6763        26.6858         6.7466      1318.7404         2.6671        11.1925       -23.0798         0.1818         0.0172         0.0000         0.0056         0.4779 
 1355.9968         8.6188       222.8983         0.0326         0.1240        74.9812        25.7859         8.0727         8.5867        25.3504         6.2665      1286.5378         2.6543        11.0297       -22.9735         0.1742         0.0189         0.0000         0.0056         0.4783 
 1356.1492         8.6132       222.8983         0.0401         0.1004        74.8101        26.2774         8.0727         8.5867        25.3504         6.2665      1303.2622         2.6415        11.0297       -22.9735         0.1730         0.0198         0.0052         0.0057         0.4788 
 1356.3016         8.6161       227.9118         0.0387         0.0849        76.3710        26.6453         8.0567         7.7825        21.3939         5.8212      1369.2596         2.6438        10.7775       -22.9868         0.1842         0.0206         0.0038         0.0056         0.4787 
 1356.4540         8.6316       232.9254         0.0362         0.0809        78.7215        26.8406         8.0408         6.9783        17.4373         5.3759      1403.4268         2.6481        10.5253       -23.0002         0.2008         0.0209         0.0012         0.0055         0.4786 
 1356.6064         8.6520       237.9389         0.0526         0.0841        80.8568        26.8871         8.0248         6.1742        13.4808         4.9306      1375.1514         2.6201        10.2732       -23.0136         0.2158         0.0210         0.0181         0.0055         0.4797 
 1356.7588         8.6684       242.9524         0.0522         0.0886        81.6202        26.6935         8.0089         5.3700         9.5243         4.4854      1301.2860         2.6207        10.0210       -23.0270         0.2211         0.0206         0.0178         0.0055         0.4797 
 1356.9112         8.6757       247.9659         0.0477         0.0943        78.6356        26.3229         7.9929         4.5658         5.5677         4.0401      1257.0275         2.6284         9.7688       -23.0403         0.1998         0.0199         0.0131         0.0054         0.4793 
 1357.0636         8.6659       252.9795         0.0490         0.0934        71.9817        25.5894         7.9770         4.5658         5.5677         4.0401      1244.5483         2.6261         9.5166       -23.0537         0.1526         0.0185         0.0145         0.0054         0.4794 
 1357.2160         8.6402       252.9795         0.0509         0.0846        64.8330        23.8178         7.9770         5.5061        17.1284         5.0403      1284.5861         2.6229         9.5166       -23.0537         0.1022         0.0151         0.0164         0.0054         0.4796 
 1357.3684         8.6064       262.9438         0.0528         0.0748        59.9547        24.6283         7.4199         6.4465        28.6891         6.0405      1366.6058         2.6197         9.2228       -23.0026         0.0679         0.0167         0.0184         0.0053         0.4797 
 1357.5208         8.5684       272.9081         0.0547         0.0655        57.5547        25.0634         6.8628         7.3868        40.2498         7.0407      1440.9736         2.6165         8.9289       -22.9514         0.0510         0.0175         0.0203         0.0052         0.4799 
 1357.6732         8.5310       282.8725         0.0566         0.0564        57.4821        25.1355         6.3058         8.3272        51.8105         8.0409      1506.2023         2.6133         8.6351       -22.9003         0.0506         0.0176         0.0222         0.0051         0.4800 
 1357.8256         8.5108       292.8368         0.0575         0.0459        60.4290        24.9663         5.7487         9.2675        63.3712         9.0410      1617.3415         2.6117         8.3412       -22.8491         0.0716         0.0173         0.0232         0.0050         0.4801 
 1357.9780         8.5093       302.8011         0.0501         0.0352        65.0619        24.5576         5.1916        10.2079        74.9319        10.0412      1754.8820         2.6243         8.0473       -22.7980         0.1043         0.0165         0.0156         0.0049         0.4795 
 1358.1304         8.5215       302.8011         0.0427         0.0348        69.8069        23.8736         5.1916        10.2079        74.9319        10.0412      1821.0538         2.6371         8.0473       -22.7980         0.1379         0.0152         0.0078         0.0049         0.4790 
 1358.2828         8.5526       295.2801         0.0364         0.0461        74.5507        22.6176         5.3006        10.0889        61.0080         9.1985      1891.3652         2.6478         8.3923       -22.8194         0.1714         0.0129         0.0013         0.0049         0.4786 
 1358.4352         8.5947       287.7591         0.0361         0.0609        79.3251        21.6022         5.4097         9.9698        47.0841         8.3559      1901.8691         2.6483         8.7372       -22.8408         0.2052         0.0111         0.0010         0.0050         0.4785 
 1358.5876         8.6650       280.2381         0.0421         0.0761        82.6157        21.4077         5.5187         9.8508        33.1602         7.5132      1809.9689         2.6380         9.0821       -22.8622         0.2282         0.0107         0.0073         0.0051         0.4790 
 1358.7400         8.7338       272.7171         0.0480         0.0869        81.8544        22.6203         5.6278         9.7317        19.2362         6.6705      1540.4984         2.6280         9.4271       -22.8836         0.2226         0.0129         0.0133         0.0052         0.4794 
 1358.8924         8.7540       265.1961         0.0564         0.0888        75.9471        23.5373         5.7369         9.6127         5.3123         5.8278      1353.5825         2.6135         9.7720       -22.9050         0.1806         0.0146         0.0221         0.0053         0.4800 
 1359.0448         8.7456       257.6750         0.0674         0.0851        68.6468        24.0349         5.8459         9.6127         5.3123         5.8278      1323.9876         2.5947        10.1169       -22.9264         0.1292         0.0155         0.0335         0.0054         0.4808 
 1359.1972         8.7327       257.6750         0.0709         0.0801        66.2377        24.6199         5.8459         9.7032         5.5310         6.4138      1330.2180         2.5887        10.1169       -22.9264         0.1125         0.0166         0.0372         0.0054         0.4811 
 1359.3496         8.7163       265.8437         0.0675         0.0776        68.2206        24.8608         5.8426         9.7938         5.7497         6.9999      1367.6012         2.5946         9.6200       -22.9267         0.1266         0.0171         0.0336         0.0053         0.4808 
 1359.5020         8.6997       274.0124         0.0630         0.0831        71.0160        24.8460         5.8393         9.8843         5.9685         7.5859      1400.3115         2.6023         9.1230       -22.9271         0.1463         0.0171         0.0289         0.0052         0.4805 
