~VERSION INFORMATION
 VERS.                 2.0:   CWLS LOG ASCII STANDARD - VERSION 2.0
 WRAP.                  NO:   SINGLE LINE PER DEPTH STEP
~WELL INFORMATION
#MNEM.UNIT       DATA           DESCRIPTION MNEMONIC
#---------    -------------   --------------------------
 STRT.M         10.0000                      : START DEPTH
 STOP.M         1849.6204                     : STOP DEPTH
 STEP.M         0.1524                        : STEP VALUE
 NULL.          -999.0000                     : NULL VALUE
 SRVC.          PYPOZO                        : Service Company/Logging company
 DATE.          08/07/2025                    : LAS file Creation Date
 WELL    .      ABEDUL-1                       : Well Name
 COMP    .      PYPOZO 2.0                    : Company
 FLD     .      UNKNOWN                       : Field
 LOC     .      UNKNOWN                       : Location
 LATI    .      0                             : Latitude/Northing
 LONG    .      0                             : Longitude/Easting
 APDAT   .      0                             : Elevation Above Permanent Datum
~CURVE INFORMATION
#MNEM          UNIT     API CODE   Curve Type Comments
#---------- ---------- ----------  ---------- --------
 DEPTH     .M                    : Depth      
 CALI      .IN                         : CALI       
 CILD      .MM/M                       : CILD       
 DPHI      .V/V                        : DPHI       
 DRHO      .G/C3                       : DRHO       
 DT        .US/F                       : DT         
 GR        .GAPI                       : GR         
 ILD       .OHMM                       : ILD        
 MINV      .OHMM                       : MINV       
 MLL       .OHMM                       : MLL        
 MNOR      .OHMM                       : MNOR       
 NEUT      .NAPI                       : NEUT       
 RHOB      .G/C3                       : RHOB       
 SN        .OHMM                       : SN         
 SP        .MV                         : SP         
 SPHI      .V/V                        : SPHI       
 VCL_LARIONOV_TERTIARY.fraction                   : VCL_LARIONOV_TERTIARY 
 PHIE_RHOB_CLAY_CORR.fraction                   : PHIE_RHOB_CLAY_CORR 
 SW_ARCHIE_MOD.fraction                   : SW_ARCHIE_MOD 
 PERM_KC   .mD                         : PERM_KC    
~A Log data section
# ...
  800.0416        10.0800       856.5134         0.1700         0.1053       116.5496        33.3333         1.1675         1.4149      1009.0701         1.0792       633.9531         2.4341         1.6630       -20.1524         0.4681         0.0346         0.1308         0.0031         0.4909 
  800.1940        10.1040       856.5134         0.1700         0.1031       118.5118        33.6574         1.1675         1.4146      1009.0701         1.0835       625.9713         2.4258         1.6630       -20.1524         0.4819         0.0353         0.1359         0.0031         0.4915 
  800.3464        10.1133       862.9236         0.1700         0.1010       119.9941        33.9816         1.1591         1.4144      1009.0701         1.0877       617.9893         2.4204         1.6597       -20.4719         0.4924         0.0360         0.1392         0.0031         0.4920 
  800.4988        10.1111       869.3338         0.1663         0.1072       120.3654        34.3210         1.1507         1.4141      1009.0701         1.0920       610.0074         2.4182         1.6564       -20.7915         0.4949         0.0368         0.1405         0.0031         0.4922 
  800.6512        10.1228       875.7440         0.1649         0.1197       119.1193        34.8148         1.1423         1.4139      1009.0701         1.0963       601.3237         2.4272         1.6531       -21.1110         0.4860         0.0379         0.1350         0.0031         0.4914 
  800.8036        10.1623       882.1543         0.1566         0.1286       117.2292        35.0617         1.1338         1.4136      1009.0701         1.1006       601.3431         2.4421         1.6497       -21.4305         0.4727         0.0385         0.1260         0.0031         0.4902 
  800.9560        10.1921       888.5645         0.1568         0.1315       116.1403        35.4321         1.1254         1.4134      1009.0701         1.1048       601.3625         2.4418         1.6464       -21.7500         0.4651         0.0394         0.1262         0.0031         0.4903 
  801.1084        10.1947       888.5645         0.1683         0.1291       115.6148        35.6790         1.1254         1.4134      1009.0701         1.1048       599.8214         2.4222         1.6464       -21.7500         0.4614         0.0399         0.1381         0.0031         0.4918 
  801.2608        10.1858       886.4248         0.1716         0.1233       114.5840        35.8025         1.1282         1.4226      1009.0701         1.1151       596.7285         2.4165         1.6287       -21.6478         0.4540         0.0402         0.1415         0.0031         0.4923 
  801.4132        10.1743       884.2851         0.1636         0.1223       112.8403        35.8025         1.1309         1.4318      1009.0701         1.1253       595.1864         2.4303         1.6110       -21.5457         0.4417         0.0402         0.1332         0.0031         0.4912 
  801.5656        10.1599       882.1454         0.1550         0.1301       111.2228        35.8025         1.1337         1.4410      1009.0701         1.1355       598.7452         2.4450         1.5933       -21.4435         0.4303         0.0402         0.1242         0.0031         0.4900 
  801.7180        10.1357       880.0058         0.1474         0.1390       111.0221        35.6790         1.1364         1.4502      1009.0701         1.1457       615.7076         2.4579         1.5756       -21.3413         0.4290         0.0399         0.1164         0.0031         0.4890 
  801.8704        10.0999       877.8661         0.1489         0.1384       112.8752        35.5556         1.1392         1.4594      1009.0701         1.1560       657.2124         2.4554         1.5579       -21.2391         0.4422         0.0397         0.1179         0.0031         0.4892 
  802.0228        10.0805       875.7264         0.1573         0.1289       115.5961        35.3584         1.1420         1.4594      1009.0701         1.1560       682.1100         2.4411         1.5402       -21.1369         0.4614         0.0392         0.1266         0.0031         0.4903 
  802.1752        10.0041       875.7264         0.1655         0.1147       118.1668        35.3086         1.1420         1.2931      1009.0701         1.0949       690.2971         2.4271         1.5402       -21.1369         0.4795         0.0391         0.1351         0.0031         0.4914 
  802.3276         9.9383       871.3511         0.1723         0.0983       119.7909        35.3086         1.1478         1.1268      1009.0701         1.0338       686.5588         2.4153         1.5486       -21.1504         0.4909         0.0391         0.1422         0.0031         0.4924 
  802.4800         9.8556       866.9757         0.1782         0.0895       119.1471        35.3708         1.1537         0.9605      1009.0701         0.9728       673.9138         2.4053         1.5570       -21.1639         0.4862         0.0392         0.1483         0.0032         0.4933 
  802.6324         9.7642       862.6004         0.1788         0.0904       116.9549        35.6140         1.1595         0.7941      1009.0701         0.9117       662.6309         2.4043         1.5653       -21.1774         0.4707         0.0398         0.1489         0.0032         0.4933 
  802.7848         9.6708       858.2251         0.1720         0.0949       114.9050        35.8025         1.1653         0.6278      1009.0701         0.8506       657.3168         2.4159         1.5737       -21.1909         0.4563         0.0402         0.1419         0.0032         0.4923 
  802.9372         9.5765       853.8497         0.1642         0.0997       113.0753        35.9766         1.1712         0.4615      1009.0701         0.7896       654.5647         2.4292         1.5821       -21.2044         0.4433         0.0406         0.1338         0.0032         0.4912 
  803.0896         9.5774       853.8497         0.1637         0.1052       111.2513        36.0494         1.1712         0.4615      1009.0701         0.7896       654.5854         2.4301         1.5821       -21.2044         0.4305         0.0408         0.1333         0.0031         0.4912 
  803.2420         9.4364       865.9005         0.1724         0.1096       110.4631        36.0494         1.1560         0.3908      1009.0701         0.6732       656.3080         2.4153         1.5888       -21.2924         0.4250         0.0408         0.1422         0.0031         0.4924 
  803.3944         9.2767       877.9512         0.1820         0.1082       110.9921        36.0494         1.1407         0.3201      1009.0701         0.5569       661.0099         2.3988         1.5955       -21.3804         0.4288         0.0408         0.1522         0.0031         0.4938 
  803.5468         9.1302       890.0019         0.1830         0.1020       111.7455        36.0494         1.1255         0.2494      1009.0701         0.4406       673.3940         2.3970         1.6022       -21.4684         0.4341         0.0408         0.1533         0.0031         0.4940 
  803.6992         9.0248       902.0527         0.1702         0.0945       111.8635        36.0494         1.1103         0.1786      1009.0701         0.3242       687.3720         2.4190         1.6090       -21.5564         0.4348         0.0408         0.1400         0.0031         0.4921 
  803.8516         8.9381       914.1034         0.1594         0.0983       111.7516        35.8980         1.0950         0.1079      1009.0701         0.2079       695.1796         2.4373         1.6157       -21.6444         0.4341         0.0405         0.1289         0.0030         0.4906 
  804.0040         8.9655       926.1542         0.1684         0.1138       111.7788        35.6551         1.0798         0.1079      1009.0701         0.2079       698.3143         2.4220         1.6224       -21.7324         0.4343         0.0399         0.1382         0.0030         0.4918 
