~VERSION INFORMATION
 VERS.                 2.0:   CWLS LOG ASCII STANDARD - VERSION 2.0
 WRAP.                  NO:   SINGLE LINE PER DEPTH STEP
~WELL INFORMATION
#MNEM.UNIT       DATA           DESCRIPTION MNEMONIC
#---------    -------------   --------------------------
 STRT.M         10.0000                      : START DEPTH
 STOP.M         1849.6204                     : STOP DEPTH
 STEP.M         0.1524                        : STEP VALUE
 NULL.          -999.0000                     : NULL VALUE
 SRVC.          PYPOZO                        : Service Company/Logging company
 DATE.          08/07/2025                    : LAS file Creation Date
 WELL    .      ABEDUL-1                       : Well Name
 COMP    .      PYPOZO 2.0                    : Company
 FLD     .      UNKNOWN                       : Field
 LOC     .      UNKNOWN                       : Location
 LATI    .      0                             : Latitude/Northing
 LONG    .      0                             : Longitude/Easting
 APDAT   .      0                             : Elevation Above Permanent Datum
~CURVE INFORMATION
#MNEM          UNIT     API CODE   Curve Type Comments
#---------- ---------- ----------  ---------- --------
 DEPTH     .M                    : Depth      
 CALI      .IN                         : CALI       
 CILD      .MM/M                       : CILD       
 DPHI      .V/V                        : DPHI       
 DRHO      .G/C3                       : DRHO       
 DT        .US/F                       : DT         
 GR        .GAPI                       : GR         
 ILD       .OHMM                       : ILD        
 MINV      .OHMM                       : MINV       
 MLL       .OHMM                       : MLL        
 MNOR      .OHMM                       : MNOR       
 NEUT      .NAPI                       : NEUT       
 RHOB      .G/C3                       : RHOB       
 SN        .OHMM                       : SN         
 SP        .MV                         : SP         
 SPHI      .V/V                        : SPHI       
 VCL_LARIONOV_TERTIARY.fraction                   : VCL_LARIONOV_TERTIARY 
 PHIE_RHOB_CLAY_CORR.fraction                   : PHIE_RHOB_CLAY_CORR 
 SW_ARCHIE_MOD.fraction                   : SW_ARCHIE_MOD 
 PERM_KC   .mD                         : PERM_KC    
~A Log data section
# ...
 1631.2312         7.7375       255.3766         0.0200         0.0982        77.5581        21.1809         6.1206         7.2557        11.8380         6.6807      1479.4536         2.6759        11.2726       -19.8267         0.1922         0.0103         0.0000         0.0052         0.4775 
 1631.3836         7.7411       277.1433         0.0362         0.0923        74.0316        19.0713         5.7217         6.8549        11.3861         6.2676      1410.4183         2.6481        10.1291       -19.8005         0.1674         0.0067         0.0012         0.0051         0.4786 
 1631.5360         7.7554       298.9100         0.0518         0.1050        71.3568        18.6090         5.3227         6.4540        10.9341         5.8544      1372.5698         2.6214         8.9855       -19.7743         0.1485         0.0059         0.0173         0.0049         0.4796 
 1631.6884         7.7829       320.6766         0.0624         0.1062        68.4296        20.9033         4.9238         6.0531        10.4822         5.4412      1347.3711         2.6033         7.8420       -19.7481         0.1278         0.0099         0.0283         0.0048         0.4804 
 1631.8408         7.8461       342.4433         0.0618         0.1039        65.9071        24.0980         4.5248         5.6522        10.0302         5.0280      1327.1434         2.6043         6.6984       -19.7219         0.1100         0.0157         0.0277         0.0046         0.4804 
 1631.9932         7.9236       364.2100         0.0506         0.1114        65.1906        25.3546         4.1259         5.2514         9.5783         4.6149      1297.0750         2.6236         5.5549       -19.6957         0.1051         0.0180         0.0160         0.0045         0.4795 
 1632.1456         7.9516       364.2100         0.0476         0.0901        66.9501        25.6569         4.1259         5.2514         9.5783         4.6149      1355.1425         2.6286         5.5549       -19.6957         0.1176         0.0186         0.0130         0.0045         0.4793 
 1632.2980         7.9329       371.6233         0.0583         0.0491        69.7602        25.6277         3.9256         5.0348        17.1991         5.3159      1416.9934         2.6103         5.3092       -19.3736         0.1375         0.0186         0.0241         0.0044         0.4801 
 1632.4504         7.8769       379.0366         0.0650         0.0331        72.2461        25.5066         3.7253         4.8183        24.8199         6.0170      1483.9619         2.5989         5.0636       -19.0516         0.1550         0.0183         0.0310         0.0044         0.4806 
 1632.6028         7.8645       386.4500         0.0619         0.0450        74.0235        25.0904         3.5250         4.6017        32.4407         6.7181      1598.1184         2.6042         4.8180       -18.7295         0.1675         0.0175         0.0278         0.0044         0.4804 
 1632.7552         7.8747       393.8633         0.0551         0.0632        75.1577        23.7052         3.3247         4.3852        40.0615         7.4191      1738.2668         2.6158         4.5724       -18.4074         0.1755         0.0149         0.0207         0.0043         0.4799 
 1632.9076         7.8811       401.2766         0.0532         0.0798        76.6995        20.3683         3.1244         4.1686        47.6823         8.1202      1854.6514         2.6191         4.3267       -18.0854         0.1865         0.0089         0.0187         0.0043         0.4797 
 1633.0600         7.8774       408.6899         0.0567         0.0861        79.4500        19.5981         2.9241         4.1686        47.6823         8.1202      1787.5636         2.6130         4.0811       -17.7633         0.2060         0.0076         0.0224         0.0042         0.4800 
 1633.2124         7.8483       408.6899         0.0711         0.0974        82.0854        19.6257         2.9241         4.1684        40.5468         7.2650      1685.0348         2.5884         4.0811       -17.7633         0.2245         0.0076         0.0373         0.0043         0.4811 
 1633.3648         7.8352       402.5977         0.0835         0.1049        82.9064        20.1149         3.0336         4.1683        33.4112         6.4098      1583.2142         2.5672         4.1697       -17.9791         0.2302         0.0085         0.0502         0.0043         0.4822 
 1633.5172         7.8558       396.5055         0.0754         0.1068        82.1797        20.6220         3.1432         4.1681        26.2757         5.5546      1540.5978         2.5811         4.2582       -18.1948         0.2250         0.0094         0.0418         0.0044         0.4815 
 1633.6696         7.8879       390.4133         0.0654         0.1165        81.0181        21.6122         3.2528         4.1679        19.1402         4.6994      1502.7329         2.5982         4.3468       -18.4105         0.2168         0.0111         0.0314         0.0044         0.4807 
 1633.8220         7.9495       384.3211         0.0643         0.1150        79.0250        22.9472         3.3624         4.1678        12.0046         3.8442      1444.0613         2.6000         4.4354       -18.6262         0.2026         0.0135         0.0303         0.0044         0.4806 
 1633.9744         8.0086       378.2289         0.0711         0.0926        75.7706        23.5560         3.4720         4.1676         4.8691         2.9890      1381.4271         2.5884         4.5239       -18.8419         0.1796         0.0146         0.0373         0.0044         0.4811 
 1634.1268         8.0090       378.2289         0.0878         0.0619        72.7763        23.8022         3.4720         4.1676         4.8691         2.9890      1313.5914         2.5599         4.5239       -18.8419         0.1585         0.0151         0.0546         0.0045         0.4826 
 1634.2792         7.9571       385.2940         0.1029         0.0364        70.8720        23.6785         3.4009         5.3831         4.9499         3.0660      1325.7777         2.5340         4.3898       -18.8564         0.1451         0.0149         0.0703         0.0045         0.4840 
 1634.4316         7.9058       392.3591         0.0928         0.0380        68.9303        23.3076         3.3297         6.5985         5.0307         3.1430      1378.8061         2.5514         4.2556       -18.8710         0.1313         0.0142         0.0598         0.0044         0.4830 
 1634.5840         7.9024       399.4242         0.0802         0.0544        66.6135        22.8130         3.2586         7.8139         5.1116         3.2200      1434.0658         2.5728         4.1214       -18.8855         0.1150         0.0133         0.0468         0.0043         0.4819 
 1634.7364         7.9317       406.4893         0.0780         0.0573        67.2152        22.0711         3.1875         9.0294         5.1924         3.2970      1493.1654         2.5766         3.9872       -18.9000         0.1195         0.0119         0.0445         0.0043         0.4817 
 1634.8888         7.9955       413.5544         0.0802         0.0459        72.2785        20.3400         3.1164        10.2448         5.2732         3.3740      1527.4236         2.5729         3.8530       -18.9145         0.1554         0.0089         0.0467         0.0043         0.4819 
 1635.0412         8.0408       420.6195         0.0771         0.0478        76.0740        19.3508         3.0453        10.2448         5.2732         3.3740      1552.3361         2.5782         3.7188       -18.9290         0.1820         0.0072         0.0435         0.0042         0.4816 
 1635.1936         8.1073       420.6195         0.0653         0.0648        75.4086        18.6090         3.0453         9.7899         7.9812         3.8770      1566.3452         2.5983         3.7188       -18.9290         0.1771         0.0059         0.0313         0.0042         0.4807 
