~VERSION INFORMATION
 VERS.                 2.0:   CWLS LOG ASCII STANDARD - VERSION 2.0
 WRAP.                  NO:   SINGLE LINE PER DEPTH STEP
~WELL INFORMATION
#MNEM.UNIT       DATA           DESCRIPTION MNEMONIC
#---------    -------------   --------------------------
 STRT.M         10.0000                      : START DEPTH
 STOP.M         1849.6204                     : STOP DEPTH
 STEP.M         0.1524                        : STEP VALUE
 NULL.          -999.0000                     : NULL VALUE
 SRVC.          PYPOZO                        : Service Company/Logging company
 DATE.          08/07/2025                    : LAS file Creation Date
 WELL    .      ABEDUL-1                       : Well Name
 COMP    .      PYPOZO 2.0                    : Company
 FLD     .      UNKNOWN                       : Field
 LOC     .      UNKNOWN                       : Location
 LATI    .      0                             : Latitude/Northing
 LONG    .      0                             : Longitude/Easting
 APDAT   .      0                             : Elevation Above Permanent Datum
~CURVE INFORMATION
#MNEM          UNIT     API CODE   Curve Type Comments
#---------- ---------- ----------  ---------- --------
 DEPTH     .M                    : Depth      
 CALI      .IN                         : CALI       
 CILD      .MM/M                       : CILD       
 DPHI      .V/V                        : DPHI       
 DRHO      .G/C3                       : DRHO       
 DT        .US/F                       : DT         
 GR        .GAPI                       : GR         
 ILD       .OHMM                       : ILD        
 MINV      .OHMM                       : MINV       
 MLL       .OHMM                       : MLL        
 MNOR      .OHMM                       : MNOR       
 NEUT      .NAPI                       : NEUT       
 RHOB      .G/C3                       : RHOB       
 SN        .OHMM                       : SN         
 SP        .MV                         : SP         
 SPHI      .V/V                        : SPHI       
 VCL_LARIONOV_TERTIARY.fraction                   : VCL_LARIONOV_TERTIARY 
 PHIE_RHOB_CLAY_CORR.fraction                   : PHIE_RHOB_CLAY_CORR 
 SW_ARCHIE_MOD.fraction                   : SW_ARCHIE_MOD 
 PERM_KC   .mD                         : PERM_KC    
~A Log data section
# ...
  869.9932         9.1312       904.5221         0.1193         0.1212       102.1720        30.8642         1.1086         1.1966         1.7651         1.1511       718.7203         2.5059         2.1463       -21.8182         0.3664         0.0292         0.0873         0.0030         0.4857 
  870.1456         9.1570       904.5221         0.1240         0.1036       101.4996        31.2898         1.1086         1.1966         1.7651         1.1511       698.4070         2.4980         2.1463       -21.8182         0.3615         0.0301         0.0921         0.0030         0.4862 
  870.2980         9.1640       921.0564         0.1282         0.0966        99.6442        32.1772         1.0899         1.2077         1.7809         1.1451       687.6671         2.4907         2.0601       -21.9542         0.3485         0.0320         0.0965         0.0030         0.4867 
  870.4504         9.1577       937.5907         0.1334         0.1020        99.8180        33.3974         1.0712         1.2187         1.7967         1.1391       680.6624         2.4818         1.9738       -22.0901         0.3498         0.0347         0.1019         0.0029         0.4873 
  870.6028         9.1446       954.1250         0.1405         0.1119       101.3945        34.3411         1.0525         1.2298         1.8124         1.1332       681.2145         2.4698         1.8875       -22.2261         0.3610         0.0369         0.1092         0.0029         0.4882 
  870.7552         9.1208       970.6593         0.1440         0.1179       101.9703        35.0899         1.0338         1.2409         1.8282         1.1272       684.4531         2.4638         1.8012       -22.3621         0.3649         0.0386         0.1128         0.0029         0.4886 
  870.9076         9.0791       987.1936         0.1380         0.1161       100.4027        36.0710         1.0150         1.2520         1.8439         1.1212       689.1406         2.4740         1.7149       -22.4981         0.3538         0.0409         0.1067         0.0029         0.4879 
  871.0600         9.0211      1003.7279         0.1311         0.1088        99.7852        37.2898         0.9963         1.2520         1.8439         1.1212       698.6937         2.4858         1.6287       -22.6341         0.3496         0.0438         0.0995         0.0028         0.4871 
  871.2124         8.9559      1003.7279         0.1305         0.1048       101.5393        38.2716         0.9963         1.2321         1.7826         1.1113       732.5023         2.4868         1.6287       -22.6341         0.3620         0.0461         0.0989         0.0028         0.4870 
  871.3648         8.9388       982.8284         0.1343         0.1091       104.1833        39.0123         1.0195         1.2123         1.7213         1.1014       749.4501         2.4803         1.5917       -22.6505         0.3807         0.0480         0.1028         0.0029         0.4874 
  871.5172         8.9796       961.9288         0.1382         0.1167       107.0009        39.3827         1.0427         1.1925         1.6600         1.0914       750.9984         2.4736         1.5548       -22.6670         0.4006         0.0489         0.1069         0.0029         0.4879 
  871.6696         8.9903       941.0293         0.1422         0.1129       109.0418        39.3827         1.0658         1.1726         1.5987         1.0815       749.4308         2.4668         1.5178       -22.6835         0.4150         0.0489         0.1110         0.0030         0.4884 
  871.8220         8.9776       920.1298         0.1471         0.1006       109.0794        39.0123         1.0890         1.1528         1.5374         1.0716       746.3059         2.4585         1.4809       -22.6999         0.4151         0.0480         0.1161         0.0030         0.4890 
  871.9744         8.7851       899.2303         0.1519         0.0903       107.5039        38.5185         1.1121         1.1330         1.4761         1.0617       741.6233         2.4503         1.4439       -22.7164         0.4040         0.0468         0.1210         0.0030         0.4896 
  872.1268         8.7344       899.2303         0.1533         0.0917       105.3968        37.6543         1.1121         1.1330         1.4761         1.0617       733.8255         2.4479         1.4439       -22.7164         0.3891         0.0446         0.1225         0.0030         0.4898 
  872.2792         8.8192       883.3354         0.1502         0.1036       103.9477        37.0370         1.1341         1.1498         1.4784         1.0692       727.5853         2.4532         1.4668       -22.7039         0.3789         0.0432         0.1193         0.0031         0.4894 
  872.4316         8.9231       867.4405         0.1454         0.1170       104.0045        36.7901         1.1561         1.1666         1.4807         1.0767       713.5569         2.4613         1.4897       -22.6915         0.3794         0.0426         0.1144         0.0031         0.4888 
  872.5840         9.0394       851.5456         0.1397         0.1367       104.5654        36.5432         1.1781         1.1834         1.4830         1.0841       693.2980         2.4712         1.5126       -22.6790         0.3833         0.0420         0.1084         0.0031         0.4881 
  872.7364         9.0131       835.6507         0.1342         0.1641       104.4082        36.7901         1.2001         1.2002         1.4852         1.0916       652.7899         2.4806         1.5355       -22.6666         0.3822         0.0426         0.1027         0.0031         0.4874 
  872.8888         8.9533       819.7559         0.1301         0.1776       104.2115        36.9136         1.2220         1.2170         1.4875         1.0991       649.6668         2.4875         1.5584       -22.6541         0.3808         0.0429         0.0985         0.0031         0.4869 
  873.0412         8.8301       803.8610         0.1263         0.1733       104.9858        37.1605         1.2440         1.2170         1.4875         1.0991       654.7558         2.4940         1.5813       -22.6417         0.3863         0.0434         0.0945         0.0032         0.4865 
  873.1936         8.6644       803.8610         0.1216         0.1534       106.3598        37.4074         1.2440         1.2278         1.4872         1.0931       668.6342         2.5021         1.5813       -22.6417         0.3960         0.0440         0.0896         0.0032         0.4860 
  873.3460         8.5686       800.3620         0.1165         0.1304       108.1018        37.9012         1.2495         1.2387         1.4869         1.0870       699.3220         2.5107         1.6176       -22.4957         0.4084         0.0452         0.0844         0.0031         0.4854 
  873.4984         8.5673       796.8630         0.1121         0.1140       110.2517        38.3951         1.2551         1.2496         1.4866         1.0810       747.2225         2.5183         1.6538       -22.3497         0.4236         0.0464         0.0798         0.0031         0.4850 
  873.6508         8.6655       793.3639         0.1076         0.1158       111.5299        39.0123         1.2606         1.2605         1.4863         1.0750       771.2713         2.5260         1.6901       -22.2037         0.4325         0.0480         0.0752         0.0031         0.4845 
  873.8032         8.8029       789.8649         0.1076         0.1301       110.7714        39.4817         1.2661         1.2714         1.4860         1.0690       780.0856         2.5259         1.7263       -22.0577         0.4271         0.0491         0.0752         0.0031         0.4845 
  873.9556         8.9418       786.3659         0.1152         0.1319       108.5575        40.0906         1.2717         1.2823         1.4857         1.0629       786.1929         2.5130         1.7626       -21.9117         0.4114         0.0507         0.0830         0.0032         0.4853 
