~VERSION INFORMATION
 VERS.                 2.0:   CWLS LOG ASCII STANDARD - VERSION 2.0
 WRAP.                  NO:   SINGLE LINE PER DEPTH STEP
~WELL INFORMATION
#MNEM.UNIT       DATA           DESCRIPTION MNEMONIC
#---------    -------------   --------------------------
 STRT.M         10.0000                      : START DEPTH
 STOP.M         1849.6204                     : STOP DEPTH
 STEP.M         0.1524                        : STEP VALUE
 NULL.          -999.0000                     : NULL VALUE
 SRVC.          PYPOZO                        : Service Company/Logging company
 DATE.          08/07/2025                    : LAS file Creation Date
 WELL    .      ABEDUL-1                       : Well Name
 COMP    .      PYPOZO 2.0                    : Company
 FLD     .      UNKNOWN                       : Field
 LOC     .      UNKNOWN                       : Location
 LATI    .      0                             : Latitude/Northing
 LONG    .      0                             : Longitude/Easting
 APDAT   .      0                             : Elevation Above Permanent Datum
~CURVE INFORMATION
#MNEM          UNIT     API CODE   Curve Type Comments
#---------- ---------- ----------  ---------- --------
 DEPTH     .M                    : Depth      
 CALI      .IN                         : CALI       
 CILD      .MM/M                       : CILD       
 DPHI      .V/V                        : DPHI       
 DRHO      .G/C3                       : DRHO       
 DT        .US/F                       : DT         
 GR        .GAPI                       : GR         
 ILD       .OHMM                       : ILD        
 MINV      .OHMM                       : MINV       
 MLL       .OHMM                       : MLL        
 MNOR      .OHMM                       : MNOR       
 NEUT      .NAPI                       : NEUT       
 RHOB      .G/C3                       : RHOB       
 SN        .OHMM                       : SN         
 SP        .MV                         : SP         
 SPHI      .V/V                        : SPHI       
 VCL_LARIONOV_TERTIARY.fraction                   : VCL_LARIONOV_TERTIARY 
 PHIE_RHOB_CLAY_CORR.fraction                   : PHIE_RHOB_CLAY_CORR 
 SW_ARCHIE_MOD.fraction                   : SW_ARCHIE_MOD 
 PERM_KC   .mD                         : PERM_KC    
~A Log data section
# ...
 1075.7332        11.3048       394.2015         0.1331         0.1822        88.7054        31.1179         3.0396         2.6690         3.0740         2.3736       998.3166         2.4824         4.0081       -19.5797         0.2713         0.0297         0.1016         0.0045         0.4873 
 1075.8856        11.3202       389.5521         0.1351         0.1862        90.2165        31.0608         3.0688         2.6994         3.0717         2.3875       991.4166         2.4790         4.0754       -19.5621         0.2820         0.0296         0.1036         0.0046         0.4875 
 1076.0380        11.3542       384.9027         0.1286         0.2012        91.7145        30.5244         3.0981         2.6994         3.0717         2.3875       981.6360         2.4901         4.1428       -19.5445         0.2925         0.0285         0.0969         0.0046         0.4868 
 1076.1904        11.4089       384.9027         0.1205         0.2092        92.7693        28.1536         3.0981         2.6873         3.0767         2.3686       969.3863         2.5040         4.1428       -19.5445         0.3000         0.0236         0.0885         0.0046         0.4859 
 1076.3428        11.4306       385.1431         0.1126         0.2040        92.9492        27.1732         3.0965         2.6753         3.0818         2.3497       957.2623         2.5175         4.1298       -19.6052         0.3012         0.0216         0.0803         0.0045         0.4850 
 1076.4952        11.4312       385.3836         0.1070         0.1961        92.3709        27.8342         3.0949         2.6633         3.0868         2.3308       949.7079         2.5271         4.1168       -19.6660         0.2971         0.0229         0.0745         0.0045         0.4844 
 1076.6476        11.4004       385.6241         0.1051         0.1894        91.5385        28.4314         3.0933         2.6512         3.0919         2.3119       945.1264         2.5302         4.1038       -19.7267         0.2912         0.0241         0.0726         0.0045         0.4842 
 1076.8000        11.2826       385.8646         0.1046         0.1857        91.2944        28.7956         3.0916         2.6392         3.0969         2.2930       942.0387         2.5311         4.0909       -19.7875         0.2895         0.0249         0.0721         0.0045         0.4842 
 1076.9524        11.2491       386.1051         0.1048         0.1869        92.5799        29.2807         3.0900         2.6272         3.1020         2.2741       937.3368         2.5308         4.0779       -19.8482         0.2987         0.0259         0.0722         0.0045         0.4842 
 1077.1048        11.2730       386.1051         0.1057         0.1925        94.8561        29.6500         3.0900         2.6272         3.1020         2.2741       932.6348         2.5293         4.0779       -19.8482         0.3148         0.0266         0.0732         0.0045         0.4843 
 1077.2572        11.3143       391.8777         0.1069         0.2036        96.3987        29.8985         3.0545         2.6265         3.0570         2.2717       923.2600         2.5273         4.0049       -19.7810         0.3256         0.0272         0.0744         0.0045         0.4844 
 1077.4096        11.3092       397.6504         0.1084         0.2241        96.4824        30.0234         3.0190         2.6258         3.0121         2.2693       910.7700         2.5247         3.9318       -19.7138         0.3261         0.0274         0.0759         0.0044         0.4846 
 1077.5620        11.3635       403.4231         0.1103         0.2435        95.8424        30.1484         2.9835         2.6252         2.9671         2.2669       898.2798         2.5213         3.8588       -19.6467         0.3216         0.0277         0.0780         0.0044         0.4848 
 1077.7144        11.4258       409.1958         0.1097         0.2207        95.2081        29.9030         2.9479         2.6245         2.9222         2.2645       907.5966         2.5224         3.7858       -19.5795         0.3171         0.0272         0.0773         0.0044         0.4847 
 1077.8668        11.4787       414.9685         0.1302         0.1824        94.9671        29.6577         2.9124         2.6238         2.8772         2.2621       927.8168         2.4873         3.7128       -19.5123         0.3155         0.0267         0.0986         0.0044         0.4870 
 1078.0192        11.5208       420.7412         0.1527         0.1629        96.4609        29.5357         2.8769         2.6238         2.8772         2.2621       941.8065         2.4488         3.6398       -19.4451         0.3262         0.0264         0.1219         0.0045         0.4897 
 1078.1716        11.5073       420.7412         0.1509         0.1524        99.3333        29.2903         2.8769         2.5950         2.8380         2.2342       941.7775         2.4520         3.6398       -19.4451         0.3464         0.0259         0.1200         0.0044         0.4895 
 1078.3240        11.4560       424.9195         0.1427         0.1431       100.8247        28.9215         2.8544         2.5662         2.7988         2.2064       937.0756         2.4660         3.5816       -19.3520         0.3569         0.0251         0.1115         0.0044         0.4884 
 1078.4764        11.4117       429.0979         0.1341         0.1427       100.4181        28.4292         2.8319         2.5374         2.7596         2.1785       928.8069         2.4806         3.5234       -19.2589         0.3539         0.0241         0.1027         0.0044         0.4874 
 1078.6288        11.3724       433.2762         0.1256         0.1543        99.0808        27.9369         2.8093         2.5086         2.7204         2.1506       913.2175         2.4953         3.4652       -19.1659         0.3444         0.0231         0.0938         0.0043         0.4864 
 1078.7812        11.3412       437.4545         0.1170         0.1726        97.4096        27.4446         2.7868         2.4799         2.6812         2.1227       874.7104         2.5100         3.4070       -19.0728         0.3326         0.0221         0.0848         0.0043         0.4855 
 1078.9336        11.3150       441.6328         0.1125         0.1910        95.9974        27.3224         2.7643         2.4511         2.6420         2.0949       854.4127         2.5177         3.3489       -18.9797         0.3227         0.0219         0.0802         0.0042         0.4850 
 1079.0860        11.2929       441.6328         0.1144         0.1980        95.1208        27.2005         2.7643         2.4511         2.6420         2.0949       868.3668         2.5144         3.3489       -18.9797         0.3165         0.0216         0.0822         0.0042         0.4852 
 1079.2384        11.2711       439.8876         0.1170         0.1942        94.7339        27.2019         2.7735         2.3533         2.6216         2.0246       886.0182         2.5100         3.3792       -18.9867         0.3138         0.0217         0.0848         0.0042         0.4855 
 1079.3908        11.2414       438.1424         0.1206         0.1872        94.9118        27.2034         2.7827         2.2556         2.6011         1.9543       894.8308         2.5037         3.4095       -18.9936         0.3151         0.0217         0.0887         0.0043         0.4859 
 1079.5432        11.1926       436.3972         0.1220         0.1799        95.8673        27.2049         2.7918         2.1579         2.5807         1.8840       874.4998         2.5015         3.4399       -19.0005         0.3219         0.0217         0.0900         0.0043         0.4860 
 1079.6956        11.1486       434.6520         0.1207         0.1701        96.9567        27.2065         2.8010         2.0601         2.5603         1.8137       834.3928         2.5036         3.4702       -19.0075         0.3296         0.0217         0.0887         0.0043         0.4859 
