~VERSION INFORMATION
 VERS.                 2.0:   CWLS LOG ASCII STANDARD - VERSION 2.0
 WRAP.                  NO:   SINGLE LINE PER DEPTH STEP
~WELL INFORMATION
#MNEM.UNIT       DATA           DESCRIPTION MNEMONIC
#---------    -------------   --------------------------
 STRT.M         10.0000                      : START DEPTH
 STOP.M         1849.6204                     : STOP DEPTH
 STEP.M         0.1524                        : STEP VALUE
 NULL.          -999.0000                     : NULL VALUE
 SRVC.          PYPOZO                        : Service Company/Logging company
 DATE.          08/07/2025                    : LAS file Creation Date
 WELL    .      ABEDUL-1                       : Well Name
 COMP    .      PYPOZO 2.0                    : Company
 FLD     .      UNKNOWN                       : Field
 LOC     .      UNKNOWN                       : Location
 LATI    .      0                             : Latitude/Northing
 LONG    .      0                             : Longitude/Easting
 APDAT   .      0                             : Elevation Above Permanent Datum
~CURVE INFORMATION
#MNEM          UNIT     API CODE   Curve Type Comments
#---------- ---------- ----------  ---------- --------
 DEPTH     .M                    : Depth      
 CALI      .IN                         : CALI       
 CILD      .MM/M                       : CILD       
 DPHI      .V/V                        : DPHI       
 DRHO      .G/C3                       : DRHO       
 DT        .US/F                       : DT         
 GR        .GAPI                       : GR         
 ILD       .OHMM                       : ILD        
 MINV      .OHMM                       : MINV       
 MLL       .OHMM                       : MLL        
 MNOR      .OHMM                       : MNOR       
 NEUT      .NAPI                       : NEUT       
 RHOB      .G/C3                       : RHOB       
 SN        .OHMM                       : SN         
 SP        .MV                         : SP         
 SPHI      .V/V                        : SPHI       
 VCL_LARIONOV_TERTIARY.fraction                   : VCL_LARIONOV_TERTIARY 
 PHIE_RHOB_CLAY_CORR.fraction                   : PHIE_RHOB_CLAY_CORR 
 SW_ARCHIE_MOD.fraction                   : SW_ARCHIE_MOD 
 PERM_KC   .mD                         : PERM_KC    
~A Log data section
# ...
 1495.4428         8.4221       285.1225         0.0514         0.0456        73.9063        27.9278         5.4651         3.2480         5.3942         2.8222      1156.9980         2.6221         8.2641       -18.8968         0.1667         0.0231         0.0169         0.0051         0.4796 
 1495.5952         8.3485       283.5013         0.0569         0.0542        75.8542        27.8026         5.5000         3.1438         5.3363         2.8448      1203.3235         2.6127         8.3375       -18.9609         0.1805         0.0229         0.0226         0.0051         0.4800 
 1495.7476         8.3217       281.8801         0.0557         0.0729        78.7256        27.8011         5.5349         3.0397         5.2784         2.8675      1291.5915         2.6148         8.4109       -19.0250         0.2008         0.0229         0.0213         0.0051         0.4799 
 1495.9000         8.3310       280.2589         0.0373         0.0820        81.0819        28.1705         5.5698         2.9355         5.2205         2.8901      1316.1993         2.6462         8.4844       -19.0891         0.2174         0.0236         0.0023         0.0050         0.4786 
 1496.0524         8.3474       278.6377         0.0208         0.0774        82.6394        29.1582         5.6047         2.9355         5.2205         2.8901      1317.8619         2.6744         8.5578       -19.1531         0.2284         0.0256         0.0000         0.0050         0.4776 
 1496.2048         8.4105       278.6377         0.0287         0.0671        83.0069        30.3931         5.6047         3.1543         5.6810         2.9618      1299.0654         2.6610         8.5578       -19.1531         0.2309         0.0282         0.0000         0.0050         0.4781 
 1496.3572         8.4649       285.3665         0.0387         0.0568        81.9380        31.1752         5.5039         3.3731         6.1414         3.0335      1269.4705         2.6437         8.3789       -19.0393         0.2233         0.0299         0.0038         0.0050         0.4787 
 1496.5096         8.4915       292.0953         0.0462         0.0530        79.8906        31.1035         5.4031         3.5919         6.6018         3.1052      1211.8380         2.6311         8.2000       -18.9255         0.2088         0.0297         0.0115         0.0050         0.4792 
 1496.6620         8.5010       298.8241         0.0466         0.0548        77.3322        29.7047         5.3023         3.8107         7.0623         3.1770      1179.1277         2.6303         8.0211       -18.8116         0.1907         0.0267         0.0119         0.0049         0.4793 
 1496.8144         8.4994       305.5529         0.0426         0.0520        75.0910        29.4591         5.2015         4.0294         7.5227         3.2487      1193.1464         2.6372         7.8422       -18.6978         0.1749         0.0262         0.0078         0.0049         0.4790 
 1496.9668         8.4566       312.2818         0.0404         0.0447        73.8034        29.0895         5.1007         4.2482         7.9831         3.3204      1205.6074         2.6410         7.6633       -18.5839         0.1659         0.0255         0.0055         0.0048         0.4788 
 1497.1192         8.3862       312.2818         0.0416         0.0387        73.6417        28.7871         5.1007         4.2482         7.9831         3.3204      1216.5109         2.6388         7.6633       -18.5839         0.1648         0.0249         0.0068         0.0048         0.4789 
 1497.2716         8.3228       314.7946         0.0445         0.0378        74.4689        28.2972         4.9688         4.2330         7.8571         3.2199      1224.2991         2.6339         7.4744       -18.5278         0.1706         0.0239         0.0098         0.0048         0.4791 
 1497.4240         8.2844       317.3074         0.0472         0.0414        75.7211        27.3574         4.8368         4.2178         7.7311         3.1193      1218.0685         2.6294         7.2856       -18.4717         0.1795         0.0220         0.0125         0.0048         0.4793 
 1497.5764         8.2695       319.8203         0.0477         0.0467        76.8537        25.4724         4.7049         4.2026         7.6051         3.0188      1202.4922         2.6284         7.0967       -18.4156         0.1875         0.0183         0.0131         0.0048         0.4793 
 1497.7288         8.2740       322.3331         0.0448         0.0470        77.2984        24.3199         4.5729         4.1874         7.4791         2.9182      1208.7228         2.6334         6.9078       -18.3595         0.1906         0.0161         0.0101         0.0047         0.4791 
 1497.8812         8.3076       324.8459         0.0395         0.0402        76.9029        25.5962         4.4410         4.1722         7.3531         2.8177      1224.2991         2.6425         6.7189       -18.3034         0.1878         0.0185         0.0045         0.0047         0.4788 
 1498.0336         8.3376       327.3588         0.0391         0.0323        76.1438        26.4098         4.3091         4.1722         7.3531         2.8177      1239.8754         2.6431         6.5300       -18.2473         0.1824         0.0201         0.0042         0.0047         0.4788 
 1498.1860         8.3561       327.3588         0.0477         0.0269        75.2020        27.0174         4.3091         4.6365         7.9212         3.1316      1253.8940         2.6284         6.5300       -18.2473         0.1757         0.0213         0.0131         0.0047         0.4793 
 1498.3384         8.3606       329.8328         0.0588         0.0251        74.0910        27.7165         4.3058         5.1009         8.4892         3.4455      1254.8691         2.6094         6.4475       -18.2299         0.1679         0.0227         0.0246         0.0047         0.4802 
 1498.4908         8.3462       332.3068         0.0691         0.0290        73.0952        28.1743         4.3025         5.5652         9.0572         3.7594      1235.0267         2.5919         6.3649       -18.2125         0.1608         0.0236         0.0352         0.0047         0.4810 
 1498.6432         8.3240       334.7809         0.0685         0.0368        72.7683        28.5406         4.2992         6.0295         9.6253         4.0733      1222.0303         2.5929         6.2824       -18.1951         0.1586         0.0243         0.0346         0.0047         0.4809 
 1498.7956         8.3126       337.2549         0.0548         0.0483        73.5632        28.6369         4.2959         6.4939        10.1933         4.3872      1232.2043         2.6162         6.1998       -18.1777         0.1643         0.0245         0.0205         0.0047         0.4799 
 1498.9480         8.3132       339.7289         0.0394         0.0644        75.0174        28.3482         4.2927         6.9582        10.7613         4.7011      1242.9543         2.6426         6.1173       -18.1603         0.1745         0.0240         0.0045         0.0046         0.4788 
 1499.1004         8.3266       339.7289         0.0320         0.0714        76.3549        27.9650         4.2927         6.9582        10.7613         4.7011      1255.2500         2.6553         6.1173       -18.1603         0.1840         0.0232         0.0000         0.0046         0.4783 
 1499.2528         8.3576       343.1518         0.0371         0.0647        77.4211        27.2182         4.2419         6.2538         9.8252         4.4028      1265.3133         2.6465         6.0408       -18.2245         0.1915         0.0217         0.0021         0.0046         0.4786 
 1499.4052         8.4067       346.5748         0.0432         0.0551        78.3128        26.1149         4.1911         5.5493         8.8891         4.1045      1268.8179         2.6361         5.9643       -18.2887         0.1978         0.0195         0.0084         0.0046         0.4790 
