~VERSION INFORMATION
 VERS.                 2.0:   CWLS LOG ASCII STANDARD - VERSION 2.0
 WRAP.                  NO:   SINGLE LINE PER DEPTH STEP
~WELL INFORMATION
#MNEM.UNIT       DATA           DESCRIPTION MNEMONIC
#---------    -------------   --------------------------
 STRT.M         10.0000                      : START DEPTH
 STOP.M         1849.6204                     : STOP DEPTH
 STEP.M         0.1524                        : STEP VALUE
 NULL.          -999.0000                     : NULL VALUE
 SRVC.          PYPOZO                        : Service Company/Logging company
 DATE.          08/07/2025                    : LAS file Creation Date
 WELL    .      ABEDUL-1                       : Well Name
 COMP    .      PYPOZO 2.0                    : Company
 FLD     .      UNKNOWN                       : Field
 LOC     .      UNKNOWN                       : Location
 LATI    .      0                             : Latitude/Northing
 LONG    .      0                             : Longitude/Easting
 APDAT   .      0                             : Elevation Above Permanent Datum
~CURVE INFORMATION
#MNEM          UNIT     API CODE   Curve Type Comments
#---------- ---------- ----------  ---------- --------
 DEPTH     .M                    : Depth      
 CALI      .IN                         : CALI       
 CILD      .MM/M                       : CILD       
 DPHI      .V/V                        : DPHI       
 DRHO      .G/C3                       : DRHO       
 DT        .US/F                       : DT         
 GR        .GAPI                       : GR         
 ILD       .OHMM                       : ILD        
 MINV      .OHMM                       : MINV       
 MLL       .OHMM                       : MLL        
 MNOR      .OHMM                       : MNOR       
 NEUT      .NAPI                       : NEUT       
 RHOB      .G/C3                       : RHOB       
 SN        .OHMM                       : SN         
 SP        .MV                         : SP         
 SPHI      .V/V                        : SPHI       
 VCL_LARIONOV_TERTIARY.fraction                   : VCL_LARIONOV_TERTIARY 
 PHIE_RHOB_CLAY_CORR.fraction                   : PHIE_RHOB_CLAY_CORR 
 SW_ARCHIE_MOD.fraction                   : SW_ARCHIE_MOD 
 PERM_KC   .mD                         : PERM_KC    
~A Log data section
# ...
 1009.8964        10.8781       410.9032         0.0632         0.1454        96.0362        33.2585         2.9363         1.9315         2.5719         1.8502       863.2567         2.6020         3.7707       -21.2084         0.3229         0.0344         0.0291         0.0042         0.4805 
 1010.0488        10.8756       404.7190         0.0683         0.1374        93.4004        33.2593         2.9709         1.9315         2.5719         1.8502       883.4865         2.5933         3.8390       -21.2907         0.3042         0.0344         0.0344         0.0043         0.4809 
 1010.2012        10.9321       404.7190         0.0706         0.1275        90.8587        33.2600         2.9709         1.9689         2.5708         1.8801       920.8503         2.5892         3.8390       -21.2907         0.2863         0.0344         0.0368         0.0043         0.4811 
 1010.3536        10.9923       406.1268         0.0738         0.1203        90.1033        32.8904         2.9624         2.0063         2.5698         1.9100       947.3106         2.5838         3.8249       -21.3707         0.2811         0.0336         0.0401         0.0043         0.4814 
 1010.5060        11.0389       407.5345         0.0786         0.1244        90.6454        31.5332         2.9540         2.0437         2.5688         1.9400       967.5405         2.5755         3.8109       -21.4507         0.2849         0.0306         0.0452         0.0043         0.4818 
 1010.6584        11.0449       408.9423         0.0796         0.1377        91.3816        31.9043         2.9455         2.0812         2.5678         1.9699       961.2905         2.5739         3.7969       -21.5308         0.2901         0.0314         0.0461         0.0043         0.4819 
 1010.8108        11.0462       410.3500         0.0751         0.1509        91.9880        32.3989         2.9371         2.1186         2.5668         1.9998       939.4642         2.5816         3.7828       -21.6108         0.2944         0.0325         0.0415         0.0043         0.4815 
 1010.9632        11.0559       411.7578         0.0709         0.1545        92.4003        32.6466         2.9286         2.1560         2.5657         2.0297       926.5681         2.5887         3.7688       -21.6909         0.2973         0.0331         0.0372         0.0043         0.4811 
 1011.1156        11.1273       411.7578         0.0740         0.1470        92.6289        32.6474         2.9286         2.1560         2.5657         2.0297       919.2529         2.5835         3.7688       -21.6909         0.2989         0.0331         0.0403         0.0043         0.4814 
 1011.2680        11.2040       412.9062         0.0777         0.1380        92.3652        32.6481         2.9220         2.2539         2.6415         2.0940       933.0604         2.5770         3.7529       -21.6268         0.2970         0.0331         0.0442         0.0043         0.4817 
 1011.4204        11.0211       414.0546         0.0815         0.1382        91.3947        32.5253         2.9153         2.3517         2.7172         2.1583       945.7086         2.5706         3.7369       -21.5627         0.2901         0.0328         0.0481         0.0043         0.4820 
 1011.5728        10.9918       415.2030         0.0751         0.1461        90.0034        32.0324         2.9087         2.4496         2.7929         2.2226       980.0635         2.5816         3.7210       -21.4986         0.2803         0.0317         0.0415         0.0043         0.4815 
 1011.7252        10.9814       416.3514         0.0676         0.1554        88.0961        31.5393         2.9020         2.5474         2.8686         2.2869      1007.0381         2.5944         3.7050       -21.4345         0.2668         0.0306         0.0337         0.0042         0.4809 
 1011.8776        10.9710       417.4998         0.0601         0.1619        86.2299        30.7473         2.8953         2.6453         2.9443         2.3512      1023.8091         2.6072         3.6891       -21.3704         0.2536         0.0289         0.0259         0.0042         0.4803 
 1012.0300        10.9677       418.6482         0.0538         0.1618        86.3521        29.7072         2.8887         2.6453         2.9443         2.3512      1037.1250         2.6180         3.6731       -21.3063         0.2547         0.0268         0.0194         0.0042         0.4798 
 1012.1824        11.0027       418.6482         0.0583         0.1569        88.4510        29.4514         2.8887         2.5793         2.9091         2.3118      1044.0028         2.6104         3.6731       -21.3063         0.2695         0.0262         0.0240         0.0042         0.4801 
 1012.3348        10.9542       436.0634         0.0622         0.1506        90.7187        29.9373         2.8064         2.5133         2.8739         2.2723      1047.0310         2.6036         3.5210       -21.2286         0.2855         0.0272         0.0281         0.0041         0.4804 
 1012.4872        10.9703       453.4785         0.0663         0.1484        92.3111        30.2997         2.7242         2.4473         2.8387         2.2329      1042.9899         2.5967         3.3690       -21.1508         0.2967         0.0280         0.0323         0.0040         0.4807 
 1012.6396        11.0160       470.8937         0.0651         0.1524        92.4457        30.7155         2.6419         2.3813         2.8035         2.1935      1030.7106         2.5987         3.2169       -21.0731         0.2976         0.0289         0.0311         0.0040         0.4807 
 1012.7920        11.0083       488.3088         0.0613         0.1591        90.7701        31.0994         2.5597         2.3153         2.7683         2.1540       991.4209         2.6051         3.0648       -20.9954         0.2857         0.0297         0.0272         0.0039         0.4804 
 1012.9444        10.9201       505.7239         0.0631         0.1661        89.4081        31.4662         2.4774         2.2493         2.7331         2.1146       965.6179         2.6022         2.9127       -20.9177         0.2762         0.0305         0.0290         0.0038         0.4805 
 1013.0968        10.9589       505.7239         0.0664         0.1708        90.0791        31.5861         2.4774         2.2493         2.7331         2.1146       945.4133         2.5965         2.9127       -20.9177         0.2810         0.0307         0.0324         0.0038         0.4808 
 1013.2492        11.0332       506.6181         0.0691         0.1660        91.5767        31.8294         2.4740         2.1964         2.6596         2.0482       915.4476         2.5919         2.9382       -20.8765         0.2916         0.0313         0.0352         0.0038         0.4810 
 1013.4016        11.0527       507.5123         0.0714         0.1562        92.5809        31.9178         2.4705         2.1435         2.5860         1.9818       891.5785         2.5879         2.9637       -20.8354         0.2986         0.0315         0.0376         0.0038         0.4812 
 1013.5540        11.0142       508.4065         0.0735         0.1495        93.1634        32.0421         2.4670         2.0906         2.5125         1.9155       879.0886         2.5844         2.9892       -20.7942         0.3027         0.0317         0.0398         0.0038         0.4813 
 1013.7064        10.9671       509.3007         0.0760         0.1461        93.7767        32.0428         2.4635         2.0377         2.4390         1.8491       872.5873         2.5800         3.0147       -20.7531         0.3071         0.0317         0.0424         0.0038         0.4816 
 1013.8588        10.9529       510.1949         0.0796         0.1440        94.7240        32.0251         2.4601         1.9848         2.3655         1.7827       871.0820         2.5739         3.0401       -20.7120         0.3138         0.0317         0.0461         0.0038         0.4819 
