~VERSION INFORMATION
 VERS.                 2.0:   CWLS LOG ASCII STANDARD - VERSION 2.0
 WRAP.                  NO:   SINGLE LINE PER DEPTH STEP
~WELL INFORMATION
#MNEM.UNIT       DATA           DESCRIPTION MNEMONIC
#---------    -------------   --------------------------
 STRT.M         10.0000                      : START DEPTH
 STOP.M         1849.6204                     : STOP DEPTH
 STEP.M         0.1524                        : STEP VALUE
 NULL.          -999.0000                     : NULL VALUE
 SRVC.          PYPOZO                        : Service Company/Logging company
 DATE.          08/07/2025                    : LAS file Creation Date
 WELL    .      ABEDUL-1                       : Well Name
 COMP    .      PYPOZO 2.0                    : Company
 FLD     .      UNKNOWN                       : Field
 LOC     .      UNKNOWN                       : Location
 LATI    .      0                             : Latitude/Northing
 LONG    .      0                             : Longitude/Easting
 APDAT   .      0                             : Elevation Above Permanent Datum
~CURVE INFORMATION
#MNEM          UNIT     API CODE   Curve Type Comments
#---------- ---------- ----------  ---------- --------
 DEPTH     .M                    : Depth      
 CALI      .IN                         : CALI       
 CILD      .MM/M                       : CILD       
 DPHI      .V/V                        : DPHI       
 DRHO      .G/C3                       : DRHO       
 DT        .US/F                       : DT         
 GR        .GAPI                       : GR         
 ILD       .OHMM                       : ILD        
 MINV      .OHMM                       : MINV       
 MLL       .OHMM                       : MLL        
 MNOR      .OHMM                       : MNOR       
 NEUT      .NAPI                       : NEUT       
 RHOB      .G/C3                       : RHOB       
 SN        .OHMM                       : SN         
 SP        .MV                         : SP         
 SPHI      .V/V                        : SPHI       
 VCL_LARIONOV_TERTIARY.fraction                   : VCL_LARIONOV_TERTIARY 
 PHIE_RHOB_CLAY_CORR.fraction                   : PHIE_RHOB_CLAY_CORR 
 SW_ARCHIE_MOD.fraction                   : SW_ARCHIE_MOD 
 PERM_KC   .mD                         : PERM_KC    
~A Log data section
# ...
 1841.0860         9.2775       300.0514         0.3159         0.2321        85.3807        28.8094         5.2253         1.7004         2.1570         1.8861       789.5350         2.1699         6.2995       -15.3256         0.2477         0.0249         0.2910         0.0059         0.5225 
 1841.2384         9.0077       300.0514         0.3449         0.2212        86.2515        30.5434         5.2253         1.6798         2.1994         1.8638       808.8237         2.1202         6.2995       -15.3256         0.2539         0.0285         0.3211         0.0061         0.5317 
 1841.3908         8.9767       300.0514         0.3833         0.2121        86.9691        31.7463         5.2253         1.6592         2.2417         1.8414       849.1044         2.0546         6.2995       -15.3256         0.2589         0.0311         0.3608         0.0063         0.5459 
 1841.5432         9.1017       300.0514         0.3568         0.2043        86.6159        32.4666         5.2253         1.6386         2.2841         1.8191       876.6751         2.0999         6.2995       -15.3256         0.2564         0.0327         0.3334         0.0061         0.5358 
 1841.6956         8.9731       300.0514         0.3243         0.1986        86.6530        32.6435         5.2253         1.6180         2.3264         1.7967       895.3618         2.1555         6.2995       -15.3256         0.2567         0.0330         0.2997         0.0060         0.5251 
 1841.8480         8.6814      -999.0000         0.2918         0.2024        87.5617        32.7027      -999.0000         1.5974         2.3687         1.7744       900.2025         2.2111      -999.0000      -999.0000         0.2632         0.0332         0.2660      -999.0000         0.5159 
 1842.0004         8.6040      -999.0000         0.2592         0.2158        88.7581        32.5768      -999.0000         1.5974         2.3687         1.7744       892.3311         2.2667      -999.0000      -999.0000         0.2716         0.0329         0.2323      -999.0000         0.5081 
 1842.1528         8.5886      -999.0000         0.2412         0.2310        89.7117        32.5745      -999.0000         2.4264         2.9976         2.2980       883.0457         2.2976      -999.0000      -999.0000         0.2783         0.0329         0.2136      -999.0000         0.5042 
 1842.3052         8.6354      -999.0000         0.2640         0.2441        89.7469        32.5723      -999.0000         3.2554         3.6265         2.8217       876.8683         2.2585      -999.0000      -999.0000         0.2785         0.0329         0.2373      -999.0000         0.5092 
 1842.4576         8.5739      -999.0000         0.2945         0.2158        88.8614        32.4464      -999.0000         4.0843         4.2553         3.3454       895.5550         2.2064      -999.0000      -999.0000         0.2723         0.0326         0.2688      -999.0000         0.5166 
 1842.6100         8.1270      -999.0000         0.2903         0.1892        87.7325        32.3205      -999.0000         4.9133         4.8842         3.8691       920.4576         2.2136      -999.0000      -999.0000         0.2643         0.0323         0.2645      -999.0000         0.5155 
 1842.7624         7.8120      -999.0000         0.3040         0.2112        85.9194        32.1539      -999.0000         5.7423         5.5130         4.3927       957.7924         2.1901      -999.0000      -999.0000         0.2514         0.0320         0.2787      -999.0000         0.5192 
 1842.9148         8.0132      -999.0000         0.3346         0.2363        82.6866        31.9075      -999.0000         6.5713         6.1419         4.9164       996.6810         2.1379      -999.0000      -999.0000         0.2285         0.0314         0.3104      -999.0000         0.5283 
 1843.0672         8.2586      -999.0000         0.3664         0.2352        78.7973        31.4000      -999.0000         6.5713         6.1419         4.9164       997.6666         2.0834      -999.0000      -999.0000         0.2010         0.0303         0.3434      -999.0000         0.5393 
 1843.2196         8.5162      -999.0000         0.3596         0.2201        75.0966        29.2183      -999.0000         6.1817         6.0943         4.7381       983.7958         2.0951      -999.0000      -999.0000         0.1749         0.0257         0.3363      -999.0000         0.5368 
 1843.3720         8.6341      -999.0000         0.3061         0.2052        72.2187        28.7236      -999.0000         5.7920         6.0467         4.5598       965.5394         2.1866      -999.0000      -999.0000         0.1546         0.0247         0.2808      -999.0000         0.5198 
 1843.5244         8.5548      -999.0000         0.2485         0.2022        71.4259        29.4405      -999.0000         5.4024         5.9991         4.3815       957.1655         2.2850      -999.0000      -999.0000         0.1491         0.0262         0.2212      -999.0000         0.5058 
 1843.6768         8.2672      -999.0000         0.1910         0.1453        73.1119        30.3930      -999.0000         5.0128         5.9515         4.2032       970.5636         2.3834      -999.0000      -999.0000         0.1611         0.0282         0.1616      -999.0000         0.4952 
 1843.8292         8.1126      -999.0000         0.1335         0.1375        75.7272        31.1607      -999.0000         4.6231         5.9039         4.0249      1046.3334         2.4818      -999.0000      -999.0000         0.1796         0.0298         0.1019      -999.0000         0.4873 
 1843.9816         8.2760      -999.0000         0.1350         0.1985        78.2507        32.1005      -999.0000         4.2335         5.8563         3.8466      1130.4014         2.4791      -999.0000      -999.0000         0.1974         0.0319         0.1036      -999.0000         0.4875 
 1844.1340         8.0035      -999.0000         0.2094         0.2391        80.7746        32.8053      -999.0000         4.2335         5.8563         3.8466      1141.4930         2.3519      -999.0000      -999.0000         0.2153         0.0334         0.1807      -999.0000         0.4983 
 1844.2864         7.6318      -999.0000         0.3191         0.2500        83.2986        33.0474      -999.0000         4.2335         5.8563         3.8466      1137.5492         2.1644      -999.0000      -999.0000         0.2331         0.0339         0.2943      -999.0000         0.5235 
 1844.4388         7.0000      -999.0000         0.3250         0.2500        85.4197        33.0284      -999.0000         4.2335         5.8563         3.8466      1126.8721         2.1542      -999.0000      -999.0000         0.2481         0.0339         0.3005      -999.0000         0.5253 
 1844.5912         7.3480      -999.0000         0.3149         0.2500        85.1985        32.5313      -999.0000         4.2335         5.8563         3.8466      1097.3639         2.1716      -999.0000      -999.0000         0.2463         0.0328         0.2899      -999.0000         0.5223 
 1844.7436         7.5383      -999.0000         0.3002         0.2500        81.4527        31.7908      -999.0000      -999.0000      -999.0000      -999.0000      1030.5668         2.1967      -999.0000      -999.0000         0.2197         0.0312         0.2747      -999.0000         0.5181 
 1844.8960         7.8880      -999.0000         0.2968         0.2500        78.6809        30.1845      -999.0000      -999.0000      -999.0000      -999.0000       942.7166         2.2024      -999.0000      -999.0000         0.2004         0.0278         0.2713      -999.0000         0.5172 
 1845.0484         7.8880      -999.0000         0.2968         0.2500        78.6809        29.1930      -999.0000      -999.0000      -999.0000      -999.0000       895.4393         2.2024      -999.0000      -999.0000         0.2004         0.0257         0.2713      -999.0000         0.5172 
