~VERSION INFORMATION
 VERS.                 2.0:   CWLS LOG ASCII STANDARD - VERSION 2.0
 WRAP.                  NO:   SINGLE LINE PER DEPTH STEP
~WELL INFORMATION
#MNEM.UNIT       DATA           DESCRIPTION MNEMONIC
#---------    -------------   --------------------------
 STRT.M         10.0000                      : START DEPTH
 STOP.M         1849.6204                     : STOP DEPTH
 STEP.M         0.1524                        : STEP VALUE
 NULL.          -999.0000                     : NULL VALUE
 SRVC.          PYPOZO                        : Service Company/Logging company
 DATE.          08/07/2025                    : LAS file Creation Date
 WELL    .      ABEDUL-1                       : Well Name
 COMP    .      PYPOZO 2.0                    : Company
 FLD     .      UNKNOWN                       : Field
 LOC     .      UNKNOWN                       : Location
 LATI    .      0                             : Latitude/Northing
 LONG    .      0                             : Longitude/Easting
 APDAT   .      0                             : Elevation Above Permanent Datum
~CURVE INFORMATION
#MNEM          UNIT     API CODE   Curve Type Comments
#---------- ---------- ----------  ---------- --------
 DEPTH     .M                    : Depth      
 CALI      .IN                         : CALI       
 CILD      .MM/M                       : CILD       
 DPHI      .V/V                        : DPHI       
 DRHO      .G/C3                       : DRHO       
 DT        .US/F                       : DT         
 GR        .GAPI                       : GR         
 ILD       .OHMM                       : ILD        
 MINV      .OHMM                       : MINV       
 MLL       .OHMM                       : MLL        
 MNOR      .OHMM                       : MNOR       
 NEUT      .NAPI                       : NEUT       
 RHOB      .G/C3                       : RHOB       
 SN        .OHMM                       : SN         
 SP        .MV                         : SP         
 SPHI      .V/V                        : SPHI       
 VCL_LARIONOV_TERTIARY.fraction                   : VCL_LARIONOV_TERTIARY 
 PHIE_RHOB_CLAY_CORR.fraction                   : PHIE_RHOB_CLAY_CORR 
 SW_ARCHIE_MOD.fraction                   : SW_ARCHIE_MOD 
 PERM_KC   .mD                         : PERM_KC    
~A Log data section
# ...
 1425.4912         8.3741       240.2966         0.0217         0.1021        70.0584        20.7678         7.0334         3.4505         8.8979         3.1682      1313.1418         2.6729        12.0633       -20.6462         0.1394         0.0096         0.0000         0.0054         0.4776 
 1425.6436         8.4098       226.7555         0.0185         0.1103        69.5742        20.7020         7.4526         3.6293         8.2154         3.2474      1330.2949         2.6783        13.2531       -20.7190         0.1360         0.0095         0.0000         0.0055         0.4775 
 1425.7960         8.4371       213.2145         0.0150         0.1156        69.2758        20.5761         7.8718         3.8081         7.5330         3.3267      1349.0059         2.6844        14.4428       -20.7919         0.1339         0.0093         0.0000         0.0057         0.4773 
 1425.9484         8.4760       199.6735         0.0188         0.1151        69.4199        20.5739         8.2909         3.9869         6.8505         3.4060      1363.0437         2.6778        15.6326       -20.8647         0.1349         0.0093         0.0000         0.0059         0.4775 
 1426.1008         8.5304       199.6735         0.0255         0.1089        70.2202        20.5716         8.2909         3.9869         6.8505         3.4060      1308.5458         2.6663        15.6326       -20.8647         0.1406         0.0093         0.0000         0.0059         0.4779 
 1426.2532         8.4801       199.7254         0.0224         0.1013        71.6140        20.6131         8.6511         4.2117         6.9823         3.5782      1258.7207         2.6717        16.1745       -20.8117         0.1505         0.0093         0.0000         0.0059         0.4777 
 1426.4056         8.4064       199.7773         0.0254         0.0943        73.3961        20.7312         9.0112         4.4364         7.1140         3.7504      1240.0485         2.6665        16.7163       -20.7587         0.1631         0.0095         0.0000         0.0059         0.4779 
 1426.5580         8.3163       199.8293         0.0314         0.0879        75.2181        21.0099         9.3714         4.6612         7.2458         3.9226      1244.7406         2.6562        17.2582       -20.7056         0.1760         0.0100         0.0000         0.0060         0.4782 
 1426.7104         8.2260       199.8812         0.0383         0.0824        77.2339        21.5293         9.7315         4.8859         7.3776         4.0948      1258.7784         2.6444        17.8001       -20.6526         0.1902         0.0110         0.0034         0.0060         0.4787 
 1426.8628         8.2249       199.9331         0.0428         0.0969        78.9998        22.5959        10.0917         5.1107         7.5093         4.2671      1279.3887         2.6368        18.3420       -20.5996         0.2027         0.0129         0.0080         0.0060         0.4790 
 1427.0152         8.2857       199.9850         0.0356         0.1174        78.8258        24.4556        10.4518         5.1107         7.5093         4.2671      1318.1282         2.6490        18.8839       -20.5466         0.2013         0.0163         0.0006         0.0060         0.4785 
 1427.1676         8.3583       199.9850         0.0248         0.1199        76.5580        25.1545        10.4518         5.9602        16.6416         5.2374      1364.1752         2.6677        18.8839       -20.5466         0.1852         0.0177         0.0000         0.0059         0.4778 
 1427.3200         8.3555       208.8682         0.0252         0.1105        73.7479        25.2523         9.8367         6.8098        25.7739         6.2077      1387.6595         2.6669        17.1489       -20.5419         0.1654         0.0178         0.0000         0.0058         0.4779 
 1427.4724         8.2650       217.7513         0.0291         0.0996        70.0300        25.0923         9.2215         7.6593        34.9062         7.1781      1409.2168         2.6603        15.4138       -20.5372         0.1390         0.0175         0.0000         0.0057         0.4781 
 1427.6248         8.2255       226.6344         0.0265         0.0923        65.9162        24.7394         8.6064         8.5088        44.0384         8.1484      1430.0951         2.6646        13.6788       -20.5325         0.1100         0.0169         0.0000         0.0056         0.4779 
 1427.7772         8.2456       235.5175         0.0215         0.0877        64.7562        24.4827         7.9912         9.3584        53.1707         9.1188      1456.5737         2.6733        11.9437       -20.5278         0.1020         0.0164         0.0000         0.0055         0.4776 
 1427.9296         8.2599       244.4006         0.0162         0.0822        66.2497        23.9928         7.3760        10.2079        62.3030        10.0891      1577.7012         2.6823        10.2087       -20.5231         0.1126         0.0155         0.0000         0.0053         0.4773 
 1428.0820         8.2390       244.4006         0.0124         0.0739        68.0911        23.6260         7.3760        10.2079        62.3030        10.0891      1729.7770         2.6888        10.2087       -20.5231         0.1256         0.0148         0.0000         0.0053         0.4771 
 1428.2344         8.1849       245.9969         0.0155         0.0647        69.8881        23.1366         7.2774         9.6256        53.4628         9.2450      1854.9393         2.6834        10.1862       -20.6170         0.1383         0.0139         0.0000         0.0053         0.4773 
 1428.3868         8.1499       247.5933         0.0251         0.0569        71.5764        24.7417         7.1787         9.0433        44.6226         8.4010      1879.2229         2.6671        10.1637       -20.7109         0.1502         0.0169         0.0000         0.0053         0.4779 
 1428.5392         8.1470       249.1896         0.0339         0.0514        73.0275        24.7394         7.0801         8.4610        35.7824         7.5569      1901.1940         2.6520        10.1412       -20.8048         0.1605         0.0169         0.0000         0.0053         0.4784 
 1428.6916         8.1768       250.7860         0.0399         0.0533        74.1711        24.2425         6.9814         7.8787        26.9421         6.7128      1792.4995         2.6418        10.1187       -20.8987         0.1685         0.0159         0.0050         0.0053         0.4788 
 1428.8440         8.2067       252.3823         0.0365         0.0651        75.0877        22.9779         6.8827         7.2964        18.1019         5.8687      1689.0344         2.6476        10.0962       -20.9927         0.1750         0.0136         0.0015         0.0053         0.4786 
 1428.9964         8.2217       253.9786         0.0273         0.0795        75.8451        23.7433         6.7841         6.7141         9.2617         5.0247      1607.8441         2.6634        10.0737       -21.0866         0.1803         0.0150         0.0000         0.0053         0.4780 
 1429.1488         8.1936       253.9786         0.0248         0.0791        76.1172        24.1120         6.7841         6.7141         9.2617         5.0247      1464.8480         2.6676        10.0737       -21.0866         0.1822         0.0157         0.0000         0.0053         0.4778 
 1429.3012         8.1269       249.8644         0.0304         0.0702        75.2132        24.2335         6.9485         6.6394         9.7596         5.1838      1414.2086         2.6580        10.2634       -20.9914         0.1758         0.0159         0.0000         0.0053         0.4782 
 1429.4536         8.0615       245.7502         0.0353         0.0701        73.0403        24.1074         7.1129         6.5648        10.2574         5.3429      1425.4181         2.6497        10.4532       -20.8962         0.1604         0.0157         0.0002         0.0054         0.4785 
