~VERSION INFORMATION
 VERS.                 2.0:   CWLS LOG ASCII STANDARD - VERSION 2.0
 WRAP.                  NO:   SINGLE LINE PER DEPTH STEP
~WELL INFORMATION
#MNEM.UNIT       DATA           DESCRIPTION MNEMONIC
#---------    -------------   --------------------------
 STRT.M         10.0000                      : START DEPTH
 STOP.M         1849.6204                     : STOP DEPTH
 STEP.M         0.1524                        : STEP VALUE
 NULL.          -999.0000                     : NULL VALUE
 SRVC.          PYPOZO                        : Service Company/Logging company
 DATE.          08/07/2025                    : LAS file Creation Date
 WELL    .      ABEDUL-1                       : Well Name
 COMP    .      PYPOZO 2.0                    : Company
 FLD     .      UNKNOWN                       : Field
 LOC     .      UNKNOWN                       : Location
 LATI    .      0                             : Latitude/Northing
 LONG    .      0                             : Longitude/Easting
 APDAT   .      0                             : Elevation Above Permanent Datum
~CURVE INFORMATION
#MNEM          UNIT     API CODE   Curve Type Comments
#---------- ---------- ----------  ---------- --------
 DEPTH     .M                    : Depth      
 CALI      .IN                         : CALI       
 CILD      .MM/M                       : CILD       
 DPHI      .V/V                        : DPHI       
 DRHO      .G/C3                       : DRHO       
 DT        .US/F                       : DT         
 GR        .GAPI                       : GR         
 ILD       .OHMM                       : ILD        
 MINV      .OHMM                       : MINV       
 MLL       .OHMM                       : MLL        
 MNOR      .OHMM                       : MNOR       
 NEUT      .NAPI                       : NEUT       
 RHOB      .G/C3                       : RHOB       
 SN        .OHMM                       : SN         
 SP        .MV                         : SP         
 SPHI      .V/V                        : SPHI       
 VCL_LARIONOV_TERTIARY.fraction                   : VCL_LARIONOV_TERTIARY 
 PHIE_RHOB_CLAY_CORR.fraction                   : PHIE_RHOB_CLAY_CORR 
 SW_ARCHIE_MOD.fraction                   : SW_ARCHIE_MOD 
 PERM_KC   .mD                         : PERM_KC    
~A Log data section
# ...
 1701.1828         9.0304       387.6269         0.1218         0.2236        82.4529        30.6486         3.5299         2.1199         3.0711         2.2958       946.4537         2.5018         4.5328       -16.7573         0.2270         0.0287         0.0898         0.0045         0.4860 
 1701.3352         9.1189       391.6720         0.1277         0.2372        81.4536        31.1195         3.4885         2.0506         3.0900         2.3136       935.5716         2.4917         4.4525       -16.6877         0.2199         0.0297         0.0959         0.0045         0.4867 
 1701.4876         9.0874       395.7170         0.1380         0.2418        80.2577        31.3376         3.4471         1.9813         3.1090         2.3313       934.5795         2.4741         4.3721       -16.6180         0.2115         0.0302         0.1066         0.0045         0.4879 
 1701.6400         9.0098       399.7620         0.1508         0.2187        79.4714        31.3368         3.4057         1.9119         3.1279         2.3491       943.5885         2.4521         4.2918       -16.5484         0.2059         0.0302         0.1199         0.0046         0.4895 
 1701.7924         8.9283       403.8070         0.1609         0.1887        79.4525        31.3360         3.3642         1.8426         3.1469         2.3669       961.9705         2.4349         4.2115       -16.4787         0.2058         0.0302         0.1304         0.0046         0.4908 
 1701.9448         8.8764       407.8520         0.1610         0.2008        80.2451        31.3382         3.3228         1.7733         3.1659         2.3846       990.6381         2.4347         4.1311       -16.4091         0.2115         0.0302         0.1305         0.0045         0.4908 
 1702.0972         8.8502       407.8520         0.1500         0.2366        81.1876        31.5824         3.3228         1.7733         3.1659         2.3846      1002.5002         2.4536         4.1311       -16.4091         0.2181         0.0307         0.1190         0.0045         0.4893 
 1702.2496         8.8995       407.1906         0.1379         0.2515        81.4564        32.1993         3.3092         1.7687         3.1101         2.3358       993.2549         2.4741         4.1414       -16.1931         0.2200         0.0321         0.1066         0.0045         0.4879 
 1702.4020         9.0269       406.5292         0.1259         0.2499        80.8847        33.0640         3.2957         1.7641         3.0543         2.2869       985.3663         2.4947         4.1517       -15.9771         0.2159         0.0340         0.0941         0.0044         0.4865 
 1702.5544         9.1739       405.8678         0.1343         0.2483        80.5725        33.5579         3.2821         1.7595         2.9986         2.2380       974.1494         2.4803         4.1620       -15.7611         0.2137         0.0351         0.1028         0.0045         0.4874 
 1702.7068         9.2312       405.2063         0.1489         0.2487        81.3082        34.0517         3.2685         1.7549         2.9428         2.1892       955.9833         2.4553         4.1723       -15.5452         0.2190         0.0362         0.1180         0.0045         0.4892 
 1702.8592         9.1537       404.5449         0.1639         0.2493        82.3723        34.4219         3.2549         1.7503         2.8871         2.1403       945.3379         2.4297         4.1826       -15.3292         0.2265         0.0370         0.1335         0.0046         0.4912 
 1703.0116         8.9307       403.8835         0.1765         0.2470        83.3586        34.5448         3.2414         1.7503         2.8871         2.1403       937.6947         2.4082         4.1928       -15.1132         0.2335         0.0373         0.1465         0.0046         0.4930 
 1703.1640         8.7356       403.8835         0.1853         0.2418        84.0943        34.2967         3.2414         1.7860         2.8457         2.1675       929.9066         2.3931         4.1928       -15.1132         0.2386         0.0368         0.1557         0.0046         0.4943 
 1703.3164         8.7871       402.9739         0.1791         0.2411        83.1055        33.9250         3.2762         1.8217         2.8044         2.1947       917.4455         2.4037         4.2183       -14.9644         0.2315         0.0359         0.1493         0.0046         0.4934 
 1703.4688         8.9471       402.0643         0.1716         0.2455        80.3882        33.3060         3.3110         1.8574         2.7630         2.2218       900.3115         2.4165         4.2438       -14.8155         0.2123         0.0345         0.1415         0.0046         0.4923 
 1703.6212         9.0006       401.1546         0.1651         0.2507        79.1782        32.0688         3.3459         1.8932         2.7217         2.2490       890.9658         2.4277         4.2692       -14.6667         0.2039         0.0318         0.1347         0.0046         0.4914 
 1703.7736         8.9274       400.2450         0.1869         0.2551        81.1119        29.3478         3.3807         1.9289         2.6803         2.2762       883.1776         2.3905         4.2947       -14.5178         0.2177         0.0260         0.1573         0.0047         0.4946 
 1703.9260         8.9094       399.3354         0.2113         0.2501        84.4908        28.6051         3.4155         1.9646         2.6390         2.3033       873.8318         2.3487         4.3202       -14.3690         0.2416         0.0245         0.1826         0.0048         0.4986 
 1704.0784         8.9551       399.3354         0.2356         0.2347        87.3382        28.1098         3.4155         1.9646         2.6390         2.3033       866.0436         2.3070         4.3202       -14.3690         0.2616         0.0235         0.2079         0.0049         0.5031 
 1704.2308         9.0813       400.1970         0.2245         0.2271        88.9067        28.2326         3.3886         1.9389         2.5984         2.2675       853.5826         2.3261         4.3109       -14.5882         0.2727         0.0237         0.1963         0.0048         0.5010 
 1704.3832         9.2282       401.0586         0.2068         0.2323        89.7532        28.8501         3.3616         1.9132         2.5579         2.2317       830.2181         2.3564         4.3017       -14.8074         0.2786         0.0250         0.1779         0.0047         0.4978 
 1704.5356         9.3325       401.9202         0.1888         0.2420        90.2953        29.7149         3.3347         1.8875         2.5174         2.1958       797.5078         2.3872         4.2925       -15.0266         0.2825         0.0268         0.1593         0.0047         0.4949 
 1704.6880         9.3709       402.7818         0.1716         0.2499        89.5338        30.5797         3.3077         1.8618         2.4769         2.1600       769.4704         2.4165         4.2832       -15.2458         0.2770         0.0286         0.1415         0.0046         0.4923 
 1704.8404         9.3730       403.6435         0.1883         0.2529        87.2997        31.1689         3.2808         1.8360         2.4364         2.1242       761.6823         2.3880         4.2740       -15.4650         0.2611         0.0298         0.1588         0.0047         0.4948 
 1704.9928         9.2701       404.5051         0.1785         0.2530        85.8246        31.6377         3.2538         1.8103         2.3959         2.0883       769.0202         2.4047         4.2648       -15.6842         0.2508         0.0309         0.1487         0.0046         0.4933 
 1705.1452         9.0282       404.5051         0.1660         0.2529        85.9598        32.0049         3.2538         1.8103         2.3959         2.0883       780.7241         2.4261         4.2648       -15.6842         0.2518         0.0317         0.1357         0.0046         0.4915 
