~VERSION INFORMATION
 VERS.                 2.0:   CWLS LOG ASCII STANDARD - VERSION 2.0
 WRAP.                  NO:   SINGLE LINE PER DEPTH STEP
~WELL INFORMATION
#MNEM.UNIT       DATA           DESCRIPTION MNEMONIC
#---------    -------------   --------------------------
 STRT.M         10.0000                      : START DEPTH
 STOP.M         1849.6204                     : STOP DEPTH
 STEP.M         0.1524                        : STEP VALUE
 NULL.          -999.0000                     : NULL VALUE
 SRVC.          PYPOZO                        : Service Company/Logging company
 DATE.          08/07/2025                    : LAS file Creation Date
 WELL    .      ABEDUL-1                       : Well Name
 COMP    .      PYPOZO 2.0                    : Company
 FLD     .      UNKNOWN                       : Field
 LOC     .      UNKNOWN                       : Location
 LATI    .      0                             : Latitude/Northing
 LONG    .      0                             : Longitude/Easting
 APDAT   .      0                             : Elevation Above Permanent Datum
~CURVE INFORMATION
#MNEM          UNIT     API CODE   Curve Type Comments
#---------- ---------- ----------  ---------- --------
 DEPTH     .M                    : Depth      
 CALI      .IN                         : CALI       
 CILD      .MM/M                       : CILD       
 DPHI      .V/V                        : DPHI       
 DRHO      .G/C3                       : DRHO       
 DT        .US/F                       : DT         
 GR        .GAPI                       : GR         
 ILD       .OHMM                       : ILD        
 MINV      .OHMM                       : MINV       
 MLL       .OHMM                       : MLL        
 MNOR      .OHMM                       : MNOR       
 NEUT      .NAPI                       : NEUT       
 RHOB      .G/C3                       : RHOB       
 SN        .OHMM                       : SN         
 SP        .MV                         : SP         
 SPHI      .V/V                        : SPHI       
 VCL_LARIONOV_TERTIARY.fraction                   : VCL_LARIONOV_TERTIARY 
 PHIE_RHOB_CLAY_CORR.fraction                   : PHIE_RHOB_CLAY_CORR 
 SW_ARCHIE_MOD.fraction                   : SW_ARCHIE_MOD 
 PERM_KC   .mD                         : PERM_KC    
~A Log data section
# ...
 1215.6364         9.9483       432.5191         0.0660         0.1098        88.9980        31.1058         2.8535         2.4976         2.9887         2.2301       902.4349         2.5971         3.7496       -17.2272         0.2733         0.0297         0.0321         0.0041         0.4807 
 1215.7888         9.9638       433.3808         0.0769         0.1001        89.3666        31.3447         2.8282         2.3723         2.6974         2.1118       894.7442         2.5785         3.7632       -17.1198         0.2759         0.0302         0.0433         0.0042         0.4816 
 1215.9412         9.9790       434.2425         0.0863         0.0972        87.9177        31.4683         2.8029         2.2470         2.4062         1.9934       886.8668         2.5624         3.7768       -17.0125         0.2655         0.0305         0.0531         0.0042         0.4825 
 1216.0936         9.9339       434.2425         0.0874         0.1021        85.1499        31.4683         2.8029         2.2470         2.4062         1.9934       877.8015         2.5605         3.7768       -17.0125         0.2459         0.0305         0.0542         0.0042         0.4826 
 1216.2460         9.9044       433.2619         0.0810         0.1086        83.3453        31.4683         2.8082         2.1790         2.4513         1.9523       871.6719         2.5715         3.7683       -17.0359         0.2333         0.0305         0.0476         0.0042         0.4820 
 1216.3984         9.8915       432.2814         0.0725         0.1145        84.2582        31.4683         2.8134         2.1111         2.4964         1.9111       867.1207         2.5860         3.7597       -17.0593         0.2399         0.0305         0.0388         0.0042         0.4813 
 1216.5508         9.8883       431.3009         0.0657         0.1211        86.9658        31.3447         2.8187         2.0431         2.5415         1.8700       879.5624         2.5976         3.7511       -17.0828         0.2591         0.0302         0.0318         0.0041         0.4807 
 1216.7032         9.8916       430.3204         0.0602         0.1299        88.8382        30.8501         2.8240         1.9751         2.5867         1.8289       907.5805         2.6071         3.7425       -17.1062         0.2722         0.0292         0.0260         0.0041         0.4803 
 1216.8556         9.9150       429.3399         0.0532         0.1478        87.8420        30.4791         2.8293         1.9072         2.6318         1.7877       941.8290         2.6190         3.7340       -17.1296         0.2650         0.0284         0.0188         0.0041         0.4797 
 1217.0080         9.9226       428.3593         0.0403         0.1705        85.2949        30.1082         2.8345         1.9072         2.6318         1.7877       963.6166         2.6411         3.7254       -17.1531         0.2470         0.0276         0.0054         0.0041         0.4788 
 1217.1604         9.8876       428.3593         0.0269         0.1769        84.5263        29.6136         2.8345         1.9302         2.6344         1.7970       951.1362         2.6640         3.7254       -17.1531         0.2417         0.0266         0.0000         0.0041         0.4780 
 1217.3128         9.8615       426.2822         0.0392         0.1608        85.8788        29.2427         2.8461         1.9533         2.6371         1.8062       921.5218         2.6430         3.7637       -17.1516         0.2513         0.0258         0.0042         0.0041         0.4788 
 1217.4652         9.8991       424.2051         0.0635         0.1394        87.8454        28.6244         2.8577         1.9763         2.6397         1.8155       895.0227         2.6015         3.8021       -17.1501         0.2652         0.0245         0.0294         0.0042         0.4805 
 1217.6176         9.9654       422.1280         0.0641         0.1234        89.6184        27.8825         2.8693         1.9994         2.6423         1.8247       882.5423         2.6005         3.8404       -17.1486         0.2777         0.0230         0.0300         0.0042         0.4806 
 1217.7700        10.0054       420.0509         0.0640         0.1128        90.8378        27.2971         2.8809         2.0224         2.6450         1.8340       835.7939         2.6005         3.8788       -17.1471         0.2863         0.0218         0.0300         0.0042         0.4806 
 1217.9224        10.0132       417.9738         0.0672         0.1111        91.7915        27.3421         2.8925         2.0455         2.6476         1.8432       815.5254         2.5950         3.9171       -17.1456         0.2931         0.0219         0.0333         0.0042         0.4808 
 1218.0748        10.0140       417.9738         0.0688         0.1162        92.6399        27.8217         2.8925         2.0455         2.6476         1.8432       799.9255         2.5923         3.9171       -17.1456         0.2990         0.0229         0.0350         0.0042         0.4810 
 1218.2272         9.9756       418.4498         0.0689         0.1225        92.6576        28.0647         2.8898         2.1192         2.6302         1.8935       779.9480         2.5922         3.9173       -17.2128         0.2991         0.0234         0.0350         0.0042         0.4810 
 1218.3796         9.9277       418.9258         0.0661         0.1294        91.5555        28.1298         2.8871         2.1928         2.6129         1.9437       792.4362         2.5970         3.9176       -17.2801         0.2913         0.0235         0.0321         0.0042         0.4807 
 1218.5320         9.8654       419.4018         0.0542         0.1317        89.6602        27.9563         2.8844         2.2665         2.5955         1.9940       811.4464         2.6173         3.9179       -17.3473         0.2778         0.0232         0.0198         0.0042         0.4798 
 1218.6844         9.8001       419.8778         0.0452         0.1251        88.0313        27.6228         2.8817         2.3402         2.5781         2.0443       847.2793         2.6327         3.9181       -17.4145         0.2664         0.0225         0.0105         0.0041         0.4792 
 1218.8368         9.7629       420.3538         0.0541         0.1208        88.6136        26.5639         2.8790         2.4139         2.5607         2.0945       876.4072         2.6176         3.9184       -17.4818         0.2707         0.0204         0.0196         0.0042         0.4798 
 1218.9892         9.7677       420.8299         0.0524         0.1245        90.9027        25.9042         2.8763         2.4876         2.5433         2.1448       906.3770         2.6204         3.9186       -17.5490         0.2868         0.0191         0.0179         0.0042         0.4797 
 1219.1416         9.7831       420.8299         0.0476         0.1306        92.6857        25.9692         2.8763         2.4876         2.5433         2.1448       924.9813         2.6286         3.9186       -17.5490         0.2994         0.0192         0.0130         0.0041         0.4793 
 1219.2940         9.7508       424.0008         0.0572         0.1360        93.6944        26.6352         2.8591         2.4819         2.5129         2.1184       936.2403         2.6122         3.8748       -17.5156         0.3065         0.0205         0.0229         0.0042         0.4800 
 1219.4464         9.7066       427.1718         0.0579         0.1434        93.9889        27.5829         2.8420         2.4761         2.4825         2.0920       941.5098         2.6110         3.8310       -17.4821         0.3085         0.0224         0.0236         0.0041         0.4801 
 1219.5988         9.6879       430.3428         0.0475         0.1568        93.0323        28.5533         2.8249         2.4704         2.4521         2.0656       938.8527         2.6287         3.7872       -17.4487         0.3017         0.0244         0.0129         0.0041         0.4793 
