~VERSION INFORMATION
 VERS.                 2.0:   CWLS LOG ASCII STANDARD - VERSION 2.0
 WRAP.                  NO:   SINGLE LINE PER DEPTH STEP
~WELL INFORMATION
#MNEM.UNIT       DATA           DESCRIPTION MNEMONIC
#---------    -------------   --------------------------
 STRT.M         10.0000                      : START DEPTH
 STOP.M         1849.6204                     : STOP DEPTH
 STEP.M         0.1524                        : STEP VALUE
 NULL.          -999.0000                     : NULL VALUE
 SRVC.          PYPOZO                        : Service Company/Logging company
 DATE.          08/07/2025                    : LAS file Creation Date
 WELL    .      ABEDUL-1                       : Well Name
 COMP    .      PYPOZO 2.0                    : Company
 FLD     .      UNKNOWN                       : Field
 LOC     .      UNKNOWN                       : Location
 LATI    .      0                             : Latitude/Northing
 LONG    .      0                             : Longitude/Easting
 APDAT   .      0                             : Elevation Above Permanent Datum
~CURVE INFORMATION
#MNEM          UNIT     API CODE   Curve Type Comments
#---------- ---------- ----------  ---------- --------
 DEPTH     .M                    : Depth      
 CALI      .IN                         : CALI       
 CILD      .MM/M                       : CILD       
 DPHI      .V/V                        : DPHI       
 DRHO      .G/C3                       : DRHO       
 DT        .US/F                       : DT         
 GR        .GAPI                       : GR         
 ILD       .OHMM                       : ILD        
 MINV      .OHMM                       : MINV       
 MLL       .OHMM                       : MLL        
 MNOR      .OHMM                       : MNOR       
 NEUT      .NAPI                       : NEUT       
 RHOB      .G/C3                       : RHOB       
 SN        .OHMM                       : SN         
 SP        .MV                         : SP         
 SPHI      .V/V                        : SPHI       
 VCL_LARIONOV_TERTIARY.fraction                   : VCL_LARIONOV_TERTIARY 
 PHIE_RHOB_CLAY_CORR.fraction                   : PHIE_RHOB_CLAY_CORR 
 SW_ARCHIE_MOD.fraction                   : SW_ARCHIE_MOD 
 PERM_KC   .mD                         : PERM_KC    
~A Log data section
# ...
 1565.3944         8.4756       395.7777         0.0112         0.0755        81.8208        34.5595         3.2178         2.8493         3.6153         2.3471      1100.2023         2.6909         4.0935       -17.7295         0.2225         0.0374         0.0000         0.0042         0.4770 
 1565.5468         8.4816       393.8976         0.0007         0.0898        80.9106        33.0757         3.1822         2.7329         3.5907         2.3325      1102.2106         2.7088         4.1527       -17.7233         0.2161         0.0340         0.0000         0.0042         0.4765 
 1565.6992         8.5234       392.0175        -0.0014         0.1008        79.9812        32.7048         3.1467         2.6164         3.5661         2.3179      1098.6448         2.7124         4.2118       -17.7170         0.2095         0.0332         0.0000         0.0042         0.4764 
 1565.8516         8.5566       390.1374         0.0071         0.0996        80.0192        32.8284         3.1112         2.5000         3.5414         2.3034      1095.1726         2.6979         4.2709       -17.7107         0.2099         0.0335         0.0000         0.0042         0.4768 
 1566.0040         8.5653       388.2572         0.0165         0.0881        81.6300        33.0757         3.0757         2.5000         3.5414         2.3034      1089.0502         2.6819         4.3300       -17.7044         0.2213         0.0340         0.0000         0.0042         0.4773 
 1566.1564         8.5632       388.2572         0.0229         0.0766        83.5191        33.9413         3.0757         2.4886         3.4496         2.2847      1079.4954         2.6709         4.3300       -17.7044         0.2346         0.0359         0.0000         0.0042         0.4777 
 1566.3088         8.5477       390.2782         0.0273         0.0752        83.8171        34.5595         3.0626         2.4772         3.3578         2.2661      1068.2028         2.6633         4.3015       -17.8728         0.2366         0.0374         0.0000         0.0042         0.4780 
 1566.4612         8.5207       392.2992         0.0344         0.0838        83.1353        35.1777         3.0495         2.4658         3.2660         2.2474      1054.6627         2.6512         4.2730       -18.0411         0.2318         0.0388         0.0000         0.0043         0.4784 
 1566.6136         8.4904       394.3202         0.0282         0.0966        85.0066        35.4250         3.0364         2.4544         3.1741         2.2288      1042.5754         2.6619         4.2445       -18.2095         0.2453         0.0393         0.0000         0.0042         0.4780 
 1566.7660         8.4650       396.3412         0.0207         0.1100        89.7262        35.0541         3.0233         2.4430         3.0823         2.2101      1031.7036         2.6747         4.2160       -18.3778         0.2787         0.0385         0.0000         0.0042         0.4776 
 1566.9184         8.4461       398.3622         0.0201         0.1245        93.3365        34.1886         3.0102         2.4316         2.9905         2.1915      1017.8948         2.6757         4.1875       -18.5461         0.3040         0.0365         0.0000         0.0042         0.4775 
 1567.0708         8.4285       398.3622         0.0231         0.1409        95.0141        33.6748         3.0102         2.4316         2.9905         2.1915      1002.3935         2.6705         4.1875       -18.5461         0.3158         0.0353         0.0000         0.0042         0.4777 
 1567.2232         8.4168       398.4100         0.0234         0.1593        94.6567        32.9399         3.0100         2.4352         3.2441         2.2075       977.7061         2.6700         4.1880       -18.4129         0.3132         0.0337         0.0000         0.0042         0.4777 
 1567.3756         8.4159       398.4578         0.0234         0.1723        91.1746        32.3719         3.0097         2.4387         3.4978         2.2235       957.4665         2.6700         4.1885       -18.2796         0.2884         0.0325         0.0000         0.0042         0.4777 
 1567.5280         8.4007       398.5056         0.0501         0.1727        87.0794        31.7804         3.0094         2.4422         3.7515         2.2396       904.5167         2.6242         4.1890       -18.1464         0.2596         0.0312         0.0156         0.0043         0.4795 
 1567.6804         8.3760       398.5534         0.0481         0.1650        84.9482        31.1889         3.0091         2.4457         4.0052         2.2556       890.5076         2.6277         4.1894       -18.0131         0.2446         0.0299         0.0135         0.0043         0.4794 
 1567.8328         8.3478       398.6012         0.0598         0.1238        84.1363        30.5973         3.0088         2.4492         4.2588         2.2716       893.6325         2.6077         4.1899       -17.8799         0.2389         0.0286         0.0256         0.0043         0.4802 
 1567.9852         8.3391       398.6490         0.0692         0.0782        83.7135        30.2318         3.0085         2.4528         4.5125         2.2877       906.1032         2.5916         4.1904       -17.7466         0.2359         0.0279         0.0354         0.0043         0.4810 
 1568.1376         8.3425       398.6490         0.0597         0.0660        83.7284        30.3555         3.0085         2.4528         4.5125         2.2877       918.5739         2.6079         4.1904       -17.7466         0.2360         0.0281         0.0255         0.0043         0.4802 
 1568.2900         8.3558       397.8604         0.0292         0.0760        84.2775        30.6028         3.0135         2.4299         4.1337         2.2303       932.6022         2.6600         4.2125       -17.9245         0.2399         0.0286         0.0000         0.0042         0.4781 
 1568.4424         8.3808       397.0718         0.0115         0.0901        85.1282        30.8589         3.0185         2.4070         3.7550         2.1730       948.1882         2.6904         4.2346       -18.1025         0.2460         0.0292         0.0000         0.0042         0.4771 
 1568.5948         8.4145       396.2832         0.0167         0.0958        85.6200        31.1076         3.0236         2.3841         3.3762         2.1156       968.4471         2.6815         4.2567       -18.2804         0.2494         0.0297         0.0000         0.0042         0.4774 
 1568.7472         8.4482       395.4946         0.0236         0.0936        85.1453        31.3460         3.0286         2.3613         2.9974         2.0582       993.3788         2.6696         4.2788       -18.4583         0.2460         0.0302         0.0000         0.0042         0.4778 
 1568.8996         8.4722       394.7060         0.0306         0.0900        84.0876        31.4683         3.0336         2.3384         2.6187         2.0009      1029.2140         2.6577         4.3009       -18.6362         0.2385         0.0305         0.0000         0.0042         0.4782 
 1569.0520         8.4756       393.9174         0.0375         0.0904        83.3377        31.5920         3.0387         2.3384         2.6187         2.0009      1065.0492         2.6458         4.3230       -18.8142         0.2333         0.0308         0.0025         0.0043         0.4786 
 1569.2044         8.4571       393.9174         0.0444         0.0960        84.0636        31.5920         3.0387         2.3400         2.7601         2.0217      1082.9636         2.6340         4.3230       -18.8142         0.2385         0.0308         0.0097         0.0043         0.4791 
 1569.3568         8.4395       395.6495         0.0509         0.0978        86.1734        31.5920         3.0277         2.3417         2.9015         2.0426      1096.3835         2.6229         4.2438       -18.6631         0.2534         0.0308         0.0164         0.0043         0.4796 
