~VERSION INFORMATION
 VERS.                 2.0:   CWLS LOG ASCII STANDARD - VERSION 2.0
 WRAP.                  NO:   SINGLE LINE PER DEPTH STEP
~WELL INFORMATION
#MNEM.UNIT       DATA           DESCRIPTION MNEMONIC
#---------    -------------   --------------------------
 STRT.M         10.0000                      : START DEPTH
 STOP.M         1849.6204                     : STOP DEPTH
 STEP.M         0.1524                        : STEP VALUE
 NULL.          -999.0000                     : NULL VALUE
 SRVC.          PYPOZO                        : Service Company/Logging company
 DATE.          08/07/2025                    : LAS file Creation Date
 WELL    .      ABEDUL-1                       : Well Name
 COMP    .      PYPOZO 2.0                    : Company
 FLD     .      UNKNOWN                       : Field
 LOC     .      UNKNOWN                       : Location
 LATI    .      0                             : Latitude/Northing
 LONG    .      0                             : Longitude/Easting
 APDAT   .      0                             : Elevation Above Permanent Datum
~CURVE INFORMATION
#MNEM          UNIT     API CODE   Curve Type Comments
#---------- ---------- ----------  ---------- --------
 DEPTH     .M                    : Depth      
 CALI      .IN                         : CALI       
 CILD      .MM/M                       : CILD       
 DPHI      .V/V                        : DPHI       
 DRHO      .G/C3                       : DRHO       
 DT        .US/F                       : DT         
 GR        .GAPI                       : GR         
 ILD       .OHMM                       : ILD        
 MINV      .OHMM                       : MINV       
 MLL       .OHMM                       : MLL        
 MNOR      .OHMM                       : MNOR       
 NEUT      .NAPI                       : NEUT       
 RHOB      .G/C3                       : RHOB       
 SN        .OHMM                       : SN         
 SP        .MV                         : SP         
 SPHI      .V/V                        : SPHI       
 VCL_LARIONOV_TERTIARY.fraction                   : VCL_LARIONOV_TERTIARY 
 PHIE_RHOB_CLAY_CORR.fraction                   : PHIE_RHOB_CLAY_CORR 
 SW_ARCHIE_MOD.fraction                   : SW_ARCHIE_MOD 
 PERM_KC   .mD                         : PERM_KC    
~A Log data section
# ...
 1771.1344         8.3731       314.4675         0.1271         0.2514        76.9598        31.9468         4.9155         2.3233         3.9653         2.6807       942.6500         2.4927         5.5623       -14.1932         0.1882         0.0315         0.0953         0.0051         0.4866 
 1771.2868         8.4032       314.3339         0.1452         0.2512        76.8602        31.1590         4.8923         2.1993         3.8168         2.6695       926.2783         2.4617         5.6090       -14.2021         0.1875         0.0298         0.1141         0.0051         0.4888 
 1771.4392         8.4004       314.2003         0.1339         0.2512        76.1989        30.2045         4.8691         2.0753         3.6683         2.6583       901.6152         2.4810         5.6556       -14.2109         0.1828         0.0278         0.1024         0.0051         0.4874 
 1771.5916         8.3586       314.0667         0.1245         0.2449        75.2857        29.0622         4.8459         1.9514         3.5198         2.6471       883.6002         2.4971         5.7022       -14.2197         0.1763         0.0254         0.0927         0.0051         0.4863 
 1771.7440         8.3139       313.9331         0.1275         0.2183        74.3722        28.1093         4.8228         1.8274         3.3712         2.6359       868.9406         2.4920         5.7488       -14.2286         0.1699         0.0235         0.0958         0.0051         0.4866 
 1771.8964         8.3243       313.7995         0.1438         0.2039        74.2908        28.4775         4.7996         1.7034         3.2227         2.6248       895.6437         2.4640         5.7954       -14.2374         0.1694         0.0242         0.1127         0.0051         0.4886 
 1772.0488         8.3484       313.6659         0.1706         0.2245        75.4720        29.1367         4.7764         1.7034         3.2227         2.6248       894.6566         2.4183         5.8420       -14.2462         0.1778         0.0256         0.1404         0.0052         0.4921 
 1772.2012         8.4187       313.6659         0.1996         0.2445        77.0399        29.3813         4.7764         1.6876         3.4008         2.5545       888.4666         2.3687         5.8420       -14.2462         0.1888         0.0261         0.1705         0.0053         0.4966 
 1772.3536         8.5131       312.3556         0.2097         0.2488        78.4520        29.6261         4.8213         1.6717         3.5790         2.4841       878.7203         2.3513         5.7744       -14.1920         0.1988         0.0266         0.1810         0.0054         0.4983 
 1772.5060         8.6314       311.0452         0.2095         0.2490        79.4196        29.8452         4.8662         1.6558         3.7571         2.4138       864.6425         2.3517         5.7068       -14.1378         0.2056         0.0270         0.1808         0.0054         0.4983 
 1772.6584         8.7645       309.7349         0.2029         0.2487        78.8742        30.0935         4.9110         1.6400         3.9353         2.3435       849.2467         2.3631         5.6392       -14.0837         0.2016         0.0276         0.1739         0.0054         0.4972 
 1772.8108         8.8858       308.4245         0.1927         0.2408        76.8548        30.2363         4.9559         1.6241         4.1134         2.2732       833.8407         2.3805         5.5715       -14.0295         0.1873         0.0279         0.1633         0.0053         0.4955 
 1772.9632         8.9922       307.1142         0.1804         0.2284        74.8734        30.4810         5.0008         1.6082         4.2915         2.2029       821.7788         2.4015         5.5039       -13.9753         0.1734         0.0284         0.1506         0.0053         0.4936 
 1773.1156         9.0584       307.1142         0.1679         0.2288        73.4622        30.6020         5.0008         1.6082         4.2915         2.2029       820.3350         2.4229         5.5039       -13.9753         0.1634         0.0286         0.1376         0.0053         0.4918 
 1773.2680         9.1190       305.1102         0.1575         0.2407        72.1459        30.8391         5.0515         1.7080         4.1340         2.3208       826.5151         2.4407         5.6371       -13.9829         0.1541         0.0291         0.1268         0.0052         0.4903 
 1773.4204         9.0919       303.1063         0.1416         0.2507        70.8870        30.9679         5.1021         1.8077         3.9764         2.4388       835.7792         2.4678         5.7702       -13.9905         0.1452         0.0294         0.1104         0.0052         0.4883 
 1773.5728         8.9545       301.1023         0.1167         0.2547        70.4230        31.3356         5.1528         1.9074         3.8189         2.5568       846.6093         2.5104         5.9034       -13.9981         0.1420         0.0302         0.0846         0.0051         0.4854 
 1773.7252         8.8665       299.0983         0.0989         0.2528        71.3520        31.5838         5.2035         2.0071         3.6613         2.6748       863.6554         2.5409         6.0366       -14.0057         0.1486         0.0307         0.0661         0.0051         0.4836 
 1773.8776         8.8030       297.0943         0.0958         0.2443        73.1057        31.8321         5.2541         2.1068         3.5038         2.7928       885.3634         2.5461         6.1697       -14.0133         0.1610         0.0313         0.0630         0.0051         0.4833 
 1774.0300         8.7526       295.0904         0.0934         0.2204        74.5481        32.2040         5.3048         2.1068         3.5038         2.7928       921.0576         2.5502         6.3029       -14.0209         0.1712         0.0321         0.0605         0.0051         0.4831 
 1774.1824         8.6915       295.0904         0.0881         0.1977        74.9166        32.4522         5.3048         2.1176         3.5668         2.7409       944.3196         2.5593         6.3029       -14.0209         0.1737         0.0326         0.0550         0.0051         0.4826 
 1774.3348         8.6164       295.6579         0.0772         0.1955        74.3880        32.7005         5.3242         2.1284         3.6298         2.6891       952.0417         2.5780         6.2562       -13.9996         0.1700         0.0332         0.0436         0.0050         0.4817 
 1774.4872         8.5412       296.2254         0.0561         0.2051        73.5884        32.8251         5.3436         2.1391         3.6929         2.6372       950.4398         2.6141         6.2095       -13.9783         0.1643         0.0335         0.0218         0.0050         0.4800 
 1774.6396         8.4897       296.7929         0.0322         0.2046        72.8122        33.0733         5.3629         2.1499         3.7559         2.5854       944.1758         2.6550         6.1629       -13.9570         0.1589         0.0340         0.0000         0.0049         0.4783 
 1774.7920         8.4500       297.3604         0.0266         0.1695        72.2193        33.1979         5.3823         2.1607         3.8190         2.5336       934.8039         2.6645         6.1162       -13.9357         0.1547         0.0343         0.0000         0.0049         0.4779 
 1774.9444         8.4107       297.9279         0.0421         0.1388        72.3234        33.1989         5.4017         2.1714         3.8820         2.4817       923.8779         2.6380         6.0696       -13.9144         0.1555         0.0343         0.0073         0.0049         0.4790 
 1775.0968         8.3854       297.9279         0.0625         0.1377        73.5734        33.1999         5.4017         2.1714         3.8820         2.4817       902.1876         2.6032         6.0696       -13.9144         0.1644         0.0343         0.0284         0.0050         0.4804 
