~VERSION INFORMATION
 VERS.                 2.0:   CWLS LOG ASCII STANDARD - VERSION 2.0
 WRAP.                  NO:   SINGLE LINE PER DEPTH STEP
~WELL INFORMATION
#MNEM.UNIT       DATA           DESCRIPTION MNEMONIC
#---------    -------------   --------------------------
 STRT.M         10.0000                      : START DEPTH
 STOP.M         1849.6204                     : STOP DEPTH
 STEP.M         0.1524                        : STEP VALUE
 NULL.          -999.0000                     : NULL VALUE
 SRVC.          PYPOZO                        : Service Company/Logging company
 DATE.          08/07/2025                    : LAS file Creation Date
 WELL    .      ABEDUL-1                       : Well Name
 COMP    .      PYPOZO 2.0                    : Company
 FLD     .      UNKNOWN                       : Field
 LOC     .      UNKNOWN                       : Location
 LATI    .      0                             : Latitude/Northing
 LONG    .      0                             : Longitude/Easting
 APDAT   .      0                             : Elevation Above Permanent Datum
~CURVE INFORMATION
#MNEM          UNIT     API CODE   Curve Type Comments
#---------- ---------- ----------  ---------- --------
 DEPTH     .M                    : Depth      
 CALI      .IN                         : CALI       
 CILD      .MM/M                       : CILD       
 DPHI      .V/V                        : DPHI       
 DRHO      .G/C3                       : DRHO       
 DT        .US/F                       : DT         
 GR        .GAPI                       : GR         
 ILD       .OHMM                       : ILD        
 MINV      .OHMM                       : MINV       
 MLL       .OHMM                       : MLL        
 MNOR      .OHMM                       : MNOR       
 NEUT      .NAPI                       : NEUT       
 RHOB      .G/C3                       : RHOB       
 SN        .OHMM                       : SN         
 SP        .MV                         : SP         
 SPHI      .V/V                        : SPHI       
 VCL_LARIONOV_TERTIARY.fraction                   : VCL_LARIONOV_TERTIARY 
 PHIE_RHOB_CLAY_CORR.fraction                   : PHIE_RHOB_CLAY_CORR 
 SW_ARCHIE_MOD.fraction                   : SW_ARCHIE_MOD 
 PERM_KC   .mD                         : PERM_KC    
~A Log data section
# ...
 1145.6848         9.5593       389.0819         0.1576         0.2228        88.5128        31.0236         3.1431         2.4573         3.9612         2.1298       894.6229         2.4405         4.0560       -18.3419         0.2699         0.0295         0.1270         0.0046         0.4904 
 1145.8372         9.5516       384.9107         0.1511         0.2341        89.8715        31.2346         3.2004         2.3930         3.8149         2.1073       888.3730         2.4516         4.0790       -18.3432         0.2795         0.0300         0.1202         0.0046         0.4895 
 1145.9896         9.5801       380.7395         0.1507         0.2456        90.3551        31.3580         3.2577         2.3286         3.6687         2.0848       872.7771         2.4524         4.1020       -18.3446         0.2828         0.0303         0.1198         0.0047         0.4894 
 1146.1420         9.6205       380.7395         0.1572         0.2530        89.6579        31.3751         3.2577         2.3286         3.6687         2.0848       857.1813         2.4411         4.1020       -18.3446         0.2779         0.0303         0.1266         0.0047         0.4903 
 1146.2944         9.6703       376.9329         0.1584         0.2526        88.1709        31.4815         3.3074         2.6115         4.0415         2.1433       856.7007         2.4392         4.1692       -18.3449         0.2673         0.0305         0.1278         0.0047         0.4905 
 1146.4468         9.6294       373.1264         0.1420         0.2457        86.2458        31.3539         3.3570         2.8944         4.4142         2.2017       866.4882         2.4672         4.2364       -18.3452         0.2537         0.0302         0.1108         0.0047         0.4884 
 1146.5992         9.4238       369.3198         0.1439         0.2332        84.4964        30.9877         3.4067         3.1773         4.7870         2.2602       888.0458         2.4639         4.3036       -18.3456         0.2414         0.0295         0.1128         0.0047         0.4886 
 1146.7516         9.2813       365.5132         0.1434         0.2150        83.6297        30.7407         3.4564         3.4601         5.1597         2.3186       920.9548         2.4648         4.3708       -18.3459         0.2353         0.0289         0.1122         0.0047         0.4885 
 1146.9040         9.2446       361.7066         0.1378         0.2025        84.2142        30.1235         3.5060         3.7430         5.5325         2.3771       952.9549         2.4743         4.4380       -18.3463         0.2395         0.0276         0.1065         0.0048         0.4878 
 1147.0564         9.3248       357.9000         0.1318         0.2044        86.1112        28.8889         3.5557         3.7430         5.5325         2.3771       986.2179         2.4846         4.5052       -18.3466         0.2530         0.0251         0.1002         0.0048         0.4871 
 1147.2088         9.4980       357.9000         0.1258         0.2147        87.2481        26.2963         3.5557         3.5543         5.3693         2.3582       991.6414         2.4948         4.5052       -18.3466         0.2609         0.0199         0.0941         0.0047         0.4865 
 1147.3612         9.6404       356.7756         0.1390         0.2260        86.7795        25.6790         3.5883         3.3656         5.2062         2.3394       994.1070         2.4723         4.5960       -18.3198         0.2576         0.0187         0.1077         0.0048         0.4880 
 1147.5136         9.6403       355.6512         0.1512         0.2360        86.9908        25.8025         3.6209         3.1770         5.0430         2.3205       993.6045         2.4514         4.6869       -18.2931         0.2592         0.0189         0.1204         0.0048         0.4895 
 1147.6660         9.5710       354.5268         0.1570         0.2440        88.6383        26.1728         3.6535         2.9883         4.8799         2.3017       987.0273         2.4415         4.7778       -18.2663         0.2708         0.0196         0.1264         0.0049         0.4903 
 1147.8184         9.6182       353.4024         0.1557         0.2311        89.3375        26.6317         3.6861         2.7996         4.7167         2.2829       976.5077         2.4437         4.8687       -18.2395         0.2756         0.0205         0.1250         0.0049         0.4901 
 1147.9708         9.8078       352.2780         0.1538         0.2031        87.8919        27.5416         3.7187         2.6109         4.5535         2.2640       954.4006         2.4469         4.9595       -18.2127         0.2653         0.0223         0.1231         0.0049         0.4899 
 1148.1232         9.9063       352.2780         0.1531         0.1866        87.2016        28.1409         3.7187         2.6109         4.5535         2.2640       930.6621         2.4483         4.9595       -18.2127         0.2606         0.0235         0.1222         0.0049         0.4898 
 1148.2756         9.8894       353.9316         0.1599         0.1885        89.0025        28.3434         3.7269         2.7284         4.2654         2.2834       909.4875         2.4366         4.9504       -18.2348         0.2734         0.0239         0.1293         0.0049         0.4907 
 1148.4280         9.8763       355.5853         0.1635         0.2030        91.0181        28.1028         3.7351         2.8458         3.9772         2.3028       894.1624         2.4305         4.9412       -18.2568         0.2876         0.0235         0.1330         0.0049         0.4911 
 1148.5804         9.8592       357.2389         0.1638         0.2196        92.2286        27.7000         3.7433         2.9632         3.6890         2.3222       875.5712         2.4299         4.9320       -18.2788         0.2962         0.0226         0.1334         0.0049         0.4912 
 1148.7328         9.6716       358.8926         0.1659         0.2299        93.4235        27.2186         3.7515         3.0807         3.4008         2.3416       863.0906         2.4263         4.9228       -18.3009         0.3046         0.0217         0.1356         0.0049         0.4915 
 1148.8852         9.4660       360.5462         0.1617         0.2273        94.8628        26.4115         3.7598         3.1981         3.1127         2.3610       856.8406         2.4335         4.9137       -18.3229         0.3148         0.0201         0.1312         0.0048         0.4909 
 1149.0376         9.5499       362.1999         0.1682         0.2112        95.4840        25.1682         3.7680         3.1981         3.1127         2.3610       854.9777         2.4224         4.9045       -18.3449         0.3191         0.0177         0.1379         0.0049         0.4918 
 1149.1900         9.7238       362.1999         0.1709         0.1949        94.3946        23.9506         3.7680         3.1735         3.4096         2.3630       859.9169         2.4177         4.9045       -18.3449         0.3113         0.0154         0.1408         0.0049         0.4922 
 1149.3424         9.7933       370.1878         0.1668         0.1818        92.6593        24.3581         3.6595         3.1488         3.7065         2.3651       869.2433         2.4247         4.7738       -18.1925         0.2991         0.0161         0.1365         0.0048         0.4916 
 1149.4948         9.7417       378.1758         0.1571         0.1799        91.0246        25.5594         3.5511         3.1241         4.0034         2.3671       886.3577         2.4413         4.6432       -18.0400         0.2875         0.0184         0.1265         0.0047         0.4903 
 1149.6472         9.6281       386.1637         0.1541         0.1951        88.7100        26.5432         3.4426         3.0995         4.3003         2.3692       906.5875         2.4466         4.5126       -17.8876         0.2711         0.0204         0.1233         0.0047         0.4899 
