~VERSION INFORMATION
 VERS.                 2.0:   CWLS LOG ASCII STANDARD - VERSION 2.0
 WRAP.                  NO:   SINGLE LINE PER DEPTH STEP
~WELL INFORMATION
#MNEM.UNIT       DATA           DESCRIPTION MNEMONIC
#---------    -------------   --------------------------
 STRT.M         4.0000                      : START DEPTH
 STOP.M         2049.9700                     : STOP DEPTH
 STEP.M         0.1524                        : STEP VALUE
 NULL.          -999.0000                     : NULL VALUE
 SRVC.          PYPOZO                        : Service Company/Logging company
 DATE.          05/07/2025                    : LAS file Creation Date
 WELL    .      ARIEL-1                        : Well Name
 COMP    .      PYPOZO 2.0                    : Company
 FLD     .      UNKNOWN                       : Field
 LOC     .      UNKNOWN                       : Location
 LATI    .      0                             : Latitude/Northing
 LONG    .      0                             : Longitude/Easting
 APDAT   .      0                             : Elevation Above Permanent Datum
~CURVE INFORMATION
#MNEM          UNIT     API CODE   Curve Type Comments
#---------- ---------- ----------  ---------- --------
 DEPTH     .M                    : Depth      
 CALI      .IN                         : CALI       
 CILD      .mm/m                       : CILD       
 DPHI      .V/V                        : DPHI       
 DRHO      .G/C3                       : DRHO       
 DT        .US/F                       : DT         
 GR        .GAPI                       : GR         
 ILD       .OHMM                       : ILD        
 MINV      .OHMM                       : MINV       
 MLL       .OHMM                       : MLL        
 MNOR      .OHMM                       : MNOR       
 NEUT      .NAPI                       : NEUT       
 NPHI      .V/V                        : NPHI       
 PROX      .OHMM                       : PROX       
 RHOB      .G/C3                       : RHOB       
 SN        .OHMM                       : SN         
 SP        .MV                         : SP         
 SPHI      .V/V                        : SPHI       
 TEMP      .DEGC                       : TEMP       
~A Log data section
# ...
 1413.8524        10.9484       390.3044         0.0714         0.0106       107.5323        71.4949         2.5626         1.6600      -999.0000         1.5334       457.5077         0.2245         2.1039         2.5322         2.3650       -41.0471         0.3898      -999.0000 
 1414.0048        11.0007       391.8427         0.0770         0.0100       110.8461        72.3457         2.5510         1.9000      -999.0000         1.5468       460.0272         0.2173         2.2031         2.5230         2.3242       -41.0147         0.4146      -999.0000 
 1414.1572        11.0361       394.0818         0.0806         0.0094       104.1471        72.7567         2.5375         2.0200      -999.0000         1.6600       456.9622         0.2127         2.3069         2.5169         2.3063       -41.0216         0.3644      -999.0000 
 1414.3096        11.0575       396.7248         0.0815         0.0087        99.6815        72.6111         2.5187         1.8600      -999.0000         1.7000       452.9580         0.2020         2.3283         2.5155         2.2967       -41.1009         0.3309      -999.0000 
 1414.4620        11.0484       401.2111         0.0836         0.0059       104.5339        72.1658         2.4944         1.9400      -999.0000         1.7000       455.3411         0.1967         2.1430         2.5120         2.2840       -41.1525         0.3673      -999.0000 
 1414.6144        11.0612       404.7130         0.0845         0.0033       108.0665        71.0408         2.4668         1.7615      -999.0000         1.3800       460.9050         0.1940         1.9545         2.5105         2.2644       -41.5058         0.3938      -999.0000 
 1414.7668        11.0689       411.4669         0.0825         0.0030       105.5654        70.6729         2.4337         2.1000      -999.0000         1.5400       467.0006         0.1956         2.0655         2.5138         2.2428       -41.7832         0.3750      -999.0000 
 1414.9192        11.0648       416.8936         0.0799         0.0057       101.0234        69.8542         2.3970         2.3952      -999.0000         1.4953       471.6758         0.2051         2.1039         2.5182         2.2248       -42.0281         0.3410      -999.0000 
 1415.0716        11.0754       422.6968         0.0819         0.0083       103.4414        69.4680         2.3688         2.3024      -999.0000         1.7335       474.0095         0.2130         2.4605         2.5149         2.1917       -42.0209         0.3591      -999.0000 
 1415.2240        11.0864       426.1755         0.0863         0.0055       109.2646        68.7656         2.3460         1.9394      -999.0000         1.7293       475.9371         0.2167         2.2235         2.5076         2.1666       -41.8437         0.4027      -999.0000 
 1415.3764        11.0687       428.6985         0.0849        -0.0011       114.8734        68.4329         2.3330         1.8161      -999.0000         1.3800       478.0517         0.2121         2.1054         2.5099         2.1392       -41.6376         0.4447      -999.0000 
 1415.5288        11.0627       431.0512         0.0803        -0.0072       120.5002        67.2294         2.3149         1.6200      -999.0000         1.4200       479.6580         0.2099         2.0450         2.5176         2.1128       -41.5690         0.4869      -999.0000 
 1415.6812        11.0561       438.8309         0.0804        -0.0098       121.4777        67.0828         2.2824         2.0600      -999.0000         1.6188       478.8545         0.2144         2.1234         2.5174         2.0848       -41.5800         0.4942      -999.0000 
 1415.8336        11.0847       445.2810         0.0823        -0.0063       119.2732        66.4294         2.2458         1.8200      -999.0000         1.3772       479.2109         0.2164         1.9012         2.5142         2.0684       -41.7532         0.4777      -999.0000 
 1415.9860        11.1239       449.9322         0.0827        -0.0023       117.0672        65.9917         2.2226         1.7800      -999.0000         1.4221       483.1967         0.2187         1.9545         2.5135         2.0591       -41.9069         0.4612      -999.0000 
 1416.1384        11.1588       454.5834         0.0773        -0.0010       116.3268        65.8723         2.2002         1.9000      -999.0000         1.5400       484.9448         0.2218         2.1039         2.5225         2.0348       -41.9346         0.4556      -999.0000 
 1416.2908        11.1708       458.7794         0.0755        -0.0023       119.2319        65.4407         2.1819         1.9000      -999.0000         1.5400       485.9607         0.2182         2.1430         2.5254         2.0103       -41.7306         0.4774      -999.0000 
 1416.4432        11.1280       460.0354         0.0771        -0.0013       122.0818        65.9665         2.1741         1.9000      -999.0000         1.4194       488.2506         0.2097         2.3715         2.5228         1.9959       -41.4606         0.4987      -999.0000 
 1416.5956        11.1562       459.5803         0.0785         0.0036       117.5537        66.4316         2.1770         2.1400      -999.0000         1.5392       493.8704         0.2041         2.1629         2.5205         1.9812       -41.1960         0.4648      -999.0000 
 1416.7480        11.1422       457.5505         0.0804         0.0058       110.5885        67.0761         2.1856         1.9000      -999.0000         1.4642       495.5919         0.2080         1.9188         2.5174         1.9749       -40.8637         0.4126      -999.0000 
 1416.9004        11.1503       454.8927         0.0843         0.0043       110.7614        68.3737         2.2015         1.8898      -999.0000         1.4707       501.2725         0.2219         2.3283         2.5108         1.9804       -40.7604         0.4139      -999.0000 
 1417.0528        11.1897       448.5940         0.0863         0.0023       113.8164        69.8769         2.2265         1.8937      -999.0000         1.6550       504.8800         0.2283         2.1430         2.5077         2.0278       -40.7574         0.4368      -999.0000 
 1417.2052        11.2319       444.2615         0.0849         0.0052       116.8713        71.7875         2.2534         2.5000      -999.0000         1.6658       508.6846         0.2269         2.8791         2.5099         2.0653       -40.7519         0.4597      -999.0000 
 1417.3576        11.2284       438.8730         0.0806         0.0091       119.9263        72.7172         2.2793         1.9000      -999.0000         1.4705       509.5705         0.2231         2.7218         2.5171         2.0876       -40.7406         0.4826      -999.0000 
 1417.5100        11.2120       431.7734         0.0780         0.0097       121.2160        73.4368         2.3182         2.1400      -999.0000         1.7464       510.1310         0.2191         2.4585         2.5213         2.1071       -41.0021         0.4923      -999.0000 
 1417.6624        11.1741       422.6439         0.0754         0.0075       110.8205        73.7771         2.3680         2.1880      -999.0000         1.6659       515.8317         0.2151         2.6003         2.5256         2.1562       -41.4065         0.4144      -999.0000 
 1417.8148        11.2036       411.5770         0.0714         0.0048       101.0712        74.0544         2.4265         2.5000      -999.0000         1.9799       519.2181         0.2092         2.8512         2.5322         2.2017       -41.6866         0.3414      -999.0000 
 1417.9672        11.2388       404.0248         0.0701        -0.0024       101.3333        73.9599         2.4756         2.4200      -999.0000         1.9413       524.7554         0.2044         2.7481         2.5344         2.2280       -42.0720         0.3433      -999.0000 
 1418.1196        11.2127       398.1601         0.0703        -0.0121       102.4145        72.9568         2.5121         2.1800      -999.0000         1.7811       527.4655         0.2040         3.0411         2.5340         2.2475       -42.3155         0.3514      -999.0000 
