~VERSION INFORMATION
 VERS.                 2.0:   CWLS LOG ASCII STANDARD - VERSION 2.0
 WRAP.                  NO:   SINGLE LINE PER DEPTH STEP
~WELL INFORMATION
#MNEM.UNIT       DATA           DESCRIPTION MNEMONIC
#---------    -------------   --------------------------
 STRT.M         4.0000                      : START DEPTH
 STOP.M         2049.9700                     : STOP DEPTH
 STEP.M         0.1524                        : STEP VALUE
 NULL.          -999.0000                     : NULL VALUE
 SRVC.          PYPOZO                        : Service Company/Logging company
 DATE.          05/07/2025                    : LAS file Creation Date
 WELL    .      ARIEL-1                        : Well Name
 COMP    .      PYPOZO 2.0                    : Company
 FLD     .      UNKNOWN                       : Field
 LOC     .      UNKNOWN                       : Location
 LATI    .      0                             : Latitude/Northing
 LONG    .      0                             : Longitude/Easting
 APDAT   .      0                             : Elevation Above Permanent Datum
~CURVE INFORMATION
#MNEM          UNIT     API CODE   Curve Type Comments
#---------- ---------- ----------  ---------- --------
 DEPTH     .M                    : Depth      
 CALI      .IN                         : CALI       
 CILD      .mm/m                       : CILD       
 DPHI      .V/V                        : DPHI       
 DRHO      .G/C3                       : DRHO       
 DT        .US/F                       : DT         
 GR        .GAPI                       : GR         
 ILD       .OHMM                       : ILD        
 MINV      .OHMM                       : MINV       
 MLL       .OHMM                       : MLL        
 MNOR      .OHMM                       : MNOR       
 NEUT      .NAPI                       : NEUT       
 NPHI      .V/V                        : NPHI       
 PROX      .OHMM                       : PROX       
 RHOB      .G/C3                       : RHOB       
 SN        .OHMM                       : SN         
 SP        .MV                         : SP         
 SPHI      .V/V                        : SPHI       
 TEMP      .DEGC                       : TEMP       
~A Log data section
# ...
 1206.1312        10.8958       644.2840         0.1613         0.0158       107.2411        73.8586         1.5519         1.2647      -999.0000         0.9000       392.2969         0.2663         1.3887         2.3838         1.3477       -44.5828         0.3876      -999.0000 
 1206.2836        10.8898       649.3903         0.1563         0.0182       106.7123        73.3492         1.5387         1.2594      -999.0000         1.0192       387.8815         0.2729         1.4436         2.3921         1.3467       -44.8844         0.3836      -999.0000 
 1206.4360        10.9441       657.8918         0.1553         0.0164       106.1827        72.5379         1.5197         1.3401      -999.0000         1.0604       377.8513         0.2768         1.4405         2.3938         1.3386       -44.9700         0.3796      -999.0000 
 1206.5884        10.9400       668.7688         0.1596         0.0260       106.1645        72.2561         1.4965         1.4603      -999.0000         1.1405       374.2401         0.2670         1.3750         2.3866         1.3226       -45.1314         0.3795      -999.0000 
 1206.7408        10.9629       676.8786         0.1601         0.0327       107.2583        71.5963         1.4764         1.4200      -999.0000         1.2600       373.2821         0.2548         1.5064         2.3858         1.2751       -45.3317         0.3877      -999.0000 
 1206.8932        10.9858       686.2539         0.1659         0.0362       107.4201        71.1460         1.4582         1.4200      -999.0000         1.1000       367.4355         0.2593         1.4387         2.3762         1.2442       -45.4166         0.3889      -999.0000 
 1207.0456        10.9811       694.1544         0.1744         0.0337       107.1012        70.0791         1.4395         1.3800      -999.0000         1.1007       365.8882         0.2644         1.4425         2.3623         1.2307       -45.5088         0.3865      -999.0000 
 1207.1980        10.9896       703.9847         0.1802         0.0319       106.7869        69.1955         1.4218         1.3800      -999.0000         1.0945       365.7309         0.2661         1.4290         2.3526         1.2226       -45.5501         0.3842      -999.0000 
 1207.3504        11.0014       711.6395         0.1761         0.0352       106.4727        68.8233         1.4036         1.1000      -999.0000         0.8371       367.7146         0.2693         1.3418         2.3594         1.2236       -45.4394         0.3818      -999.0000 
 1207.5028        11.0273       722.6259         0.1743         0.0326       107.0033        68.7016         1.3857         1.3000      -999.0000         1.0200       371.5249         0.2717         1.3542         2.3624         1.2190       -45.4027         0.3858      -999.0000 
 1207.6552        11.0459       730.4534         0.1783         0.0241       108.3813        68.7449         1.3694         1.3400      -999.0000         1.0600       373.5216         0.2633         1.3662         2.3558         1.2185       -45.3287         0.3961      -999.0000 
 1207.8076        11.0813       734.4036         0.1826         0.0256       109.7593        68.4437         1.3614         1.2955      -999.0000         1.1000       373.3055         0.2620         1.3533         2.3487         1.2073       -45.2820         0.4064      -999.0000 
 1207.9600        11.1082       738.6362         0.1846         0.0270       111.1373        68.0264         1.3530         1.1353      -999.0000         0.8886       373.9252         0.2767         1.3153         2.3455         1.1961       -45.1812         0.4168      -999.0000 
 1208.1124        11.1378       746.0181         0.1880         0.0257       111.8529        67.8675         1.3414         1.2664      -999.0000         1.0018       375.7258         0.2741         1.3398         2.3397         1.1849       -45.0537         0.4221      -999.0000 
 1208.2648        11.1561       751.4701         0.1898         0.0277       110.7362        68.2589         1.3310         1.3800      -999.0000         1.0600       377.6939         0.2686         1.3522         2.3368         1.1737       -45.0245         0.4138      -999.0000 
 1208.4172        11.1715       754.5466         0.1835         0.0320       109.7692        68.3824         1.3260         1.3400      -999.0000         1.0200       376.9114         0.2593         1.3398         2.3472         1.1625       -45.2337         0.4065      -999.0000 
 1208.5696        11.1884       754.9287         0.1800         0.0316       108.7638        69.0695         1.3259         1.3800      -999.0000         1.1001       380.8960         0.2509         1.3900         2.3531         1.1513       -45.3840         0.3990      -999.0000 
 1208.7220        11.2155       750.1681         0.1830         0.0285       109.8788        69.3832         1.3338         1.4600      -999.0000         1.1763       385.3854         0.2475         1.4029         2.3480         1.1598       -45.4104         0.4073      -999.0000 
 1208.8744        11.2115       741.2480         0.1908         0.0254       112.2989        69.8723         1.3487         1.4200      -999.0000         1.2134       389.2205         0.2508         1.3900         2.3351         1.1709       -45.4102         0.4255      -999.0000 
 1209.0268        11.2266       733.1017         0.1930         0.0250       114.5531        70.4281         1.3651         1.5000      -999.0000         1.1000       390.0459         0.2642         1.4029         2.3316         1.1820       -45.3406         0.4423      -999.0000 
 1209.1792        11.2343       723.0620         0.1951         0.0275       116.8140        70.9967         1.3832         1.4200      -999.0000         1.1800       392.8086         0.2710         1.4266         2.3281         1.1931       -45.1855         0.4593      -999.0000 
 1209.3316        11.2396       711.7663         0.1924         0.0307       119.3225        71.7239         1.4042         1.4600      -999.0000         1.1800       392.0718         0.2796         1.4141         2.3325         1.2042       -45.0732         0.4781      -999.0000 
 1209.4840        11.2365       703.2014         0.1857         0.0280       113.0459        72.2113         1.4220         1.3400      -999.0000         1.0200       393.4107         0.2851         1.3773         2.3436         1.2153       -44.9240         0.4311      -999.0000 
 1209.6364        11.2162       696.3475         0.1829         0.0285       112.7130        72.7419         1.4355         1.4200      -999.0000         1.1800       394.9205         0.2738         1.3773         2.3482         1.2264       -44.9004         0.4286      -999.0000 
 1209.7888        11.2008       691.5235         0.1810         0.0324       112.9609        73.5067         1.4466         1.4200      -999.0000         1.1000       395.4122         0.2631         1.4156         2.3513         1.2375       -44.9306         0.4304      -999.0000 
 1209.9412        11.2129       686.1714         0.1799         0.0386       112.6248        74.3490         1.4565         1.2272      -999.0000         1.0671       397.0495         0.2559         1.4045         2.3531         1.2486       -44.7023         0.4279      -999.0000 
 1210.0936        11.2159       682.9221         0.1808         0.0453       110.4692        74.6965         1.4643         1.5000      -999.0000         1.2200       395.7993         0.2491         1.4304         2.3516         1.2597       -44.5920         0.4118      -999.0000 
 1210.2460        11.2207       680.9288         0.1786         0.0485       112.0855        74.3141         1.4683         1.4200      -999.0000         1.1000       395.0459         0.2453         1.3653         2.3553         1.2708       -44.8072         0.4239      -999.0000 
 1210.3984        11.2091       679.8456         0.1773         0.0478       115.9041        72.9172         1.4708         1.3800      -999.0000         1.1000       392.8865         0.2442         1.3515         2.3575         1.2376       -44.9056         0.4525      -999.0000 
