~VERSION INFORMATION
 VERS.                 2.0:   CWLS LOG ASCII STANDARD - VERSION 2.0
 WRAP.                  NO:   SINGLE LINE PER DEPTH STEP
~WELL INFORMATION
#MNEM.UNIT       DATA           DESCRIPTION MNEMONIC
#---------    -------------   --------------------------
 STRT.M         4.0000                      : START DEPTH
 STOP.M         2049.9700                     : STOP DEPTH
 STEP.M         0.1524                        : STEP VALUE
 NULL.          -999.0000                     : NULL VALUE
 SRVC.          PYPOZO                        : Service Company/Logging company
 DATE.          05/07/2025                    : LAS file Creation Date
 WELL    .      ARIEL-1                        : Well Name
 COMP    .      PYPOZO 2.0                    : Company
 FLD     .      UNKNOWN                       : Field
 LOC     .      UNKNOWN                       : Location
 LATI    .      0                             : Latitude/Northing
 LONG    .      0                             : Longitude/Easting
 APDAT   .      0                             : Elevation Above Permanent Datum
~CURVE INFORMATION
#MNEM          UNIT     API CODE   Curve Type Comments
#---------- ---------- ----------  ---------- --------
 DEPTH     .M                    : Depth      
 CALI      .IN                         : CALI       
 CILD      .mm/m                       : CILD       
 DPHI      .V/V                        : DPHI       
 DRHO      .G/C3                       : DRHO       
 DT        .US/F                       : DT         
 GR        .GAPI                       : GR         
 ILD       .OHMM                       : ILD        
 MINV      .OHMM                       : MINV       
 MLL       .OHMM                       : MLL        
 MNOR      .OHMM                       : MNOR       
 NEUT      .NAPI                       : NEUT       
 NPHI      .V/V                        : NPHI       
 PROX      .OHMM                       : PROX       
 RHOB      .G/C3                       : RHOB       
 SN        .OHMM                       : SN         
 SP        .MV                         : SP         
 SPHI      .V/V                        : SPHI       
 TEMP      .DEGC                       : TEMP       
~A Log data section
# ...
 1484.5660        11.2494       312.0720         0.1145         0.1106        92.0603        64.1352         3.2060         1.5114      -999.0000         1.9358       517.5490         0.1995         3.8285         2.4611         3.0707       -40.3609         0.2739      -999.0000 
 1484.7184        11.2451       310.4973         0.0995         0.1205        91.2923        62.8481         3.2200         1.5005      -999.0000         1.9400       513.9540         0.2019         3.8285         2.4858         3.0653       -40.2844         0.2681      -999.0000 
 1484.8708        11.1955       308.9591         0.1036         0.1243        90.8915        61.5217         3.2359         1.3797      -999.0000         1.7108       513.5658         0.2135         4.0460         2.4790         3.0682       -40.2448         0.2651      -999.0000 
 1485.0232        11.1168       308.0853         0.1052         0.1089        91.1725        60.4502         3.2467         1.3800      -999.0000         1.7587       518.8670         0.2270         4.2759         2.4765         3.0840       -40.2556         0.2672      -999.0000 
 1485.1756        11.1243       306.9657         0.0920         0.1188        91.4889        59.6356         3.2569         1.4600      -999.0000         1.9000       526.0071         0.2392         4.1213         2.4982         3.1147       -40.1873         0.2696      -999.0000 
 1485.3280        11.1264       306.0920         0.0679         0.1470        91.7922        59.2025         3.2679         1.4200      -999.0000         1.9000       532.6387         0.2401         3.7934         2.5380         3.1315       -40.2877         0.2719      -999.0000 
 1485.4804        11.1650       304.9724         0.0551         0.1541        92.0425        58.3919         3.2782         1.4200      -999.0000         1.8947       533.6096         0.2330         4.1979         2.5590         3.1446       -40.3882         0.2737      -999.0000 
 1485.6328        11.1765       304.0986         0.0601         0.1381        91.4741        58.3921         3.2876         1.4200      -999.0000         1.8724       539.2736         0.2198         3.3039         2.5508         3.1565       -40.4886         0.2695      -999.0000 
 1485.7852        11.1933       303.8893         0.0626         0.1259        91.3795        58.4023         3.2915         1.4600      -999.0000         1.8591       547.5652         0.2102         4.0460         2.5467         3.1708       -40.5891         0.2688      -999.0000 
 1485.9376        11.1555       303.4341         0.0633         0.1173        91.6209        59.1079         3.2948         1.4200      -999.0000         1.8211       551.1316         0.2092         4.2367         2.5456         3.1908       -40.6895         0.2706      -999.0000 
 1486.0900        11.0998       303.2248         0.0599         0.1320        91.8603        59.4989         3.2970         1.3800      -999.0000         1.7431       557.3815         0.2113         3.7242         2.5512         3.1977       -40.7900         0.2724      -999.0000 
 1486.2424        10.9977       303.6799         0.0592         0.1397        90.8387        60.3918         3.2929         1.3800      -999.0000         1.7400       562.0355         0.2044         3.8815         2.5523         3.1941       -40.8904         0.2647      -999.0000 
 1486.3948        10.9919       304.3444         0.0828         0.1149        89.8400        60.9499         3.2833         1.3000      -999.0000         1.7400       571.5175         0.2035         3.3623         2.5135         3.1840       -40.9909         0.2572      -999.0000 
 1486.5472        11.0154       306.3278         0.0857         0.0959        89.1536        61.6964         3.2635         1.3839      -999.0000         1.7757       578.2399         0.2053         3.0411         2.5086         3.1736       -41.0913         0.2521      -999.0000 
 1486.6996        11.0517       309.4779         0.0802         0.1166        89.5499        62.1812         3.2322         1.3399      -999.0000         1.8165       592.2971         0.2065         3.5566         2.5176         3.1639       -41.1918         0.2551      -999.0000 
 1486.8520        11.1532       312.3558         0.0786         0.1516        89.9618        63.0845         3.2014         1.3783      -999.0000         1.8200       595.2539         0.2058         3.7586         2.5203         3.1527       -41.2922         0.2581      -999.0000 
 1487.0044        11.1046       315.0383         0.0903         0.1239        90.1566        63.6359         3.1744         1.3800      -999.0000         1.5847       605.0964         0.2035         3.0692         2.5010         3.1417       -41.3927         0.2596      -999.0000 
 1487.1568        11.0597       317.6268         0.0980         0.0960        89.3485        64.2905         3.1489         1.5000      -999.0000         1.5763       609.5690         0.2018         2.9582         2.4883         3.1463       -41.4931         0.2535      -999.0000 
 1487.3092        11.0663       319.8468         0.0985         0.0914        88.7559        64.3511         3.1251         1.4200      -999.0000         1.7400       613.7136         0.2019         3.1263         2.4874         3.1611       -41.5935         0.2491      -999.0000 
 1487.4616        11.0684       322.7761         0.1001         0.0971        89.0291        63.9827         3.1025         1.4600      -999.0000         1.6600       617.1369         0.2041         3.8399         2.4848         3.1592       -41.2061         0.2512      -999.0000 
 1487.6140        11.0527       323.3677         0.1056         0.0847        89.6093        63.2213         3.0940         1.3800      -999.0000         1.7800       619.5010         0.2074         3.5451         2.4758         3.1544       -41.0236         0.2555      -999.0000 
 1487.7664        11.0194       321.7930         0.1058         0.0775        89.5491        62.8189         3.1085         1.6507      -999.0000         1.6200       622.3358         0.2065         3.4596         2.4755         3.1649       -41.0308         0.2550      -999.0000 
 1487.9188        10.9885       319.3446         0.1001         0.0866        88.8197        63.0239         3.1316         2.5800      -999.0000         2.5800       622.4975         0.2072         7.0312         2.4849         3.1950       -40.9154         0.2496      -999.0000 
 1488.0712        10.9951       316.6868         0.1073         0.0885        89.2029        63.4403         3.1618         1.5800      -999.0000         2.0200       619.3363         0.2142         3.7586         2.4730         3.2273       -40.5324         0.2525      -999.0000 
 1488.2236        10.9572       311.7956         0.1186         0.0611        89.5909        63.6257         3.2065         2.6600      -999.0000         2.7400       617.0393         0.2236         6.4920         2.4543         3.2773       -40.7619         0.2554      -999.0000 
 1488.3760        10.7456       306.6976         0.1283         0.0368        89.9827        63.1267         3.2710         1.8600      -999.0000         2.2200       608.6213         0.2281         4.0975         2.4382         3.3808       -41.0267         0.2583      -999.0000 
 1488.5284        10.6424       296.8229         0.1152         0.0379        90.3836        62.5959         3.3703         3.2331      -999.0000         3.3375       600.1780         0.2273         7.8529         2.4599         3.5227       -41.2914         0.2613      -999.0000 
 1488.6808        10.6041       285.4900         0.0829         0.0495        90.8234        61.5109         3.5241         5.0600      -999.0000         5.1000       592.7830         0.2260         4.5189         2.5132         3.5967       -41.5562         0.2646      -999.0000 
 1488.8332        10.6706       266.9190         0.0870         0.0608        90.6074        60.6656         3.7396         2.3800      -999.0000         2.5400       586.9575         0.2188         5.4831         2.5065         3.6073       -41.8208         0.2630      -999.0000 
