~VERSION INFORMATION
 VERS.                 2.0:   CWLS LOG ASCII STANDARD - VERSION 2.0
 WRAP.                  NO:   SINGLE LINE PER DEPTH STEP
~WELL INFORMATION
#MNEM.UNIT       DATA           DESCRIPTION MNEMONIC
#---------    -------------   --------------------------
 STRT.M         4.0000                      : START DEPTH
 STOP.M         2049.9700                     : STOP DEPTH
 STEP.M         0.1524                        : STEP VALUE
 NULL.          -999.0000                     : NULL VALUE
 SRVC.          PYPOZO                        : Service Company/Logging company
 DATE.          05/07/2025                    : LAS file Creation Date
 WELL    .      ARIEL-1                        : Well Name
 COMP    .      PYPOZO 2.0                    : Company
 FLD     .      UNKNOWN                       : Field
 LOC     .      UNKNOWN                       : Location
 LATI    .      0                             : Latitude/Northing
 LONG    .      0                             : Longitude/Easting
 APDAT   .      0                             : Elevation Above Permanent Datum
~CURVE INFORMATION
#MNEM          UNIT     API CODE   Curve Type Comments
#---------- ---------- ----------  ---------- --------
 DEPTH     .M                    : Depth      
 CALI      .IN                         : CALI       
 CILD      .mm/m                       : CILD       
 DPHI      .V/V                        : DPHI       
 DRHO      .G/C3                       : DRHO       
 DT        .US/F                       : DT         
 GR        .GAPI                       : GR         
 ILD       .OHMM                       : ILD        
 MINV      .OHMM                       : MINV       
 MLL       .OHMM                       : MLL        
 MNOR      .OHMM                       : MNOR       
 NEUT      .NAPI                       : NEUT       
 NPHI      .V/V                        : NPHI       
 PROX      .OHMM                       : PROX       
 RHOB      .G/C3                       : RHOB       
 SN        .OHMM                       : SN         
 SP        .MV                         : SP         
 SPHI      .V/V                        : SPHI       
 TEMP      .DEGC                       : TEMP       
~A Log data section
# ...
 1276.8448        11.6769       787.3344         0.0895        -0.0077       112.8979        79.1662         1.2706         1.1800      -999.0000         1.0200       459.5188         0.2417         1.3275         2.5022         1.0060       -44.8257         0.4299      -999.0000 
 1276.9972        11.7608       766.6930         0.0853        -0.0046       113.4471        78.4256         1.3030         1.1800      -999.0000         1.0200       459.5831         0.2449         1.3153         2.5093         1.0356       -44.7689         0.4341      -999.0000 
 1277.1496        11.8057       752.1859         0.0822         0.0018       113.5305        78.2847         1.3293         1.1800      -999.0000         1.0200       458.9124         0.2443         1.3517         2.5144         1.0685       -44.6358         0.4347      -999.0000 
 1277.3020        11.8009       741.8373         0.0833         0.0069       112.5750        78.4271         1.3478         1.1400      -999.0000         0.9800       457.0868         0.2361         1.4313         2.5126         1.0891       -44.4039         0.4275      -999.0000 
 1277.4544        11.8462       733.2112         0.0870         0.0063       111.5653        79.1565         1.3631         1.1400      -999.0000         0.9800       453.8570         0.2269         1.4711         2.5064         1.0998       -44.2554         0.4200      -999.0000 
 1277.6068        11.8734       727.8361         0.0944         0.0024       110.5556        79.3990         1.3739         1.1400      -999.0000         0.9800       451.5883         0.2237         1.3270         2.4942         1.0997       -44.1086         0.4124      -999.0000 
 1277.7592        11.9249       723.8997         0.0973        -0.0008       109.5459        80.2520         1.3789         1.1400      -999.0000         0.9800       447.9217         0.2268         1.3647         2.4894         1.0949       -44.0634         0.4048      -999.0000 
 1277.9116        11.9959       727.7878         0.1004         0.0006       108.5362        80.2751         1.3746         1.1400      -999.0000         0.9800       443.9429         0.2268         1.3275         2.4844         1.0894       -44.1811         0.3973      -999.0000 
 1278.0640        12.0890       733.3205         0.1055         0.0004       107.5265        80.2806         1.3617         1.1400      -999.0000         0.9800       437.4587         0.2268         1.4029         2.4759         1.0927       -44.2167         0.3897      -999.0000 
 1278.2164        12.2007       744.3434         0.1093        -0.0019       106.8592        80.2242         1.3470         1.1400      -999.0000         0.9800       433.7755         0.2270         1.4556         2.4697         1.0903       -44.1301         0.3847      -999.0000 
 1278.3688        12.2540       746.9188         0.1071        -0.0073       107.6649        79.4589         1.3391         1.1400      -999.0000         0.9800       433.0523         0.2260         1.4159         2.4733         1.0865       -43.9930         0.3907      -999.0000 
 1278.5212        12.3125       743.3508         0.1075        -0.0092       108.4561        79.0397         1.3452         1.1400      -999.0000         0.9800       430.7582         0.2259         1.4826         2.4727         1.0831       -43.8676         0.3967      -999.0000 
 1278.6736        12.3332       739.8192         0.1075        -0.0069       109.2473        77.6848         1.3513         1.1400      -999.0000         0.9800       429.8145         0.2258         1.4826         2.4726         1.0761       -43.7189         0.4026      -999.0000 
 1278.8260        12.3342       737.8622         0.1042        -0.0047       110.0243        75.0718         1.3554         1.1400      -999.0000         0.9800       431.3060         0.2259         1.3522         2.4781         1.0731       -43.6969         0.4084      -999.0000 
 1278.9784        12.3374       736.0783         0.1032        -0.0037       109.6976        73.8462         1.3567         1.1400      -999.0000         0.9800       428.4510         0.2219         1.3522         2.4797         1.0859       -43.7908         0.4060      -999.0000 
 1279.1308        12.3357       740.0015         0.1031        -0.0096       108.6523        72.8244         1.3514         1.1400      -999.0000         0.9800       423.2815         0.2222         1.3275         2.4798         1.0987       -44.0852         0.3981      -999.0000 
 1279.2832        12.3599       746.6460         0.1046        -0.0152       108.6720        73.1400         1.3399         1.1400      -999.0000         0.9800       419.9516         0.2221         1.3033         2.4773         1.1115       -44.2990         0.3983      -999.0000 
 1279.4356        12.3825       751.4700         0.1105        -0.0196       109.4747        74.5050         1.3311         1.1400      -999.0000         0.9800       417.4941         0.2192         1.2219         2.4677         1.0892       -44.4492         0.4043      -999.0000 
 1279.5880        12.4225       754.0914         0.1313        -0.0161       110.2806        75.7881         1.3244         1.1400      -999.0000         0.9800       414.8978         0.2164         1.3033         2.4334         1.0814       -44.4797         0.4103      -999.0000 
 1279.7404        12.4313       762.0150         0.1348        -0.0127       111.0291        77.0836         1.3113         1.1372      -999.0000         0.9758       417.3199         0.2110         1.2561         2.4276         1.0577       -44.4708         0.4159      -999.0000 
 1279.8928        12.4722       776.2798         0.1172        -0.0033       110.3512        78.6336         1.2896         1.1327      -999.0000         0.9713       415.5516         0.2141         1.2913         2.4566         1.0388       -44.3786         0.4109      -999.0000 
 1280.0452        12.5565       787.4988         0.1048         0.0063       109.2389        79.4352         1.2696         1.1282      -999.0000         0.9668       411.0745         0.2151         1.2795         2.4771         1.0185       -44.2605         0.4025      -999.0000 
 1280.1976        12.6389       797.5563         0.1048         0.0163       108.1192        79.4134         1.2539         1.1237      -999.0000         0.9623       405.2857         0.2119         1.2913         2.4771         1.0057       -44.1105         0.3942      -999.0000 
 1280.3500        12.6619       808.0821         0.1030         0.0102       107.9261        78.9540         1.2376         1.1192      -999.0000         0.9578       405.8122         0.2178         1.2321         2.4801         1.0030       -44.0713         0.3927      -999.0000 
 1280.5024        12.6659       818.4072         0.1076         0.0059       108.9290        78.9349         1.2219         1.1147      -999.0000         0.9533       403.6758         0.2293         1.2996         2.4725         1.0028       -44.0667         0.4002      -999.0000 
 1280.6548        12.6634       828.5096         0.1191         0.0035       109.8748        79.4029         1.2071         1.1102      -999.0000         0.9488       403.1557         0.2367         1.0642         2.4535         0.9989       -44.1839         0.4073      -999.0000 
 1280.8072        12.6604       838.3752         0.1209         0.0067       110.8117        79.5909         1.1927         1.1058      -999.0000         0.9443       399.6399         0.2413         1.0257         2.4505         0.9905       -44.4866         0.4143      -999.0000 
 1280.9596        12.6847       848.6550         0.1221         0.0088       111.7785        79.8959         1.1773         1.1004      -999.0000         0.9400       398.2697         0.2441         1.0741         2.4486         0.9830       -44.8754         0.4216      -999.0000 
 1281.1120        12.7203       863.9833         0.1223         0.0109       112.7599        79.7648         1.1558         1.1382      -999.0000         0.9800       393.7828         0.2299         1.1456         2.4482         0.9648       -45.2344         0.4289      -999.0000 
