~VERSION INFORMATION
 VERS.                 2.0:   CWLS LOG ASCII STANDARD - VERSION 2.0
 WRAP.                  NO:   SINGLE LINE PER DEPTH STEP
~WELL INFORMATION
#MNEM.UNIT       DATA           DESCRIPTION MNEMONIC
#---------    -------------   --------------------------
 STRT.M         4.0000                      : START DEPTH
 STOP.M         2049.9700                     : STOP DEPTH
 STEP.M         0.1524                        : STEP VALUE
 NULL.          -999.0000                     : NULL VALUE
 SRVC.          PYPOZO                        : Service Company/Logging company
 DATE.          05/07/2025                    : LAS file Creation Date
 WELL    .      ARIEL-1                        : Well Name
 COMP    .      PYPOZO 2.0                    : Company
 FLD     .      UNKNOWN                       : Field
 LOC     .      UNKNOWN                       : Location
 LATI    .      0                             : Latitude/Northing
 LONG    .      0                             : Longitude/Easting
 APDAT   .      0                             : Elevation Above Permanent Datum
~CURVE INFORMATION
#MNEM          UNIT     API CODE   Curve Type Comments
#---------- ---------- ----------  ---------- --------
 DEPTH     .M                    : Depth      
 CALI      .IN                         : CALI       
 CILD      .mm/m                       : CILD       
 DPHI      .V/V                        : DPHI       
 DRHO      .G/C3                       : DRHO       
 DT        .US/F                       : DT         
 GR        .GAPI                       : GR         
 ILD       .OHMM                       : ILD        
 MINV      .OHMM                       : MINV       
 MLL       .OHMM                       : MLL        
 MNOR      .OHMM                       : MNOR       
 NEUT      .NAPI                       : NEUT       
 NPHI      .V/V                        : NPHI       
 PROX      .OHMM                       : PROX       
 RHOB      .G/C3                       : RHOB       
 SN        .OHMM                       : SN         
 SP        .MV                         : SP         
 SPHI      .V/V                        : SPHI       
 TEMP      .DEGC                       : TEMP       
~A Log data section
# ...
  998.4100         9.2450       653.3868      -999.0000      -999.0000       117.2381      -999.0000         1.5280      -999.0000      -999.0000      -999.0000      -999.0000      -999.0000      -999.0000      -999.0000         1.2116       -44.2061         0.4625      -999.0000 
  998.5624         9.2229       679.0644      -999.0000      -999.0000       117.9487      -999.0000         1.4779         1.4200      -999.0000         1.1800      -999.0000      -999.0000         1.2561      -999.0000         1.1925       -44.2085         0.4678      -999.0000 
  998.7148         9.1995       695.5564         0.2661        -0.0002       118.6592      -999.0000         1.4343         1.4200      -999.0000         1.1800      -999.0000      -999.0000         1.2561         2.2110         1.1741       -44.2098         0.4731      -999.0000 
  998.8672         9.1739       716.6558         0.2661        -0.0002       119.4410        81.8725         1.3985         1.4200      -999.0000         1.1800       439.4395      -999.0000         1.2561         2.2110         1.1515       -44.2053         0.4790      -999.0000 
  999.0196         9.1697       734.3112         0.2661        -0.0002       119.8184        81.8725         1.3630         1.4200      -999.0000         1.1800       439.4395      -999.0000         1.2561         2.2110         1.1261       -44.3330         0.4818      -999.0000 
  999.1720         9.1703       744.6591         0.2661        -0.0002       120.2185        81.8725         1.3431         1.4200      -999.0000         1.1800       439.4395         0.2745         1.2561         2.2110         1.1057       -44.4906         0.4848      -999.0000 
  999.3244         9.1993       752.8721         0.2661        -0.0002       119.4377        81.8725         1.3295         1.4200      -999.0000         1.1800       439.4395         0.2745         1.2561         2.2110         1.0693       -44.6914         0.4789      -999.0000 
  999.4768         9.2369       756.7493         0.2661        -0.0002       118.2397        81.8725         1.3212         1.4200      -999.0000         1.1800       439.4395         0.2745         1.2561         2.2110         1.0481       -44.7466         0.4700      -999.0000 
  999.6292         9.2788       759.6529         0.2661        -0.0002       117.0415        81.8725         1.3172         1.4200      -999.0000         1.1800       439.4395         0.2745         1.2561         2.2110         1.0348       -44.7516         0.4610      -999.0000 
  999.7816         9.3126       760.2443         0.2661        -0.0002       115.8434        81.8725         1.3162         1.4200      -999.0000         1.1800       439.4395         0.2745         1.2561         2.2110         0.9823       -44.6473         0.4520      -999.0000 
  999.9340         9.7550       756.8491         0.2661        -0.0002       114.7522        81.8725         1.3210         1.4200      -999.0000         1.1800       439.4395         0.2745         1.2561         2.2110         1.0015       -44.4958         0.4438      -999.0000 
 1000.0864         9.7888       753.1082         0.2618        -0.0002       115.5584        81.8725         1.3288         1.3000      -999.0000         0.9800       437.4374         0.2681         1.2446         2.2181         1.0207       -44.2850         0.4499      -999.0000 
 1000.2388         9.8456       746.5999         0.2541         0.0027       116.8603        82.2709         1.3394         1.2200      -999.0000         0.9000       435.4354         0.2617         1.1456         2.2307         1.0399       -44.3032         0.4596      -999.0000 
 1000.3912         9.8920       739.0816         0.2461         0.0060       117.3594        82.2709         1.3524         1.2200      -999.0000         0.9000       433.4334         0.2553         1.2339         2.2439         1.0591       -44.4692         0.4634      -999.0000 
 1000.5436         9.8858       734.0483         0.2393         0.0235       118.6106        82.2709         1.3629         1.3400      -999.0000         1.0200       435.4354         0.2534         1.2324         2.2552         1.0783       -44.6732         0.4727      -999.0000 
 1000.6960         9.9623       728.2411         0.2445         0.0472       121.7691        81.8725         1.3757         1.3000      -999.0000         0.9782       435.4354         0.2611         1.2438         2.2466         1.0975       -44.9307         0.4964      -999.0000 
 1000.8484        10.0254       714.3143         0.2604         0.0524       124.7281        81.0757         1.3995         1.3338      -999.0000         1.0141       439.4394         0.2693         1.2444         2.2203         1.0777       -45.2006         0.5186      -999.0000 
 1001.0008        10.0437       699.7694         0.2682         0.0327       127.7886        80.9559         1.4289         1.3400      -999.0000         1.0221       438.4205         0.2787         1.3530         2.2075         1.0521       -45.4729         0.5415      -999.0000 
 1001.1532        10.0222       687.8458         0.2669         0.0339       129.1566        80.6876         1.4536         1.3800      -999.0000         1.0600       436.8769         0.2881         1.2561         2.2096         1.0725       -45.5428         0.5517      -999.0000 
 1001.3056         9.9887       677.9156         0.2633         0.0340       126.9324        80.7892         1.4751         1.3800      -999.0000         1.0600       435.4255         0.2865         1.3275         2.2155         1.0803       -45.5433         0.5351      -999.0000 
 1001.4580         9.9654       669.0684         0.2641         0.0369       124.6416        81.9653         1.4936         1.3000      -999.0000         0.9800       433.9273         0.2851         1.1886         2.2142         1.1399       -45.3372         0.5179      -999.0000 
 1001.6104         9.7815       663.6165         0.2634         0.0388       122.4085        82.2836         1.5071         1.3383      -999.0000         1.0183       433.1029         0.2884         1.1996         2.2153         1.1997       -45.0987         0.5012      -999.0000 
 1001.7628         9.5841       659.1746         0.2577         0.0415       120.1094        83.4767         1.5164         1.3800      -999.0000         1.0600       431.0210         0.2847         1.2219         2.2247         1.2354       -44.7184         0.4840      -999.0000 
 1001.9152         9.5800       656.3440         0.2457         0.0518       117.7302        84.7012         1.5234         1.3000      -999.0000         0.9800       431.4136         0.2794         1.2446         2.2446         1.2275       -44.4009         0.4661      -999.0000 
 1002.0676         9.5874       654.8058         0.2360         0.0719       115.4219        85.7294         1.5256         1.3000      -999.0000         0.9800       428.0110         0.2731         1.2332         2.2607         1.1889       -44.1611         0.4489      -999.0000 
 1002.2200         9.6219       657.5731         0.2275         0.0941       114.0289        86.3630         1.5211         1.3000      -999.0000         0.9800       429.1811         0.2663         1.2107         2.2747         1.1553       -43.8122         0.4384      -999.0000 
 1002.3724         9.6564       661.3140         0.2390         0.0925       113.0969        86.7822         1.5097         1.3000      -999.0000         0.9800       427.3651         0.2592         1.2677         2.2556         1.1244       -43.6134         0.4314      -999.0000 
 1002.5248         9.7505       671.0082         0.2445         0.0788       112.0645        87.0352         1.4899         1.5400      -999.0000         1.2200       425.9042         0.2445         1.2561         2.2466         1.1020       -43.4825         0.4237      -999.0000 
 1002.6772         9.8987       684.9982         0.2448         0.0663       113.9558        87.2988         1.4619         1.1400      -999.0000         0.8200       425.0203         0.2441         1.2795         2.2460         1.1010       -43.4178         0.4379      -999.0000 
