~VERSION INFORMATION
 VERS.                 2.0:   CWLS LOG ASCII STANDARD - VERSION 2.0
 WRAP.                  NO:   SINGLE LINE PER DEPTH STEP
~WELL INFORMATION
#MNEM.UNIT       DATA           DESCRIPTION MNEMONIC
#---------    -------------   --------------------------
 STRT.M         4.0000                      : START DEPTH
 STOP.M         2049.9700                     : STOP DEPTH
 STEP.M         0.1524                        : STEP VALUE
 NULL.          -999.0000                     : NULL VALUE
 SRVC.          PYPOZO                        : Service Company/Logging company
 DATE.          05/07/2025                    : LAS file Creation Date
 WELL    .      ARIEL-1                        : Well Name
 COMP    .      PYPOZO 2.0                    : Company
 FLD     .      UNKNOWN                       : Field
 LOC     .      UNKNOWN                       : Location
 LATI    .      0                             : Latitude/Northing
 LONG    .      0                             : Longitude/Easting
 APDAT   .      0                             : Elevation Above Permanent Datum
~CURVE INFORMATION
#MNEM          UNIT     API CODE   Curve Type Comments
#---------- ---------- ----------  ---------- --------
 DEPTH     .M                    : Depth      
 CALI      .IN                         : CALI       
 CILD      .mm/m                       : CILD       
 DPHI      .V/V                        : DPHI       
 DRHO      .G/C3                       : DRHO       
 DT        .US/F                       : DT         
 GR        .GAPI                       : GR         
 ILD       .OHMM                       : ILD        
 MINV      .OHMM                       : MINV       
 MLL       .OHMM                       : MLL        
 MNOR      .OHMM                       : MNOR       
 NEUT      .NAPI                       : NEUT       
 NPHI      .V/V                        : NPHI       
 PROX      .OHMM                       : PROX       
 RHOB      .G/C3                       : RHOB       
 SN        .OHMM                       : SN         
 SP        .MV                         : SP         
 SPHI      .V/V                        : SPHI       
 TEMP      .DEGC                       : TEMP       
~A Log data section
# ...
 1135.4176        11.3333       863.3172         0.4221         0.0340       114.7063        83.1221         1.1553         0.9400      -999.0000         0.7000       375.7418         0.2742         1.1143         1.9536         0.9066       -46.9307         0.4435      -999.0000 
 1135.5700        11.4062       880.2835         0.4138         0.0275       114.1622        82.7389         1.1367         0.9800      -999.0000         0.7000       379.1668         0.2744         1.1244         1.9672         0.8929       -46.9021         0.4394      -999.0000 
 1135.7224        11.4390       901.2637         0.4116         0.0216       113.6398        82.4183         1.1066         0.8600      -999.0000         0.5800       379.1000         0.2742         1.1250         1.9709         0.8819       -46.8522         0.4355      -999.0000 
 1135.8748        11.4778       937.5819         0.4136         0.0201       114.5256        80.4100         1.0689         0.8600      -999.0000         0.5800       381.7755         0.2704         1.0424         1.9676         0.8651       -46.7604         0.4421      -999.0000 
 1136.0272        11.5037       972.7883         0.4174         0.0223       116.1934        79.0603         1.0297         0.8600      -999.0000         0.5800       387.4369         0.2732         0.9963         1.9613         0.8518       -46.6372         0.4546      -999.0000 
 1136.1796        11.4901       995.8251         0.4229         0.0174       117.8307        77.9507         1.0050         1.0200      -999.0000         0.7800       391.5108         0.2619         1.0545         1.9522         0.8386       -46.5169         0.4669      -999.0000 
 1136.3320        11.4745      1010.8696         0.4291         0.0111       119.4679        77.1876         0.9880         0.9800      -999.0000         0.9400       394.2862         0.2653         1.0840         1.9419         0.8213       -46.2903         0.4792      -999.0000 
 1136.4844        11.4311      1031.9520         0.4471         0.0088       121.1051        76.7671         0.9692         0.9400      -999.0000         0.8600       399.2833         0.2762         0.9978         1.9122         0.8091       -46.2185         0.4914      -999.0000 
 1136.6368        11.2780      1056.7185         0.4626         0.0115       122.7424        76.9782         0.9466         0.9000      -999.0000         0.7400       405.2062         0.2801         0.9617         1.8867         0.7958       -46.1132         0.5037      -999.0000 
 1136.7892        11.2422      1080.8712         0.4765         0.0116       124.1797        78.5426         0.9264         0.7000      -999.0000         0.7000       408.7866         0.2832         0.9978         1.8637         0.7848       -45.9744         0.5145      -999.0000 
 1136.9416        11.2851      1096.5491         0.4785         0.0061       122.2164        79.2477         0.9120         0.9800      -999.0000         0.6969       419.4446         0.2867         1.0545         1.8604         0.7749       -45.8402         0.4997      -999.0000 
 1137.0940        11.3799      1108.4540         0.4692         0.0037       120.4537        80.5656         0.9022         1.0600      -999.0000         0.7808       422.7836         0.2910         1.1042         1.8758         0.7647       -45.7044         0.4865      -999.0000 
 1137.2464        11.4236      1120.3623         0.4580         0.0048       118.6910        82.3266         0.8950         1.0600      -999.0000         0.7892       426.2621         0.2912         1.1322         1.8943         0.7542       -45.5586         0.4733      -999.0000 
 1137.3988        11.3249      1114.0396         0.4479         0.0070       117.0148        83.4120         0.8955         1.2200      -999.0000         1.0200       434.1393         0.2857         1.1442         1.9110         0.7343       -45.5143         0.4608      -999.0000 
 1137.5512        11.3064      1115.2805         0.4297         0.0116       118.0282        84.7200         0.8966         1.3400      -999.0000         1.0600       439.7920         0.2942         1.1563         1.9410         0.7192       -45.4457         0.4684      -999.0000 
 1137.7036        11.3113      1123.8523         0.4363         0.0097       119.0808        85.5879         0.8898         1.2986      -999.0000         1.0200       446.1112         0.2910         1.1685         1.9301         0.7084       -45.3052         0.4763      -999.0000 
 1137.8560        11.3747      1132.4266         0.4579         0.0062       120.1336        87.1445         0.8845         1.3775      -999.0000         1.1000       451.9852         0.2890         1.1777         1.8945         0.7469       -45.2791         0.4841      -999.0000 
 1138.0084        11.3992      1129.6902         0.4772         0.0046       121.4295        87.8786         0.8901         1.3422      -999.0000         1.0600       461.7639         0.2864         1.1886         1.8626         0.7319       -45.5723         0.4939      -999.0000 
 1138.1608        11.3543      1087.0898         0.4804         0.0061       122.9788        89.5940         0.9213         1.5000      -999.0000         1.1400       466.5042         0.2927         1.2112         1.8574         0.6892       -45.8377         0.5055      -999.0000 
 1138.3132        11.3336      1028.5162         0.4778         0.0075       124.4875        90.7760         0.9739         1.3800      -999.0000         1.1000       485.2543         0.2997         1.1889         1.8617         0.7127       -46.0277         0.5168      -999.0000 
 1138.4656        11.3596       969.9599         0.4777         0.0104       123.1444        92.4096         1.0323         1.3800      -999.0000         1.1400       489.1578         0.2941         1.1882         1.8618         0.7305       -46.0703         0.5067      -999.0000 
 1138.6180        11.4112       914.2534         0.4794         0.0128       120.8951        93.4798         1.0945         1.4200      -999.0000         1.1400       493.8646         0.2944         1.2332         1.8591         0.7559       -45.9907         0.4899      -999.0000 
 1138.7704        11.6093       865.5967         0.4803         0.0156       118.6459        94.6031         1.1570         1.4200      -999.0000         1.1400       495.9395         0.2873         1.2268         1.8576         0.7836       -45.8024         0.4730      -999.0000 
 1138.9228        11.5498       819.5573         0.4782         0.0173       116.3965        94.4370         1.2294         1.4200      -999.0000         1.2200       496.7975         0.2811         1.2107         1.8610         0.8105       -45.5967         0.4562      -999.0000 
 1139.0752        11.5123       750.0941         0.4687         0.0207       114.1472        92.7844         1.3272         1.5000      -999.0000         1.2200       495.4648         0.2827         1.2107         1.8766         0.8589       -45.4928         0.4393      -999.0000 
 1139.2276        11.4477       706.1587         0.4524         0.0238       111.8980        90.6680         1.4181         1.3800      -999.0000         1.1105       493.0925         0.2751         1.2211         1.9036         0.9022       -45.6833         0.4225      -999.0000 
 1139.3800        11.4416       676.6405         0.4386         0.0273       110.1519        86.0316         1.4724         1.4358      -999.0000         1.1777       488.3182         0.2664         1.2203         1.9263         0.9477       -45.9692         0.4094      -999.0000 
 1139.5324        11.6510       663.8258         0.4365         0.0287       109.3740        82.7458         1.5058         1.5000      -999.0000         1.2200       486.1663         0.2549         1.2578         1.9297         1.0186       -46.1346         0.4036      -999.0000 
 1139.6848        11.7261       660.9952         0.4432         0.0257       108.6396        80.3115         1.5132         1.4200      -999.0000         1.0200       483.3462         0.2391         1.2564         1.9187         1.0944       -46.1817         0.3980      -999.0000 
