~VERSION INFORMATION
 VERS.                 2.0:   CWLS LOG ASCII STANDARD - VERSION 2.0
 WRAP.                  NO:   SINGLE LINE PER DEPTH STEP
~WELL INFORMATION
#MNEM.UNIT       DATA           DESCRIPTION MNEMONIC
#---------    -------------   --------------------------
 STRT.M         4.0000                      : START DEPTH
 STOP.M         2049.9700                     : STOP DEPTH
 STEP.M         0.1524                        : STEP VALUE
 NULL.          -999.0000                     : NULL VALUE
 SRVC.          PYPOZO                        : Service Company/Logging company
 DATE.          05/07/2025                    : LAS file Creation Date
 WELL    .      ARIEL-1                        : Well Name
 COMP    .      PYPOZO 2.0                    : Company
 FLD     .      UNKNOWN                       : Field
 LOC     .      UNKNOWN                       : Location
 LATI    .      0                             : Latitude/Northing
 LONG    .      0                             : Longitude/Easting
 APDAT   .      0                             : Elevation Above Permanent Datum
~CURVE INFORMATION
#MNEM          UNIT     API CODE   Curve Type Comments
#---------- ---------- ----------  ---------- --------
 DEPTH     .M                    : Depth      
 CALI      .IN                         : CALI       
 CILD      .mm/m                       : CILD       
 DPHI      .V/V                        : DPHI       
 DRHO      .G/C3                       : DRHO       
 DT        .US/F                       : DT         
 GR        .GAPI                       : GR         
 ILD       .OHMM                       : ILD        
 MINV      .OHMM                       : MINV       
 MLL       .OHMM                       : MLL        
 MNOR      .OHMM                       : MNOR       
 NEUT      .NAPI                       : NEUT       
 NPHI      .V/V                        : NPHI       
 PROX      .OHMM                       : PROX       
 RHOB      .G/C3                       : RHOB       
 SN        .OHMM                       : SN         
 SP        .MV                         : SP         
 SPHI      .V/V                        : SPHI       
 TEMP      .DEGC                       : TEMP       
~A Log data section
# ...
 1550.8600         9.0066       177.0787         0.0608         0.0144        68.8307        45.5216         5.6801         7.5000      -999.0000        13.8114       902.2717         0.1431       135.9329         2.5498         6.5392       -66.2512         0.0999        72.2509 
 1551.0124         8.9492       165.8831         0.0500         0.0145        64.9769        44.5178         6.0278         6.1265      -999.0000        11.4004       874.1625         0.1536       105.3072         2.5675         6.8245       -67.3854         0.0710        72.2574 
 1551.1648         9.0431       155.3247         0.0310         0.0128        61.0851        43.2390         6.4814         3.5052      -999.0000         6.2443       860.4772         0.1665        27.2886         2.5989         8.3338       -68.9971         0.0418        72.2638 
 1551.3172         9.0725       142.3815         0.0115         0.0032        59.3549        41.1164         7.1941         1.9000      -999.0000         3.3000       871.8121         0.1772        13.0102         2.6311         9.0562       -69.0706         0.0289        72.2702 
 1551.4696         9.0402       117.2962        -0.0013        -0.0015        60.6204        37.4216         8.5201         1.9000      -999.0000         3.1800       881.8140         0.1733        13.6296         2.6521         9.9538       -68.4383         0.0384        72.2766 
 1551.6220         9.0083       101.0492        -0.0118         0.0003        64.2710        33.5453        10.4220         2.1008      -999.0000         3.3800       899.2274         0.1592        14.6903         2.6695        13.6566       -68.1604         0.0657        72.2831 
 1551.7744         8.9920        86.5313         0.0106         0.0039        68.0177        31.6099        12.3295         2.5502      -999.0000         4.1000       909.6537         0.1429        16.2566         2.6326        17.9476       -68.3764         0.0938        72.2894 
 1551.9268         8.9355        77.2017         0.0369         0.0045        71.7347        29.8184        13.4148         3.3400      -999.0000         4.9400       923.4029         0.1256        20.6552         2.5892        19.2724       -69.0851         0.1216        72.2960 
 1552.0792         8.6737        74.8625         0.0716        -0.0154        74.6167        28.5755        13.5906         2.7000      -999.0000         4.6600       947.0694         0.1165        19.9151         2.5319        19.7110       -70.0218         0.1432        72.3018 
 1552.2316         8.6668        77.8389         0.0866        -0.0093        74.4685        27.7780        12.9925         2.5000      -999.0000         3.9800       958.4458         0.1038        16.5588         2.5070        20.0169       -70.8857         0.1421        72.3090 
 1552.3840         8.7465        82.0350         0.0842        -0.0066        74.0649        27.2900        12.1330         2.7200      -999.0000         4.1800       977.2234         0.0820        18.8378         2.5111        18.4601       -71.5638         0.1391        72.3154 
 1552.5364         8.8223        89.2075         0.0709         0.0019        73.6509        28.2409        11.3157         3.3922      -999.0000         5.0600       983.8793         0.0636        14.5556         2.5330        17.2669       -72.1871         0.1360        72.3221 
 1552.6888         8.9028        94.2045         0.0755        -0.0032        73.2595        29.7839        10.5961         4.3000      -999.0000         6.0600       991.3447         0.0657        15.9599         2.5255        15.7279       -72.5683         0.1330        72.3286 
 1552.8412         8.9403        98.8921         0.0812        -0.0087        72.8840        30.7631        10.1090         2.8200      -999.0000         3.8600       996.7896         0.0804         7.0312         2.5159        14.5748       -72.5099         0.1302        72.3352 
 1552.9936         8.8656       105.1179         0.0825        -0.0145        73.8757        33.8439         9.5213         3.4600      -999.0000         4.6600      1013.4715         0.1093        19.1880         2.5138        13.9886       -71.6815         0.1376        72.3417 
 1553.1460         8.8150       112.2175         0.0789        -0.0158        75.2227        35.0653         9.0146         3.0600      -999.0000         5.2200      1022.3227         0.1358        17.3392         2.5198        13.6323       -71.0245         0.1477        72.3483 
 1553.2984         8.7889       117.2509         0.0757        -0.0106        76.6402        37.0767         8.8709         2.5000      -999.0000         4.2200      1028.2567         0.1476        17.8250         2.5251        13.4365       -70.7170         0.1584        72.3548 
 1553.4508         8.7915       118.5279         0.0644        -0.0047        75.4926        38.7818         9.0303         2.3000      -999.0000         3.8142      1019.4063         0.1504        17.1803         2.5437        13.0495       -70.9889         0.1498        72.3614 
 1553.6032         8.8136       118.5093         0.0695        -0.0081        74.1600        39.3333         9.1730         2.2600      -999.0000         3.6280      1009.9555         0.1454        16.7121         2.5353        12.4393       -71.7976         0.1398        72.3680 
 1553.7556         8.8834       115.3482         0.0765        -0.0064        72.3101        39.6400         9.3158         2.7728      -999.0000         5.5849       996.3510         0.1392        26.4868         2.5238        11.6875       -72.5029         0.1259        72.3745 
 1553.9080         8.9313       112.5219         0.0709        -0.0038        69.7661        39.6365         9.4570         5.4625      -999.0000        10.2618       966.0497         0.1347       148.5787         2.5330        11.2752       -72.9484         0.1069        72.3811 
 1554.0604         8.9705       106.8790         0.0608        -0.0060        67.2075        38.4915         9.5939         8.3000      -999.0000        14.0192       924.1191         0.1302       137.3816         2.5498        12.2180       -71.8767         0.0877        72.3876 
 1554.2128         8.9731       101.8154         0.0493        -0.0095        64.6636        37.6404        10.3184         5.4454      -999.0000        11.3835       909.3629         0.1256        29.0422         2.5686        12.9719       -70.9239         0.0686        72.3942 
 1554.3652         9.0122        93.2994         0.0350        -0.0155        62.1044        36.0962        12.1746         2.8600      -999.0000         5.7069       914.0476         0.1267        31.2630         2.5923        14.0175       -71.4858         0.0495        72.4007 
 1554.5176         9.0968        84.4894         0.0186        -0.0179        61.7948        35.7969        13.9454         4.4472      -999.0000         4.5400       925.1002         0.1314        23.2825         2.6194        15.0760       -72.6506         0.0472        72.4073 
 1554.6700         9.1671        75.5314         0.0047        -0.0194        64.4546        33.0573        15.0500         7.5063      -999.0000        12.0600       935.7697         0.1397        24.8330         2.6422        16.7589       -73.5818         0.0671        72.4139 
 1554.8224         9.1777        66.7424         0.0112        -0.0188        67.1032        31.3045        16.1545         8.7400      -999.0000        11.2200       946.1653         0.1404        19.5447         2.6315        18.7355       -74.2920         0.0869        72.4204 
 1554.9748         9.1039        62.6279         0.0653        -0.0173        69.7524        29.4114        16.7958         6.3411      -999.0000         6.9496       955.6892         0.1295        10.2572         2.5422        19.6514       -74.7059         0.1068        72.4270 
 1555.1272         9.0459        62.4340         0.0580        -0.0116        71.9020        28.0972        16.5948         5.2749      -999.0000         5.5000       964.3280         0.1178        17.1803         2.5544        19.0696       -74.9865         0.1229        72.4335 
