~VERSION INFORMATION
 VERS.                 2.0:   CWLS LOG ASCII STANDARD - VERSION 2.0
 WRAP.                  NO:   SINGLE LINE PER DEPTH STEP
~WELL INFORMATION
#MNEM.UNIT       DATA           DESCRIPTION MNEMONIC
#---------    -------------   --------------------------
 STRT.M         4.0000                      : START DEPTH
 STOP.M         2049.9700                     : STOP DEPTH
 STEP.M         0.1524                        : STEP VALUE
 NULL.          -999.0000                     : NULL VALUE
 SRVC.          PYPOZO                        : Service Company/Logging company
 DATE.          05/07/2025                    : LAS file Creation Date
 WELL    .      ARIEL-1                        : Well Name
 COMP    .      PYPOZO 2.0                    : Company
 FLD     .      UNKNOWN                       : Field
 LOC     .      UNKNOWN                       : Location
 LATI    .      0                             : Latitude/Northing
 LONG    .      0                             : Longitude/Easting
 APDAT   .      0                             : Elevation Above Permanent Datum
~CURVE INFORMATION
#MNEM          UNIT     API CODE   Curve Type Comments
#---------- ---------- ----------  ---------- --------
 DEPTH     .M                    : Depth      
 CALI      .IN                         : CALI       
 CILD      .mm/m                       : CILD       
 DPHI      .V/V                        : DPHI       
 DRHO      .G/C3                       : DRHO       
 DT        .US/F                       : DT         
 GR        .GAPI                       : GR         
 ILD       .OHMM                       : ILD        
 MINV      .OHMM                       : MINV       
 MLL       .OHMM                       : MLL        
 MNOR      .OHMM                       : MNOR       
 NEUT      .NAPI                       : NEUT       
 NPHI      .V/V                        : NPHI       
 PROX      .OHMM                       : PROX       
 RHOB      .G/C3                       : RHOB       
 SN        .OHMM                       : SN         
 SP        .MV                         : SP         
 SPHI      .V/V                        : SPHI       
 TEMP      .DEGC                       : TEMP       
~A Log data section
# ...
 1829.2948        10.6896       120.5278         0.0701        -0.0150        74.1083        43.3728         8.6966         3.9400      -999.0000         3.1800       695.7376         0.0993        24.8330         2.5344         9.4293       -55.0981         0.1394        80.6205 
 1829.4472        10.7053       112.1721         0.0808        -0.0225        74.9715        42.8511         9.2921        10.6200      -999.0000         5.9000       686.1359         0.0968        14.7700         2.5166         9.6177       -55.1686         0.1459        80.6250 
 1829.5996        10.7137       107.5937         0.0645        -0.0195        74.6542        42.0094         9.6781         7.4549      -999.0000         5.4200       680.8254         0.0987         6.1806         2.5436         9.8435       -55.3285         0.1435        80.6296 
 1829.7520        10.7103       105.6367         0.0533        -0.0121        73.6865        41.4350         9.8397         4.0588      -999.0000         2.6600       670.6473         0.1027         4.9548         2.5620        10.0691       -55.6350         0.1362        80.6341 
 1829.9044        10.7116       106.1282         0.0525        -0.0028        75.3671        40.6629         9.8097         3.1800      -999.0000         2.3479       666.9430         0.1045         5.4329         2.5634        10.2000       -55.9259         0.1488        80.6386 
 1830.0568        10.7142       108.3673         0.0486         0.0057        77.3788        39.3956         9.5996         8.4838      -999.0000         3.6294       667.1873         0.0996        16.8667         2.5698        10.2243       -56.2027         0.1639        80.6432 
 1830.2092        10.7503       113.3005         0.0429         0.0129        76.9951        38.3839         9.2457        14.1400      -999.0000         5.5800       672.1160         0.0952         6.4125         2.5792        10.2271       -56.3054         0.1610        80.6477 
 1830.3616        10.7696       118.3704         0.0412         0.0098        76.0158        37.1702         8.8476         4.5840      -999.0000         3.5000       673.3999         0.0963        11.1437         2.5820        10.0743       -56.4065         0.1537        80.6522 
 1830.5140        10.7771       123.4765         0.0437         0.0050        75.3213        36.4819         8.4950         3.1877      -999.0000         2.5800       670.9473         0.1015         4.6029         2.5780         9.6317       -56.3399         0.1485        80.6568 
 1830.6664        10.7852       129.7023         0.0425         0.0086        77.9046        34.5667         8.1014        17.9491      -999.0000         5.6514       669.7506         0.1057        23.4980         2.5799         9.2194       -56.1318         0.1678        80.6613 
 1830.8188        10.7980       138.1672         0.0441         0.0177        80.9648        33.3912         7.6533         4.2186      -999.0000         7.6275       668.2186         0.1067         7.4995         2.5772         8.8928       -55.8326         0.1907        80.6659 
 1830.9712        10.8138       147.0144         0.0487         0.0196        84.5346        31.3133         7.2138         9.5552      -999.0000         4.1605       665.1851         0.1104        13.9005         2.5697         8.6090       -55.5327         0.2175        80.6704 
 1831.1236        10.8274       155.1972         0.0528         0.0120        77.7174        30.8293         6.8880         4.9445      -999.0000         4.4524       655.9414         0.1177         6.9667         2.5629         8.3081       -55.2758         0.1664        80.6749 
 1831.2760        10.8254       157.2544         0.0570         0.0051        74.1469        30.1687         6.7722        13.5582      -999.0000         5.3804       647.3679         0.1140         9.1840         2.5560         8.3219       -55.0470         0.1397        80.6795 
 1831.4284        10.8208       154.7575         0.0305        -0.0023        73.5604        30.6215         6.8770         5.1583      -999.0000         4.6219       637.2006         0.1083        18.1564         2.5996         8.4228       -54.9549         0.1353        80.6840 
 1831.5808        10.8026       149.6612         0.0123        -0.0098        72.4741        31.0260         7.0881        10.2081      -999.0000        10.3076       631.3167         0.1055       107.4064         2.6297         8.5773       -54.8638         0.1271        80.6885 
 1831.7332        10.8032       143.6799         0.0063        -0.0133        73.0807        31.7801         7.4058        19.7884      -999.0000        19.8038       623.6727         0.1064        81.4761         2.6396         8.5225       -54.8320         0.1317        80.6931 
 1831.8856        10.8200       133.5853         0.0057        -0.0141        71.8397        31.2845         7.9564        20.5400      -999.0000        20.6200       615.7748         0.1046        55.8509         2.6406         8.6632       -54.8307         0.1224        80.6976 
 1832.0380        10.8361       118.4527         0.0038        -0.0183        67.3168        30.4522         8.8005        18.5400      -999.0000        14.5800       611.6845         0.0988       106.4217         2.6437         9.4476       -54.8282         0.0885        80.7022 
 1832.1904        10.8532       109.5616         0.0017        -0.0262        62.8205        29.9817         9.6254        20.5800      -999.0000        14.9800       601.6244         0.0902        16.7707         2.6471         9.9706       -54.8128         0.0548        80.7067 
 1832.3428        10.8572        99.2290        -0.0138        -0.0273        61.1772        29.5513        10.4364         4.8650      -999.0000         3.3400       595.8005         0.0784         6.2955         2.6727        10.5330       -54.7290         0.0425        80.7112 
 1832.4952        10.8658        92.0655        -0.0169        -0.0211        64.4842        29.2927        11.3899         4.1775      -999.0000         3.3400       591.2834         0.0640        15.8326         2.6778        11.3203       -54.6971         0.0673        80.7158 
 1832.6476        10.8610        82.8635        -0.0076        -0.0248        68.3095        29.0115        12.4577         7.0808      -999.0000         6.5468       596.2605         0.0493        78.5290         2.6625        12.3541       -54.6948         0.0960        80.7203 
 1832.8000        10.8652        75.2085         0.0042        -0.0194        71.9665        28.4506        13.7838         9.0600      -999.0000         9.1573       599.7084         0.0379        64.1254         2.6430        14.5130       -54.7633         0.1233        80.7248 
 1832.9524        10.8745        71.0488         0.0069        -0.0085        72.4101        27.1634        14.9734         6.5577      -999.0000         7.3382       607.2138         0.0295        26.6911         2.6385        15.8351       -54.9900         0.1267        80.7294 
 1833.1048        10.9122        66.8164         0.0216        -0.0010        71.6607        27.3278        16.0292         2.8600      -999.0000         2.9400       612.2758         0.0306         6.5922         2.6144        16.3221       -55.2637         0.1211        80.7339 
 1833.2572        10.9668        64.4407         0.0253         0.0020        71.6924        28.6037        16.6984         8.1060      -999.0000         5.8969       626.3335         0.0378        19.5771         2.6083        15.8699       -55.4744         0.1213        80.7385 
 1833.4096        10.9875        65.8423         0.0224         0.0021        72.6612        29.7449        16.3971        14.7827      -999.0000        10.6627       633.2861         0.0516       474.9578         2.6131        15.3163       -55.7325         0.1285        80.7430 
 1833.5620        11.0169        70.3205         0.0148         0.0023        70.1123        30.3734        15.0578        19.4607      -999.0000        13.9800       642.8245         0.0670       310.4033         2.6255        15.1194       -55.8994         0.1095        80.7475 
