~VERSION INFORMATION
 VERS.                 2.0:   CWLS LOG ASCII STANDARD - VERSION 2.0
 WRAP.                  NO:   SINGLE LINE PER DEPTH STEP
~WELL INFORMATION
#MNEM.UNIT       DATA           DESCRIPTION MNEMONIC
#---------    -------------   --------------------------
 STRT.M         4.0000                      : START DEPTH
 STOP.M         2049.9700                     : STOP DEPTH
 STEP.M         0.1524                        : STEP VALUE
 NULL.          -999.0000                     : NULL VALUE
 SRVC.          PYPOZO                        : Service Company/Logging company
 DATE.          05/07/2025                    : LAS file Creation Date
 WELL    .      ARIEL-1                        : Well Name
 COMP    .      PYPOZO 2.0                    : Company
 FLD     .      UNKNOWN                       : Field
 LOC     .      UNKNOWN                       : Location
 LATI    .      0                             : Latitude/Northing
 LONG    .      0                             : Longitude/Easting
 APDAT   .      0                             : Elevation Above Permanent Datum
~CURVE INFORMATION
#MNEM          UNIT     API CODE   Curve Type Comments
#---------- ---------- ----------  ---------- --------
 DEPTH     .M                    : Depth      
 CALI      .IN                         : CALI       
 CILD      .mm/m                       : CILD       
 DPHI      .V/V                        : DPHI       
 DRHO      .G/C3                       : DRHO       
 DT        .US/F                       : DT         
 GR        .GAPI                       : GR         
 ILD       .OHMM                       : ILD        
 MINV      .OHMM                       : MINV       
 MLL       .OHMM                       : MLL        
 MNOR      .OHMM                       : MNOR       
 NEUT      .NAPI                       : NEUT       
 NPHI      .V/V                        : NPHI       
 PROX      .OHMM                       : PROX       
 RHOB      .G/C3                       : RHOB       
 SN        .OHMM                       : SN         
 SP        .MV                         : SP         
 SPHI      .V/V                        : SPHI       
 TEMP      .DEGC                       : TEMP       
~A Log data section
# ...
 1692.2872        11.8212       363.6626         0.2398         0.0108       117.2471        54.8448         2.7577         1.1400      -999.0000         1.0600       473.2617         0.3025         3.3345         2.2543         2.4056       -58.8115         0.4625        75.9632 
 1692.4396        11.9464       368.3775         0.2324         0.0154       112.6536        55.5382         2.7118         1.0200      -999.0000         0.9400       472.0284         0.3299         2.4833         2.2666         2.3736       -59.1782         0.4281        75.9652 
 1692.5920        11.9004       372.6464         0.2207         0.0401       113.3189        56.6233         2.6852         1.1800      -999.0000         1.1000       469.3077         0.3577         2.0655         2.2858         2.2970       -59.5484         0.4331        75.9673 
 1692.7444        11.9518       376.5966         0.2054         0.0634       114.8973        57.1506         2.6496         1.5068      -999.0000         1.3753       462.8088         0.3855         2.7481         2.3111         2.2423       -59.9615         0.4449        75.9693 
 1692.8968        11.9921       384.9250         0.1808         0.0862       109.6834        58.3942         2.6039         1.3775      -999.0000         1.3400       455.6578         0.4026         2.3935         2.3516         2.2095       -60.5933         0.4059        75.9714 
 1693.0492        12.1946       390.5501         0.1773         0.1050       103.6703        59.8180         2.5610         1.0605      -999.0000         1.0200       447.9058         0.3884         2.6244         2.3575         2.1854       -60.9374         0.3608        75.9734 
 1693.2016        12.2026       393.4173         0.2045         0.0639       114.9561        61.8759         2.5483         1.1032      -999.0000         1.2600       447.3254         0.3692         3.0411         2.3126         2.1788       -60.7025         0.4454        75.9755 
 1693.3540        12.1142       390.1588         0.1919         0.0435       128.4342        62.5924         2.5710         0.9800      -999.0000         1.1400       442.7611         0.3499         1.8599         2.3334         2.1944       -59.7166         0.5463        75.9775 
 1693.5064        12.0866       377.8073         0.1839         0.0727       141.5634        63.5274         2.6540         0.9800      -999.0000         1.1400       439.2321         0.3307         1.9731         2.3465         2.2774       -58.8989         0.6447        75.9795 
 1693.6588        12.1766       358.9908         0.1879         0.1016       141.2216        63.5533         2.7804         0.9800      -999.0000         1.1400       439.4243         0.3129         1.9705         2.3400         2.4344       -58.1192         0.6421        75.9816 
 1693.8112        12.4002       345.1805         0.1994         0.1316       130.0604        63.1915         2.8873         0.9400      -999.0000         1.1000       439.2782         0.3163         2.5295         2.3209         2.5424       -57.4362         0.5585        75.9836 
 1693.9636        12.7599       342.0293         0.2420         0.1060       126.4320        62.4165         2.9203         1.1400      -999.0000         1.2200       433.7913         0.3250         1.8324         2.2506         2.5637       -57.0457         0.5313        75.9857 
 1694.1160        12.6623       344.7554         0.2930         0.0682       137.2335        61.8511         2.8977         1.0600      -999.0000         1.2600       428.7690         0.3339         1.7648         2.1666         2.5450       -56.9766         0.6122        75.9877 
 1694.2684        12.5853       350.6937         0.2979         0.0366       127.4311        60.1939         2.8530         0.9000      -999.0000         1.0600       424.9673         0.3429         1.8179         2.1585         2.5052       -57.1991         0.5388        75.9898 
 1694.4208        12.6788       356.6406         0.2638         0.0421       119.4183        58.9595         2.8042         0.9396      -999.0000         1.0600       427.0292         0.3519         1.6736         2.2147         2.4534       -57.6338         0.4788        75.9918 
 1694.5732        12.7505       362.0151         0.2772         0.0594       119.8721        56.6087         2.7647         0.9778      -999.0000         1.1400       428.7870         0.3609         1.9742         2.1925         2.4230       -58.0584         0.4822        75.9938 
 1694.7256        12.7373       365.5103         0.2858         0.0680       122.8708        54.8559         2.7342         0.9089      -999.0000         1.0600       431.7623         0.3699         2.2194         2.1785         2.4048       -58.2568         0.5047        75.9959 
 1694.8780        13.1321       369.5334         0.3027         0.0731       119.9750        53.6890         2.7084         0.9795      -999.0000         1.1297       437.4760         0.3783         2.0233         2.1506         2.3662       -58.1569         0.4830        75.9979 
 1695.0304        13.3464       372.3642         0.3105         0.0675       117.4744        52.8058         2.6888         1.0459      -999.0000         1.1943       441.6106         0.3603         2.3523         2.1377         2.3507       -57.9531         0.4642        76.0000 
 1695.1828        13.0039       371.6270         0.3072         0.0479       119.4869        52.8695         2.6956         1.1123      -999.0000         1.2614       445.4707         0.3503         2.3259         2.1431         2.3617       -57.6334         0.4793        76.0020 
 1695.3352        13.1430       365.9928         0.2855         0.0339       119.4580        53.3243         2.7330         1.1800      -999.0000         1.5400       448.1786         0.3556         2.4380         2.1789         2.3804       -57.1690         0.4791        76.0041 
 1695.4876        13.2360       358.6838         0.2358         0.0398       115.8718        53.5539         2.7868         1.2200      -999.0000         1.7000       449.7021         0.3598         2.5529         2.2609         2.3984       -56.9948         0.4522        76.0061 
 1695.6400        13.0075       352.7401         0.2023         0.0462       110.6679        53.9351         2.8322         1.5857      -999.0000         1.5800       453.1949         0.3571         3.0120         2.3161         2.4235       -56.9913         0.4132        76.0081 
 1695.7924        13.2733       349.7000         0.2011         0.0318       116.5022        53.6594         2.8656         1.4687      -999.0000         1.6200       453.8382         0.3516         4.0906         2.3181         2.4446       -57.1563         0.4569        76.0102 
 1695.9448        12.7934       343.6108         0.1987         0.0146       106.2745        53.6792         2.9136         1.1407      -999.0000         1.5064       457.4797         0.3449         3.2650         2.3222         2.4884       -57.5163         0.3803        76.0122 
 1696.0972        12.7176       334.0806         0.2002         0.0069        98.8278        53.8409         2.9928         1.1800      -999.0000         1.5000       459.3599         0.3369         2.0890         2.3197         2.5353       -57.7887         0.3246        76.0143 
 1696.2496        12.4144       325.1274         0.2023         0.0303       106.8168        54.3152         3.0877         1.5248      -999.0000         1.6600       457.9481         0.3259         2.3056         2.3162         2.5828       -57.9838         0.3844        76.0163 
 1696.4020        12.2226       310.6613         0.2263         0.0638       107.1689        54.4553         3.2073         2.1400      -999.0000         2.8200       456.2586         0.3133         2.6487         2.2766         2.6568       -58.0449         0.3870        76.0183 
 1696.5544        12.2014       302.0325         0.2759         0.0898       122.3946        54.8940         3.3233         1.1800      -999.0000         1.3000       451.7177         0.3005         2.9856         2.1947         2.7559       -58.0459         0.5011        76.0204 
