~VERSION INFORMATION
 VERS.                 2.0:   CWLS LOG ASCII STANDARD - VERSION 2.0
 WRAP.                  NO:   SINGLE LINE PER DEPTH STEP
~WELL INFORMATION
#MNEM.UNIT       DATA           DESCRIPTION MNEMONIC
#---------    -------------   --------------------------
 STRT.M         4.0000                      : START DEPTH
 STOP.M         2049.9700                     : STOP DEPTH
 STEP.M         0.1524                        : STEP VALUE
 NULL.          -999.0000                     : NULL VALUE
 SRVC.          PYPOZO                        : Service Company/Logging company
 DATE.          05/07/2025                    : LAS file Creation Date
 WELL    .      ARIEL-1                        : Well Name
 COMP    .      PYPOZO 2.0                    : Company
 FLD     .      UNKNOWN                       : Field
 LOC     .      UNKNOWN                       : Location
 LATI    .      0                             : Latitude/Northing
 LONG    .      0                             : Longitude/Easting
 APDAT   .      0                             : Elevation Above Permanent Datum
~CURVE INFORMATION
#MNEM          UNIT     API CODE   Curve Type Comments
#---------- ---------- ----------  ---------- --------
 DEPTH     .M                    : Depth      
 CALI      .IN                         : CALI       
 CILD      .mm/m                       : CILD       
 DPHI      .V/V                        : DPHI       
 DRHO      .G/C3                       : DRHO       
 DT        .US/F                       : DT         
 GR        .GAPI                       : GR         
 ILD       .OHMM                       : ILD        
 MINV      .OHMM                       : MINV       
 MLL       .OHMM                       : MLL        
 MNOR      .OHMM                       : MNOR       
 NEUT      .NAPI                       : NEUT       
 NPHI      .V/V                        : NPHI       
 PROX      .OHMM                       : PROX       
 RHOB      .G/C3                       : RHOB       
 SN        .OHMM                       : SN         
 SP        .MV                         : SP         
 SPHI      .V/V                        : SPHI       
 TEMP      .DEGC                       : TEMP       
~A Log data section
# ...
 1900.0084        10.4729        88.2195         0.0744         0.0193        73.4558        38.4661        12.5872         4.7616       736.0891         3.5024       838.6586         0.1002       102.0990         2.5273        15.3831       -57.3908         0.2014      -999.0000 
 1900.1608        10.4781        87.7451         0.0714         0.0205        71.9109        37.4359        12.5725         5.7774       280.5240         5.8773       833.7033         0.1053        35.7794         2.5322        14.9385       -57.1245         0.1898      -999.0000 
 1900.3132        10.4867        86.0435         0.0575         0.0131        70.3661        36.1255        12.8705         4.1275        22.9270         3.7261       831.6217         0.1089        10.0700         2.5550        14.7025       -56.9377         0.1781      -999.0000 
 1900.4656        10.4749        84.0074         0.0369         0.0051        69.4527        34.3380        13.2545         5.6434        21.0907         5.1509       833.3143         0.1072        13.2749         2.5891        14.8762       -57.0851         0.1718      -999.0000 
 1900.6180        10.4588        81.4138         0.0186        -0.0035        69.8222        32.5987        13.7610        13.0945        23.3606        10.8223       836.9964         0.1047       226.4801         2.6194        15.4020       -57.2881         0.1733      -999.0000 
 1900.7704        10.4304        76.8577         0.0071        -0.0028        69.2606        31.3210        14.3107        12.4102        24.7790        12.7898       836.7398         0.1021       124.2753         2.6383        16.0110       -57.5843         0.1644      -999.0000 
 1900.9228        10.3800        71.7496        -0.0043         0.0009        68.0148        31.3417        14.9088        11.7109        23.9982        12.6249       833.7816         0.0959       201.2910         2.6571        16.3996       -57.8956         0.1502      -999.0000 
 1901.0752        10.3223        67.0339        -0.0130        -0.0002        65.9549        31.0695        15.5668        11.6709        26.6027        12.5151       827.9568         0.0812       122.6444         2.6714        18.0330       -58.4520         0.1343      -999.0000 
 1901.2276        10.2695        55.5704        -0.0199        -0.0138        63.7099        30.8088        18.2138         7.1647        34.0218         8.8615       815.5554         0.0652        30.9763         2.6829        19.1118       -58.8356         0.1182      -999.0000 
 1901.3800        10.2304        47.0853        -0.0190        -0.0134        62.1523        31.0687        21.7890         8.4183        40.2397         7.7008       801.6967         0.0508        33.3449         2.6814        19.9704       -58.9730         0.1072      -999.0000 
 1901.5324        10.2068        37.4787        -0.0075        -0.0082        64.0003        31.4988        30.3645         7.4557        34.2488         9.2784       788.2439         0.0433        38.6394         2.6624        20.5076       -59.0224         0.1138      -999.0000 
 1901.6848        10.2078        40.5591         0.0035        -0.0004        66.9853        32.0437        25.9757         9.6798        32.8669         7.2140       776.4981         0.0369        20.4659         2.6443        20.9182       -59.0111         0.1360      -999.0000 
 1901.8372        10.2084        43.6058         0.0140         0.0078        70.1264        32.5026        23.3731        11.6239        37.7167         8.2087       785.1104         0.0363        16.4070         2.6269        21.2863       -59.0622         0.1646      -999.0000 
 1901.9896        10.2263        46.3174         0.0259         0.0110        71.7340        32.3863        21.9909         6.8447        26.0334        13.4943       823.7229         0.0280        88.1845         2.6073        21.6258       -59.1234         0.1812      -999.0000 
 1902.1420        10.2540        49.1547         0.0384        -0.0018        71.9766        32.3152        21.1115        11.8569        11.8610        12.7356       841.8052         0.0278       257.6499         2.5867        21.8982       -59.1161         0.1884      -999.0000 
 1902.2944        10.2469        51.8807         0.0287        -0.0135        71.2292        31.6394        21.5914        11.2113        12.8962        11.5085       861.1453         0.0322        90.9976         2.6027        22.0129       -58.9602         0.1846      -999.0000 
 1902.4468        10.2359        54.0162         0.0103        -0.0279        69.9455        30.9620        21.9787        11.4678        23.8722        11.8468       884.8328         0.0517        51.1728         2.6330        21.5453       -58.7249         0.1753      -999.0000 
 1902.5992        10.2230        55.1732        -0.0012        -0.0120        68.2924        30.0585        22.1908        12.5999        28.6252        13.0973       902.7120         0.0714        86.9020         2.6519        21.1229       -58.1882         0.1610      -999.0000 
 1902.7516        10.2156        56.7492        -0.0086        -0.0062        66.2833        29.5868        22.2761         4.9162        26.9543         5.7343       921.3695         0.0730        98.8621         2.6642        20.7470       -57.7113         0.1433      -999.0000 
 1902.9040        10.2045        58.3322        -0.0082        -0.0140        64.5429        29.6940        22.1346         6.6286        27.8050         5.9595       923.8063         0.0667        70.9627         2.6636        20.5605       -57.3826         0.1280      -999.0000 
 1903.0564        10.1740        59.3498        -0.0128        -0.0182        64.6816        31.1258        22.1926         8.4221        33.4423         7.0245       951.0949         0.0579        29.3110         2.6712        21.6062       -57.6233         0.1284      -999.0000 
 1903.2088        10.1263        60.3126        -0.0043        -0.0195        65.6198        33.0614        23.0352         7.1874        46.5830         7.3423       992.8259         0.0422        30.6923         2.6570        22.6256       -57.7887         0.1346      -999.0000 
 1903.3612        10.1073        55.9995         0.0041        -0.0107        66.2912        34.9913        23.9337        13.1965        43.7594         8.2174      1075.4639         0.0350        46.4547         2.6432        23.2477       -57.9000         0.1409      -999.0000 
 1903.5136        10.1040        56.4071         0.0133        -0.0004        66.0366        36.5105        24.8317         7.6883        20.4801         6.9636      1071.5671         0.0291        17.0228         2.6281        23.7677       -57.9100         0.1410      -999.0000 
 1903.6660        10.0922        51.7564         0.0189         0.0074        63.6200        37.9457        25.7299         7.0296        79.8188         5.4247       990.6974         0.0324        82.9908         2.6188        23.7614       -57.8163         0.1191      -999.0000 
 1903.8184        10.0731        49.7376         0.0235         0.0091        62.1759        38.5748        26.6282         8.0223       171.9659        10.0799       984.1370         0.0381       208.4635         2.6112        23.2072       -57.6973         0.1004      -999.0000 
 1903.9708        10.0872        48.0601         0.0159         0.0018        62.4333        39.0895        26.6080        11.9076       164.4680         9.3123       953.5271         0.0417        24.7163         2.6237        22.6660       -57.5788         0.0990      -999.0000 
 1904.1232        10.1137        49.7246         0.0040        -0.0047        64.3064        38.1338        24.5354         9.0741       125.7486         9.4325       948.4612         0.0467        24.7329         2.6434        22.1231       -57.2350         0.1118      -999.0000 
 1904.2756        10.1279        51.6383         0.0027        -0.0112        67.2808        37.2972        21.9343         6.4472        85.3469         6.4836       920.6843         0.0616         5.5290         2.6455        21.5655       -57.1059         0.1387      -999.0000 
