~VERSION INFORMATION
 VERS.                 2.0:   CWLS LOG ASCII STANDARD - VERSION 2.0
 WRAP.                  NO:   SINGLE LINE PER DEPTH STEP
~WELL INFORMATION
#MNEM.UNIT       DATA           DESCRIPTION MNEMONIC
#---------    -------------   --------------------------
 STRT.M         4.0000                      : START DEPTH
 STOP.M         2049.9700                     : STOP DEPTH
 STEP.M         0.1524                        : STEP VALUE
 NULL.          -999.0000                     : NULL VALUE
 SRVC.          PYPOZO                        : Service Company/Logging company
 DATE.          05/07/2025                    : LAS file Creation Date
 WELL    .      ARIEL-1                        : Well Name
 COMP    .      PYPOZO 2.0                    : Company
 FLD     .      UNKNOWN                       : Field
 LOC     .      UNKNOWN                       : Location
 LATI    .      0                             : Latitude/Northing
 LONG    .      0                             : Longitude/Easting
 APDAT   .      0                             : Elevation Above Permanent Datum
~CURVE INFORMATION
#MNEM          UNIT     API CODE   Curve Type Comments
#---------- ---------- ----------  ---------- --------
 DEPTH     .M                    : Depth      
 CALI      .IN                         : CALI       
 CILD      .mm/m                       : CILD       
 DPHI      .V/V                        : DPHI       
 DRHO      .G/C3                       : DRHO       
 DT        .US/F                       : DT         
 GR        .GAPI                       : GR         
 ILD       .OHMM                       : ILD        
 MINV      .OHMM                       : MINV       
 MLL       .OHMM                       : MLL        
 MNOR      .OHMM                       : MNOR       
 NEUT      .NAPI                       : NEUT       
 NPHI      .V/V                        : NPHI       
 PROX      .OHMM                       : PROX       
 RHOB      .G/C3                       : RHOB       
 SN        .OHMM                       : SN         
 SP        .MV                         : SP         
 SPHI      .V/V                        : SPHI       
 TEMP      .DEGC                       : TEMP       
~A Log data section
# ...
 1966.3024         9.6411       184.9319        -0.0081         0.0307        72.4332        51.6711         5.6217         5.0028         7.0942         4.2202       558.4850         0.1121         6.5922         2.6633         5.9337       -48.6028         0.1922      -999.0000 
 1966.4548         9.6450       185.2536        -0.0105         0.0382        72.4237        51.5438         5.6100         4.9949         6.9982         4.3160       553.5024         0.1132         6.4125         2.6674         5.8985       -48.4668         0.1913      -999.0000 
 1966.6072         9.6571       185.4391        -0.0066         0.0239        72.2471        52.5166         5.6044         5.0790         7.2301         4.1351       547.5721         0.1136         6.7148         2.6608         5.8949       -48.4471         0.1910      -999.0000 
 1966.7596         9.6614       185.5476         0.0030         0.0013        72.1337        53.4983         5.5993         5.0886         7.4708         4.1477       542.2900         0.1144         6.9029         2.6451         5.9095       -48.3134         0.1915      -999.0000 
 1966.9120         9.6563       185.2861         0.0142        -0.0190        72.0720        54.6483         5.6047         5.0389         7.4039         4.0862       539.1201         0.1158         6.5318         2.6265         5.9254       -48.1566         0.1920      -999.0000 
 1967.0644         9.6573       185.9608         0.0272        -0.0249        72.0741        55.4163         5.5866         5.4121         7.0457         4.2880       539.4519         0.1167         6.7769         2.6051         5.9259       -47.9959         0.1916      -999.0000 
 1967.2168         9.6586       184.8695         0.0248         0.0009        72.1448        56.5668         5.6160         5.1419         6.7281         4.2288       535.1895         0.1146         6.2955         2.6091         5.9219       -47.9005         0.1912      -999.0000 
 1967.3692         9.6591       184.4675         0.0200         0.0131        72.2821        57.4843         5.6271         5.0199         6.6250         4.0462       532.8186         0.1109         6.5922         2.6171         5.9335       -47.8391         0.1918      -999.0000 
 1967.5216         9.6682       183.7270         0.0280         0.0180        72.3648        57.9252         5.6487         4.8801         6.6955         4.0657       528.7146         0.1080         7.0312         2.6038         5.9506       -47.8027         0.1925      -999.0000 
 1967.6740         9.6826       183.1401         0.0347         0.0151        72.4298        58.5059         5.6653         4.9202         6.9390         3.9305       524.4436         0.1058         6.4719         2.5928         5.9822       -47.8613         0.1933      -999.0000 
 1967.8264         9.7014       182.0398         0.0433         0.0130        72.3520        58.2818         5.6979         4.2514         7.1610         3.9903       525.8778         0.1075         3.2736         2.5785         6.0124       -47.7185         0.1929      -999.0000 
 1967.9788         9.7310       181.8889         0.0528         0.0029        71.5940        57.7817         5.7019         3.4849         7.2097         3.0950       535.6091         0.1173         4.1594         2.5629         6.0229       -47.7710         0.1872      -999.0000 
 1968.1312         9.7441       180.8921         0.0704         0.0341        71.6796        58.1901         5.7269         3.6448         7.1255         3.3302       546.8915         0.1269         2.6244         2.5338         5.9946       -48.1400         0.1887      -999.0000 
 1968.2836         9.7470       181.8462         0.0849         0.0773        72.4795        59.7276         5.6920         3.5198         7.0432         3.2900       558.6122         0.1382         2.9311         2.5099         5.9386       -48.2761         0.1958      -999.0000 
 1968.4360         9.7706       185.0474         0.1159         0.1210        73.3528        60.4173         5.6112         3.3428         6.9797         3.1680       560.1699         0.1492         2.1039         2.4588         5.9015       -48.4433         0.2024      -999.0000 
 1968.5884         9.7670       188.5400         0.1366         0.1559        74.2368        61.6058         5.5072         3.3216         6.9107         2.9622       561.1871         0.1725         2.5112         2.4246         5.8599       -48.5147         0.2088      -999.0000 
 1968.7408         9.9066       192.0574         0.1581         0.1658        75.1998        62.7702         5.4039         3.9160         7.1162         3.5168       553.8076         0.2065         3.0132         2.3891         5.8169       -48.5175         0.2158      -999.0000 
 1968.8932        10.0181       197.3232         0.1784         0.1143        75.9709        63.6356         5.2774         3.9750         7.1180         3.3143       548.3300         0.2359         2.4380         2.3556         5.7330       -48.5926         0.2214      -999.0000 
 1969.0456        10.1807       204.9942         0.1826         0.1099        76.6172        63.4765         5.0983         3.5190         6.9780         3.0650       543.7427         0.2495         3.5762         2.3487         5.5638       -48.8915         0.2264      -999.0000 
 1969.1980        10.3833       213.4174         0.1663         0.1324        77.2700        62.3873         4.9461         3.5000         6.8380         3.2425       539.7475         0.2507         4.2759         2.3756         5.4050       -49.1398         0.2313      -999.0000 
 1969.3504        10.2719       219.3848         0.1264         0.1530        77.2751        60.9053         4.8259         3.6001         6.8481         3.2551       539.6796         0.2515         2.3498         2.4414         5.2738       -49.4546         0.2314      -999.0000 
 1969.5028        10.1506       221.6943         0.0873         0.1749        75.6860        60.5189         4.7809         3.5499         6.9740         3.1781       541.8329         0.2432         2.4156         2.5060         5.1893       -49.6922         0.2195      -999.0000 
 1969.6552        10.0047       225.2395         0.0916         0.1784        76.5424        61.1679         4.7233         3.0932         7.1730         3.1457       548.3734         0.2313         2.4380         2.4988         5.1430       -49.8773         0.2259      -999.0000 
 1969.8076         9.9339       227.7995         0.0966         0.1595        77.5651        61.9645         4.6711         0.5077         7.2448         2.7066       554.3763         0.2179         2.1430         2.4906         5.0949       -49.9780         0.2336      -999.0000 
 1969.9600        10.0518       232.5216         0.1012         0.1403        78.6025        62.2838         4.6030         1.0975         6.9651         3.3250       559.6304         0.2132         1.9012         2.4830         5.0598       -49.9763         0.2414      -999.0000 
 1970.1124        10.1258       239.9390         0.1297         0.1217        79.6950        63.2305         4.5166         2.4457         6.9987         2.9902       552.5379         0.2094         2.0092         2.4359         5.0236       -49.8461         0.2495      -999.0000 
 1970.2648        10.1228       242.8222         0.1870         0.1284        80.7836        64.2215         4.4763         1.6665         7.2296         2.8404       537.8014         0.2078         2.5063         2.3414         4.9889       -49.6988         0.2575      -999.0000 
 1970.4172        10.3134       244.3111         0.1829         0.1428        80.3572        65.3828         4.4692         2.3409         7.3857         3.0552       524.3005         0.2173         2.2031         2.3483         4.9369       -49.5064         0.2541      -999.0000 
 1970.5696        10.3547       247.5937         0.1881         0.1357        80.7082        66.2882         4.4497         2.6573         7.4619         2.6455       510.9787         0.2305         2.9311         2.3396         4.8826       -49.4482         0.2570      -999.0000 
