~VERSION INFORMATION
 VERS.                 2.0:   CWLS LOG ASCII STANDARD - VERSION 2.0
 WRAP.                  NO:   SINGLE LINE PER DEPTH STEP
~WELL INFORMATION
#MNEM.UNIT       DATA           DESCRIPTION MNEMONIC
#---------    -------------   --------------------------
 STRT.M         4.0000                      : START DEPTH
 STOP.M         2049.9700                     : STOP DEPTH
 STEP.M         0.1524                        : STEP VALUE
 NULL.          -999.0000                     : NULL VALUE
 SRVC.          PYPOZO                        : Service Company/Logging company
 DATE.          05/07/2025                    : LAS file Creation Date
 WELL    .      ARIEL-1                        : Well Name
 COMP    .      PYPOZO 2.0                    : Company
 FLD     .      UNKNOWN                       : Field
 LOC     .      UNKNOWN                       : Location
 LATI    .      0                             : Latitude/Northing
 LONG    .      0                             : Longitude/Easting
 APDAT   .      0                             : Elevation Above Permanent Datum
~CURVE INFORMATION
#MNEM          UNIT     API CODE   Curve Type Comments
#---------- ---------- ----------  ---------- --------
 DEPTH     .M                    : Depth      
 CALI      .IN                         : CALI       
 CILD      .mm/m                       : CILD       
 DPHI      .V/V                        : DPHI       
 DRHO      .G/C3                       : DRHO       
 DT        .US/F                       : DT         
 GR        .GAPI                       : GR         
 ILD       .OHMM                       : ILD        
 MINV      .OHMM                       : MINV       
 MLL       .OHMM                       : MLL        
 MNOR      .OHMM                       : MNOR       
 NEUT      .NAPI                       : NEUT       
 NPHI      .V/V                        : NPHI       
 PROX      .OHMM                       : PROX       
 RHOB      .G/C3                       : RHOB       
 SN        .OHMM                       : SN         
 SP        .MV                         : SP         
 SPHI      .V/V                        : SPHI       
 TEMP      .DEGC                       : TEMP       
~A Log data section
# ...
 1069.1236        10.3736       689.5301         0.2512         0.1150       114.5020        75.3181         1.4501         1.5000      -999.0000         1.1800       453.7867         0.2490         1.3522         2.2355         1.1300       -50.2666         0.4420      -999.0000 
 1069.2760        10.3852       685.9985         0.2445         0.1112       115.5929        73.9230         1.4605         1.5400      -999.0000         1.2200       453.4295         0.2462         1.2478         2.2466         1.1359       -50.3254         0.4501      -999.0000 
 1069.4284        10.3875       675.3941         0.2503         0.0738       113.9034        72.2778         1.4805         1.4200      -999.0000         1.1000       453.4486         0.2476         1.1996         2.2370         1.1744       -50.4936         0.4375      -999.0000 
 1069.5808        10.3639       662.8060         0.2576         0.0724       112.0109        71.0655         1.5080         1.3400      -999.0000         1.0200       452.2707         0.2458         1.2561         2.2249         1.2128       -50.8880         0.4233      -999.0000 
 1069.7332        10.3390       653.5767         0.2509         0.0768       110.9188        70.5450         1.5291         1.2600      -999.0000         0.9400       448.0637         0.2468         1.2677         2.2360         1.2500       -50.8090         0.4151      -999.0000 
 1069.8856        10.3753       648.3341         0.2459         0.0829       112.3327        69.8268         1.5417         1.2200      -999.0000         0.9000       445.3629         0.2428         1.2107         2.2442         1.2500       -50.7301         0.4257      -999.0000 
 1070.0380        10.2842       646.1679         0.2434         0.0847       113.7935        70.2380         1.5445         1.3800      -999.0000         1.0600       443.5456         0.2547         1.2446         2.2484         1.2500       -50.6511         0.4367      -999.0000 
 1070.1904        10.2685       652.5763         0.2410         0.0915       115.2820        70.6278         1.5348         1.4200      -999.0000         1.1000       443.4940         0.2603         1.2677         2.2524         1.2500       -50.5721         0.4478      -999.0000 
 1070.3428        10.2615       656.6263         0.2395         0.0967       114.9066        70.7277         1.5233         1.4200      -999.0000         1.1000       443.4161         0.2580         1.2795         2.2549         1.2476       -51.1092         0.4450      -999.0000 
 1070.4952        10.1775       657.0449         0.2404         0.0914       111.5114        70.7317         1.5236         1.6200      -999.0000         1.3000       442.5248         0.2525         1.4271         2.2533         1.2283       -51.2365         0.4196      -999.0000 
 1070.6476        10.1382       652.9487         0.2453         0.0801       115.1569        70.6795         1.5316         1.6200      -999.0000         1.3000       439.7111         0.2441         1.5113         2.2453         1.2091       -51.5339         0.4469      -999.0000 
 1070.8000        10.1324       646.9687         0.2478         0.0730       119.6636        71.0941         1.5445         1.5651      -999.0000         1.2451       439.2083         0.2412         1.5669         2.2412         1.1900       -51.7871         0.4806      -999.0000 
 1070.9524        10.1347       644.1746         0.2528         0.0650       121.3334        71.9915         1.5487         1.5800      -999.0000         1.2600       436.0305         0.2449         1.4690         2.2330         1.2065       -51.9934         0.4931      -999.0000 
 1071.1048        10.1399       651.9484         0.2579         0.0621       118.3383        72.6955         1.5359         1.4200      -999.0000         1.1000       436.9382         0.2442         1.4963         2.2244         1.2230       -51.5196         0.4707      -999.0000 
 1071.2572        10.1422       658.9020         0.2509         0.0671       117.0132        74.6706         1.5177         1.3400      -999.0000         1.0200       438.6425         0.2447         1.4418         2.2360         1.2395       -53.0540         0.4608      -999.0000 
 1071.4096        10.1305       663.5532         0.2540         0.0556       118.7015        75.9034         1.5070         1.3400      -999.0000         1.0200       436.8622         0.2522         1.4409         2.2309         1.2559       -52.3883         0.4734      -999.0000 
 1071.5620        10.1152       668.2043         0.2567         0.0519       118.9728        76.9987         1.4962         1.3800      -999.0000         1.0600       435.7112         0.2525         1.4567         2.2265         1.2724       -51.5531         0.4755      -999.0000 
 1071.7144        10.0635       673.7657         0.2518         0.0638       118.3188        77.8252         1.4847         1.3800      -999.0000         1.0600       438.0149         0.2597         1.4019         2.2346         1.2642       -50.7172         0.4706      -999.0000 
 1071.8668        10.0235       678.3804         0.2465         0.0748       122.7138        78.0479         1.4749         1.3400      -999.0000         1.0200       441.3445         0.2703         1.4025         2.2432         1.2349       -51.3575         0.5035      -999.0000 
 1072.0192        10.0335       680.0914         0.2457         0.0776       130.2973        78.8409         1.4709         1.3000      -999.0000         0.9800       447.5486         0.2759         1.4826         2.2446         1.2057       -52.3143         0.5603      -999.0000 
 1072.1716         9.9969       679.3905         0.2476         0.0743       126.9488        79.0883         1.4723         1.5400      -999.0000         1.2200       450.0446         0.2657         1.4029         2.2414         1.1764       -52.2735         0.5352      -999.0000 
 1072.3240         9.9726       677.1513         0.2481         0.0698       121.7500        79.0737         1.4768         1.4600      -999.0000         1.1400       451.1042         0.2665         1.3639         2.2406         1.1471       -51.1587         0.4963      -999.0000 
 1072.4764         9.9652       674.4935         0.2491         0.0650       112.7494        79.0903         1.4840         1.5000      -999.0000         1.1800       449.3851         0.2598         1.3779         2.2390         1.1511       -50.3107         0.4288      -999.0000 
 1072.6288         9.9981       668.1946         0.2526         0.0635       141.4227        79.0877         1.4967         1.4200      -999.0000         1.1000       447.9856         0.2624         1.3513         2.2332         1.1836       -51.1052         0.6436      -999.0000 
 1072.7812        10.0043       660.2212         0.2530         0.0642       164.7225        79.0142         1.5145         1.5000      -999.0000         1.1800       447.0188         0.2618         1.4298         2.2325         1.2200       -51.8991         0.8181      -999.0000 
 1072.9336         9.9889       653.1581         0.2516         0.0656       134.5045        78.5570         1.5315         1.5400      -999.0000         1.2200       445.1331         0.2554         1.3710         2.2349         1.2459       -51.8324         0.5918      -999.0000 
 1073.0860         9.9700       645.6033         0.2574         0.0572       126.2583        78.2770         1.5476         1.4600      -999.0000         1.1400       445.7488         0.2656         1.3271         2.2253         1.2637       -51.5467         0.5300      -999.0000 
 1073.2384         9.9836       641.2709         0.2742         0.0435       137.6704        78.0351         1.5606         1.5000      -999.0000         1.1800       444.1763         0.2740         1.3266         2.1976         1.2574       -51.2612         0.6155      -999.0000 
 1073.3908         9.9890       635.8823         0.2789         0.0561       149.1958        77.5458         1.5710         1.5000      -999.0000         1.1800       443.3671         0.2807         1.4151         2.1898         1.2421       -50.9754         0.7018      -999.0000 
