~VERSION INFORMATION
 VERS.                 2.0:   CWLS LOG ASCII STANDARD - VERSION 2.0
 WRAP.                  NO:   SINGLE LINE PER DEPTH STEP
~WELL INFORMATION
#MNEM.UNIT       DATA           DESCRIPTION MNEMONIC
#---------    -------------   --------------------------
 STRT.M         4.0000                      : START DEPTH
 STOP.M         2049.9700                     : STOP DEPTH
 STEP.M         0.1524                        : STEP VALUE
 NULL.          -999.0000                     : NULL VALUE
 SRVC.          PYPOZO                        : Service Company/Logging company
 DATE.          05/07/2025                    : LAS file Creation Date
 WELL    .      ARIEL-1                        : Well Name
 COMP    .      PYPOZO 2.0                    : Company
 FLD     .      UNKNOWN                       : Field
 LOC     .      UNKNOWN                       : Location
 LATI    .      0                             : Latitude/Northing
 LONG    .      0                             : Longitude/Easting
 APDAT   .      0                             : Elevation Above Permanent Datum
~CURVE INFORMATION
#MNEM          UNIT     API CODE   Curve Type Comments
#---------- ---------- ----------  ---------- --------
 DEPTH     .M                    : Depth      
 CALI      .IN                         : CALI       
 CILD      .mm/m                       : CILD       
 DPHI      .V/V                        : DPHI       
 DRHO      .G/C3                       : DRHO       
 DT        .US/F                       : DT         
 GR        .GAPI                       : GR         
 ILD       .OHMM                       : ILD        
 MINV      .OHMM                       : MINV       
 MLL       .OHMM                       : MLL        
 MNOR      .OHMM                       : MNOR       
 NEUT      .NAPI                       : NEUT       
 NPHI      .V/V                        : NPHI       
 PROX      .OHMM                       : PROX       
 RHOB      .G/C3                       : RHOB       
 SN        .OHMM                       : SN         
 SP        .MV                         : SP         
 SPHI      .V/V                        : SPHI       
 TEMP      .DEGC                       : TEMP       
~A Log data section
# ...
 1621.5736         9.2334       161.7235         0.0452         0.0010        76.6522        42.3682         6.1937         2.2741      -999.0000         3.7400      1009.6626         0.0928        25.3671         2.5754         7.2701       -57.1062         0.1584        75.0336 
 1621.7260         9.1772       151.5474         0.0553         0.0060        75.0774        42.1520         6.7173         2.1800      -999.0000         3.5000      1019.7424         0.0790        20.7029         2.5587         7.6200       -58.0900         0.1466        75.0387 
 1621.8784         9.1376       131.1134         0.0512         0.0095        73.3225        39.7504         7.5347         2.5400      -999.0000         4.1000      1041.6589         0.0807        14.0602         2.5655         8.2467       -59.9958         0.1335        75.0438 
 1622.0308         9.0893       122.7031         0.0502         0.0135        73.0801        38.1079         8.0961         3.3400      -999.0000         4.3000      1070.9252         0.0939         7.8434         2.5671         8.8419       -61.4170         0.1317        75.0490 
 1622.1832         9.0535       127.0446         0.0493         0.0006        76.2887        35.9462         7.8469         2.5800      -999.0000         3.3660      1084.6935         0.1065         8.4442         2.5686         9.5134       -62.3834         0.1557        75.0541 
 1622.3356         9.0296       137.3300         0.0763         0.0002        78.6299        33.9604         7.3504         2.7000      -999.0000         3.2200      1103.1381         0.1084        10.1968         2.5241         9.9778       -63.9091         0.1733        75.0592 
 1622.4880         9.0123       142.9186         0.0781         0.0030        78.9024        34.5991         7.0206         1.9815      -999.0000         2.9800      1109.3789         0.1073        13.9005         2.5211        10.4717       -64.8342         0.1753        75.0643 
 1622.6404         9.0125       147.3968         0.0744         0.0021        77.3280        36.3432         7.0451         2.0210      -999.0000         2.9800      1109.6824         0.1106        16.4070         2.5272        10.5661       -65.6252         0.1635        75.0695 
 1622.7928         8.9941       149.2461         0.0755        -0.0063        74.3925        37.3601         7.1965         2.0200      -999.0000         3.2200      1106.9692         0.1147        16.5588         2.5254        10.2596       -66.2026         0.1415        75.0746 
 1622.9452         8.9706       146.2241         0.0781        -0.0082        71.3895        37.9830         7.3479         2.3040      -999.0000         3.7501      1100.9108         0.1228        13.6468         2.5212         9.5439       -66.0772         0.1190        75.0797 
 1623.0976         8.8681       139.2650         0.0765        -0.0040        71.1145        38.0710         7.4564         4.4200      -999.0000         5.5400      1094.5588         0.1315        16.8667         2.5237         9.1812       -65.4581         0.1170        75.0839 
 1623.2500         8.8790       139.1423         0.0698        -0.0030        72.0815        38.4896         7.4353         4.3800      -999.0000         5.9000      1085.5399         0.1359        19.1880         2.5348         9.8743       -65.5677         0.1242        75.0877 
 1623.4024         9.0478       146.3458         0.0620        -0.0035        73.0486        38.3652         7.3166         4.2200      -999.0000         5.8600      1072.8640         0.1341        19.7256         2.5476        10.6631       -66.8110         0.1315        75.0915 
 1623.5548         9.0894       148.6402         0.0597        -0.0069        74.0156        38.7875         7.2542         4.2200      -999.0000         6.1405      1052.7251         0.1298        20.0923         2.5515        11.1616       -69.2146         0.1387        75.0953 
 1623.7072         9.0447       147.0419         0.0595        -0.0093        74.8112        38.8805         7.4193         3.9800      -999.0000         4.1903      1011.1566         0.1240        22.0308         2.5518        12.0095       -71.0611         0.1447        75.0991 
 1623.8596         8.9790       140.4975         0.0575        -0.0127        72.9231        38.2689         7.8001         6.4807      -999.0000         8.6831       974.7318         0.1194        35.2395         2.5551        12.7047       -73.1516         0.1305        75.1029 
 1624.0120         8.8171       130.4943         0.0511        -0.0115        69.4757        36.2284         8.0895         8.3400      -999.0000        13.3800       919.6033         0.1166       121.0682         2.5656        12.6319       -74.0248         0.1047        75.1067 
 1624.1644         8.7884       116.6774         0.0395        -0.0070        66.0078        35.2205         8.5124         7.6586      -999.0000        13.0600       855.3121         0.1162       202.7823         2.5849        12.1724       -73.8837         0.0787        75.1105 
 1624.3168         8.8405       109.5870         0.0171        -0.0103        62.4965        33.7393         9.1661         6.7021      -999.0000        11.5827       794.0566         0.1156       137.7305         2.6218        12.2804       -73.1149         0.0524        75.1143 
 1624.4692         8.8746       103.9892         0.0016        -0.0144        59.0104        32.8639         9.6719         4.9197      -999.0000         5.7860       783.8127         0.1107        82.9908         2.6474        12.6704       -72.4140         0.0263        75.1181 
 1624.6216         8.9190        95.5243        -0.0165        -0.0196        57.4627        33.4702        10.4353         2.1481      -999.0000         3.6527       769.6058         0.1011        28.2508         2.6773        13.2350       -71.6342         0.0147        75.1219 
 1624.7740         8.9732        89.8628        -0.0093        -0.0165        61.5831        33.9253        11.1720         2.0200      -999.0000         3.2200       760.9160         0.0839        20.0923         2.6654        15.1055       -71.0367         0.0456        75.1257 
 1624.9264         8.9776        84.5602         0.0171        -0.0135        65.4411        33.2649        11.8525         2.2200      -999.0000         3.0600       755.3364         0.0587        20.6552         2.6217        17.4293       -70.2099         0.0745        75.1295 
 1625.0788         8.9638        78.7692         0.0315        -0.0068        69.3275        31.8639        12.6980         2.4600      -999.0000         2.9800       768.7482         0.0427        10.0700         2.5981        19.0333       -69.5124         0.1036        75.1333 
 1625.2312         8.9805        74.0152         0.0442        -0.0051        73.2735        30.8216        13.3129         1.9800      -999.0000         2.2200       788.4592         0.0394         3.5452         2.5770        19.7660       -69.0007         0.1331        75.1371 
 1625.3836         8.9753        76.7558         0.0471        -0.0000        77.1948        29.0833        12.8811         2.4115      -999.0000         3.0285       805.7865         0.0476         4.5254         2.5722        20.1830       -68.7194         0.1625        75.1409 
 1625.5360         8.9553        91.3828         0.0529         0.0058        81.0842        27.8349        11.0616         3.5000      -999.0000         3.4600       816.4746         0.0592         5.7995         2.5628        20.3539       -68.3808         0.1916        75.1447 
 1625.6884         8.8964       115.9038         0.0612         0.0021        83.7957        29.0825         8.9087         2.8600      -999.0000         3.6600       835.7635         0.0924         6.2729         2.5490        20.4246       -68.0463         0.2120        75.1485 
 1625.8408         8.7971       133.1339         0.0661        -0.0036        82.5016        31.5002         7.4896         4.1604      -999.0000         3.1800       853.3563         0.1168        11.5838         2.5410        20.3468       -67.5013         0.2023        75.1523 
