~VERSION INFORMATION
 VERS.                 2.0:   CWLS LOG ASCII STANDARD - VERSION 2.0
 WRAP.                  NO:   SINGLE LINE PER DEPTH STEP
~WELL INFORMATION
#MNEM.UNIT       DATA           DESCRIPTION MNEMONIC
#---------    -------------   --------------------------
 STRT.M         4.0000                      : START DEPTH
 STOP.M         2049.9700                     : STOP DEPTH
 STEP.M         0.1524                        : STEP VALUE
 NULL.          -999.0000                     : NULL VALUE
 SRVC.          PYPOZO                        : Service Company/Logging company
 DATE.          05/07/2025                    : LAS file Creation Date
 WELL    .      ARIEL-1                        : Well Name
 COMP    .      PYPOZO 2.0                    : Company
 FLD     .      UNKNOWN                       : Field
 LOC     .      UNKNOWN                       : Location
 LATI    .      0                             : Latitude/Northing
 LONG    .      0                             : Longitude/Easting
 APDAT   .      0                             : Elevation Above Permanent Datum
~CURVE INFORMATION
#MNEM          UNIT     API CODE   Curve Type Comments
#---------- ---------- ----------  ---------- --------
 DEPTH     .M                    : Depth      
 CALI      .IN                         : CALI       
 CILD      .mm/m                       : CILD       
 DPHI      .V/V                        : DPHI       
 DRHO      .G/C3                       : DRHO       
 DT        .US/F                       : DT         
 GR        .GAPI                       : GR         
 ILD       .OHMM                       : ILD        
 MINV      .OHMM                       : MINV       
 MLL       .OHMM                       : MLL        
 MNOR      .OHMM                       : MNOR       
 NEUT      .NAPI                       : NEUT       
 NPHI      .V/V                        : NPHI       
 PROX      .OHMM                       : PROX       
 RHOB      .G/C3                       : RHOB       
 SN        .OHMM                       : SN         
 SP        .MV                         : SP         
 SPHI      .V/V                        : SPHI       
 TEMP      .DEGC                       : TEMP       
~A Log data section
# ...
 1758.5812         9.5002        96.1524         0.0133        -0.0279        60.4904        30.4021        10.4612        20.0600      -999.0000        20.1400       741.3350         0.0980       191.8801         2.6281        11.0899       -59.8238         0.0374        78.7026 
 1758.7336         9.5017        85.3118        -0.0060        -0.0337        57.6014        32.0653        11.7989        20.0600      -999.0000        20.1400       745.9847         0.0953       123.3190         2.6599        12.9739       -60.5902         0.0157        78.7050 
 1758.8860         9.4994        75.1357        -0.0150         0.0149        55.4729        32.5785        13.5117        20.0600      -999.0000        20.1400       748.2637         0.0819       152.1165         2.6747        15.2660       -62.0876        -0.0002        78.7075 
 1759.0384         9.4668        63.3484        -0.0259         0.0640        53.9798        32.9670        16.1106        20.0600      -999.0000        20.1400       752.4843         0.0627        66.2841         2.6928        17.6809       -64.1119        -0.0114        78.7100 
 1759.1908         9.4130        50.7238        -0.0305         0.0045        55.4996        33.3326        19.8602        18.0625      -999.0000        18.6419       767.7646         0.0468        28.9305         2.7004        20.2653       -65.1494        -0.0000        78.7125 
 1759.3432         9.3579        42.1951        -0.0227        -0.0169        59.9715        34.2178        23.9969        10.5097      -999.0000        13.9000       788.5861         0.0370         6.3899         2.6875        22.8112       -65.8867         0.0335        78.7149 
 1759.4956         9.3310        35.5505        -0.0055        -0.0107        65.4728        35.7138        27.6414         3.8489      -999.0000         3.9000       804.7455         0.0257         6.4171         2.6591        25.3550       -66.2397         0.0747        78.7174 
 1759.6480         9.3581        34.3672         0.0073        -0.0006        70.4410        36.4829        28.6224         6.7913      -999.0000         7.0600       823.9372         0.0225        31.6381         2.6379        24.0759       -66.3613         0.1119        78.7199 
 1759.8004         9.3997        40.1482         0.0200         0.0047        74.0792        36.5564        25.5160         8.7608      -999.0000         6.9000       848.7042         0.0223        45.1887         2.6170        22.7134       -66.3896         0.1392        78.7224 
 1759.9528         9.4173        45.0029         0.0360        -0.0015        70.9041        35.8271        22.1597        15.5472      -999.0000        14.4409       870.3563         0.0269        66.0030         2.5906        21.3498       -66.4766         0.1154        78.7249 
 1760.1052         9.4116        50.2107         0.0488        -0.0145        68.1281        34.9778        20.1822        20.1966      -999.0000        20.2313       895.5449         0.0364        89.3367         2.5695        19.9874       -66.4149         0.0946        78.7273 
 1760.2576         9.3791        53.4004         0.0476        -0.0294        65.2340        34.0708        18.7316        20.2230      -999.0000        20.1800       913.7712         0.0509        17.0010         2.5714        18.6238       -66.1850         0.0729        78.7298 
 1760.4100         9.3719        55.3474         0.0373        -0.0429        62.4555        33.3632        17.9841         7.3124      -999.0000         9.4755       924.3218         0.0633         4.6885         2.5884        19.2947       -65.8331         0.0521        78.7323 
 1760.5624         9.3793        59.2089         0.0224        -0.0389        63.8541        34.3192        16.8309         3.0858      -999.0000         2.3800       933.4918         0.0850         4.6455         2.6130        17.5215       -65.2866         0.0626        78.7348 
 1760.7148         9.3881        66.6160         0.0243        -0.0077        68.2789        36.1454        15.0404         5.8200      -999.0000         3.9400       936.1755         0.0967         5.6368         2.6099        16.5902       -64.7392         0.0957        78.7372 
 1760.8672         9.3981        77.9844         0.0314         0.0027        72.5096        39.1094        12.9603         5.2600      -999.0000         5.6234       935.4486         0.0871        18.8378         2.5982        16.8775       -64.5360         0.1274        78.7397 
 1761.0196         9.3662        90.6090         0.0467         0.0057        76.8028        41.2043        11.2194        11.4600      -999.0000        11.7045       934.9328         0.0803        10.6738         2.5729        17.1374       -64.2598         0.1596        78.7422 
 1761.1720         9.3648        97.7724         0.0561         0.0036        77.3321        42.4399        10.4221        20.0600      -999.0000        20.3161       941.3384         0.0683        80.1696         2.5575        16.4261       -63.4956         0.1635        78.7447 
 1761.3244         9.4272       100.6032         0.0607        -0.0048        74.1956        43.1823        10.3522        20.0600      -999.0000        20.1470       954.1960         0.0643        97.7078         2.5499        14.0064       -62.3317         0.1400        78.7471 
 1761.4768         9.5158       101.6864         0.0564        -0.0132        71.0308        41.9190        10.3042        13.9515      -999.0000        20.1400       961.9897         0.0784         7.4307         2.5569        12.3808       -60.9588         0.1163        78.7496 
 1761.6292         9.5228       102.8059         0.0486        -0.0211        67.8659        40.3692        10.2900         5.0200      -999.0000         4.7400       979.1224         0.0958         7.1619         2.5699        11.3976       -60.0077         0.0926        78.7521 
 1761.7816         9.5435       104.5899         0.0360        -0.0315        64.6289        38.4478        10.1610        14.0157      -999.0000        14.1317       990.1329         0.1122        21.2339         2.5906        10.5005       -59.1668         0.0684        78.7546 
 1761.9340         9.5680       108.4037         0.0325        -0.0329        68.8218        36.2827         9.5298         2.4136      -999.0000         2.4027      1001.2632         0.1195         3.2340         2.5964        10.3419       -58.6652         0.0998        78.7571 
 1762.0864         9.5826       114.4201         0.0326        -0.0209        73.5765        33.3492         8.9183        13.0970      -999.0000         7.8938       996.9607         0.1068        13.0195         2.5961        10.7354       -58.7987         0.1354        78.7595 
 1762.2388         9.5847       117.8789         0.0429         0.0115        75.6942        31.6880         8.9344         5.2914      -999.0000        12.9800       991.1509         0.0881         5.3831         2.5792        11.0691       -59.3885         0.1513        78.7621 
 1762.3912         9.5989       119.8723         0.0488         0.0172        74.3044        31.3262         8.7634         5.1896      -999.0000         2.3800       970.6563         0.0735         3.3345         2.5695        11.2960       -59.7993         0.1409        78.7650 
 1762.5436         9.5795       122.3208         0.0569        -0.0031        76.3451        32.1006         8.5741         3.5800      -999.0000         3.5400       956.7690         0.0727        11.3509         2.5562        10.9201       -59.6735         0.1561        78.7686 
 1762.6960         9.5861       125.8887         0.0631        -0.0021        77.9016        34.8822         8.3009        10.2600      -999.0000         9.6600       917.5773         0.0833        10.5446         2.5459         9.9136       -59.3357         0.1678        78.7722 
 1762.8484         9.6055       134.4262         0.0586        -0.0004        77.9602        36.7730         7.7029         8.5400      -999.0000         7.9000       889.5228         0.1036        17.0228         2.5533         9.1521       -58.7963         0.1682        78.7758 
