~VERSION INFORMATION
 VERS.                 2.0:   CWLS LOG ASCII STANDARD - VERSION 2.0
 WRAP.                  NO:   SINGLE LINE PER DEPTH STEP
~WELL INFORMATION
#MNEM.UNIT       DATA           DESCRIPTION MNEMONIC
#---------    -------------   --------------------------
 STRT.M         4.0000                      : START DEPTH
 STOP.M         2049.9700                     : STOP DEPTH
 STEP.M         0.1524                        : STEP VALUE
 NULL.          -999.0000                     : NULL VALUE
 SRVC.          PYPOZO                        : Service Company/Logging company
 DATE.          05/07/2025                    : LAS file Creation Date
 WELL    .      ARIEL-1                        : Well Name
 COMP    .      PYPOZO 2.0                    : Company
 FLD     .      UNKNOWN                       : Field
 LOC     .      UNKNOWN                       : Location
 LATI    .      0                             : Latitude/Northing
 LONG    .      0                             : Longitude/Easting
 APDAT   .      0                             : Elevation Above Permanent Datum
~CURVE INFORMATION
#MNEM          UNIT     API CODE   Curve Type Comments
#---------- ---------- ----------  ---------- --------
 DEPTH     .M                    : Depth      
 CALI      .IN                         : CALI       
 CILD      .mm/m                       : CILD       
 DPHI      .V/V                        : DPHI       
 DRHO      .G/C3                       : DRHO       
 DT        .US/F                       : DT         
 GR        .GAPI                       : GR         
 ILD       .OHMM                       : ILD        
 MINV      .OHMM                       : MINV       
 MLL       .OHMM                       : MLL        
 MNOR      .OHMM                       : MNOR       
 NEUT      .NAPI                       : NEUT       
 NPHI      .V/V                        : NPHI       
 PROX      .OHMM                       : PROX       
 RHOB      .G/C3                       : RHOB       
 SN        .OHMM                       : SN         
 SP        .MV                         : SP         
 SPHI      .V/V                        : SPHI       
 TEMP      .DEGC                       : TEMP       
~A Log data section
# ...
 2037.0160         9.1273       200.8650      -999.0000      -999.0000        75.0417        35.8233         5.3785         5.0143         5.6837         7.1038       999.5153      -999.0000      -999.0000      -999.0000         7.5520       -49.4982         0.2659      -999.0000 
 2037.1684         9.1093       209.6716      -999.0000      -999.0000        74.2562        35.8449         5.1694         2.6524         5.4907         2.7893       975.3166      -999.0000      -999.0000      -999.0000         6.9878       -49.2550         0.2579      -999.0000 
 2037.3208         9.1001       217.1512      -999.0000      -999.0000        71.6854        36.7515         5.0051         4.8102         6.9284         5.2125       951.1327      -999.0000      -999.0000      -999.0000         6.4984       -50.0439         0.2440      -999.0000 
 2037.4732         9.1076       223.8768      -999.0000      -999.0000        70.3894        37.7804         4.8667         7.0679         5.8212         4.1488       914.9103      -999.0000      -999.0000      -999.0000         6.1867       -50.3569         0.2313      -999.0000 
 2037.6256         9.1255       230.6023      -999.0000      -999.0000        69.8664        36.8980         4.7365         2.9306         5.5439         3.4276       881.4560      -999.0000      -999.0000      -999.0000         5.9174       -50.1648         0.2300      -999.0000 
 2037.7780         9.1503       237.3333      -999.0000      -999.0000        71.5632        34.7252         4.6135         8.0569         6.1527         5.7294       850.0695      -999.0000      -999.0000      -999.0000         5.7468       -49.5953         0.2437      -999.0000 
 2037.9304         9.1753       248.0729      -999.0000      -999.0000        74.2596        33.9465         4.4311         4.1297         7.2863         7.4969       870.9427      -999.0000      -999.0000      -999.0000         5.7347       -49.3523         0.2635      -999.0000 
 2038.0828         9.2069       260.0924      -999.0000      -999.0000        75.5021        32.5193         4.2448         8.4416         7.6449         5.7014       904.0551      -999.0000      -999.0000      -999.0000         5.7113       -49.1094         0.2841      -999.0000 
 2038.2352         9.2299       272.1024      -999.0000      -999.0000        75.5951        31.8990         4.0751         5.3973         5.2609         2.8161       981.7722      -999.0000      -999.0000      -999.0000         5.6707       -49.2938         0.2884      -999.0000 
 2038.3876         9.2396       271.2643      -999.0000      -999.0000        73.5827        32.6230         4.0864         2.1329         4.5794         4.1315      1092.1889      -999.0000      -999.0000      -999.0000         5.5328       -49.5368         0.2757      -999.0000 
 2038.5400         9.2221       263.6578      -999.0000      -999.0000        71.0470        34.6789         4.1928         7.7235         6.1049         5.4479      1136.9249      -999.0000      -999.0000      -999.0000         5.3920       -49.7800         0.2570      -999.0000 
 2038.6924         9.1833       256.0452      -999.0000      -999.0000        69.5659        36.8356         4.3056         3.3010         5.1655         4.6156      1184.9314      -999.0000      -999.0000      -999.0000         5.4600       -50.0252         0.2377      -999.0000 
 2038.8448         9.1457       248.4387      -999.0000      -999.0000        68.5926        36.9040         4.4251         3.8068         7.4444         3.9023      1198.9783      -999.0000      -999.0000      -999.0000         5.4897       -49.6873         0.2196      -999.0000 
 2038.9972         9.1345       240.8200      -999.0000      -999.0000        68.9684        36.9379         4.5525        10.1349        11.2080         7.8025      1229.7166      -999.0000      -999.0000      -999.0000         5.7682       -49.4958         0.2270      -999.0000 
 2039.1496         9.1429       233.6198      -999.0000      -999.0000        69.5331        37.1523         4.6805         7.4176         9.6427         5.7971      1216.8059      -999.0000      -999.0000      -999.0000         6.2324       -49.7805         0.2278      -999.0000 
 2039.3020         9.1587       226.4081      -999.0000      -999.0000        68.5807        39.0405         4.8168         4.4206         7.1947         4.9011      1204.7920      -999.0000      -999.0000      -999.0000         6.6596       -50.1430         0.2171      -999.0000 
 2039.4544         9.1741       219.2022      -999.0000      -999.0000        66.8767        39.5475         4.9620         6.5385         6.1672         4.2485      1179.9055      -999.0000      -999.0000      -999.0000         7.0898       -49.9690         0.2042      -999.0000 
 2039.6068         9.1890       195.9846      -999.0000      -999.0000        65.2742        39.4081         5.5024         4.3806         7.6985         4.2955      1121.6479      -999.0000      -999.0000      -999.0000         7.4101       -49.6624         0.1913      -999.0000 
 2039.7592         9.1682       179.7974      -999.0000      -999.0000        65.6797        38.2662         5.9618         6.6783         9.6516         5.8681      1053.2884      -999.0000      -999.0000      -999.0000         7.6231       -49.7251         0.1991      -999.0000 
 2039.9116         9.1381       149.4588      -999.0000      -999.0000        69.6703        37.5140         7.0908         5.7293        11.9281         6.6474      1012.7554      -999.0000      -999.0000      -999.0000         7.9533       -49.6020         0.2341      -999.0000 
 2040.0640         9.1472       135.5140      -999.0000      -999.0000        73.1972        36.6323         7.7793         7.5400        16.1347         8.1726       989.5071      -999.0000      -999.0000      -999.0000         8.3018       -49.4789         0.2699      -999.0000 
 2040.2164         9.1622       157.6822      -999.0000      -999.0000        72.3202        35.7106         6.7419         9.1681        14.0401         7.9357      1009.6681      -999.0000      -999.0000      -999.0000         8.7810       -49.3031         0.2721      -999.0000 
 2040.3688         9.1641       168.1576      -999.0000      -999.0000        69.9902        34.9977         6.3468         4.7860         8.2353         5.1564      1047.4701      -999.0000      -999.0000      -999.0000         8.8626       -49.1113         0.2556      -999.0000 
 2040.5212         9.1613       177.0964      -999.0000      -999.0000        69.1894        33.1954         6.0466         4.2769         5.1554         4.7665      1123.1537      -999.0000      -999.0000      -999.0000         8.4657       -48.9193         0.2350      -999.0000 
 2040.6736         9.1924       183.7286      -999.0000      -999.0000        69.2769        31.8762         5.8428         2.7429         3.0861         3.0478      1163.8551      -999.0000      -999.0000      -999.0000         7.8118       -48.7275         0.2270      -999.0000 
 2040.8260         9.2190       186.2738      -999.0000      -999.0000        69.5649        31.1955         5.7684         2.9836         5.8946         4.0557      1172.3132      -999.0000      -999.0000      -999.0000         6.9745       -48.8844         0.2278      -999.0000 
 2040.9784         9.2575       198.9383      -999.0000      -999.0000        69.9798        31.0624         5.4267         5.0605         7.4429         5.9511      1166.9513      -999.0000      -999.0000      -999.0000         6.3798       -49.0762         0.2306      -999.0000 
 2041.1308         9.2593       207.9193      -999.0000      -999.0000        70.5595        30.2954         5.2096         4.1298         5.9327         4.6775      1141.6997      -999.0000      -999.0000      -999.0000         6.1546       -49.2682         0.2346      -999.0000 
 2041.2832         9.2330       216.2056      -999.0000      -999.0000        71.1466        29.6792         5.0252         3.2717         6.8178         4.0892      1113.7943      -999.0000      -999.0000      -999.0000         6.2214       -49.4375         0.2385      -999.0000 
