~VERSION INFORMATION
 VERS.                 2.0:   CWLS LOG ASCII STANDARD - VERSION 2.0
 WRAP.                  NO:   SINGLE LINE PER DEPTH STEP
~WELL INFORMATION
#MNEM.UNIT       DATA           DESCRIPTION MNEMONIC
#---------    -------------   --------------------------
 STRT.M         4.0000                      : START DEPTH
 STOP.M         2049.9700                     : STOP DEPTH
 STEP.M         0.1524                        : STEP VALUE
 NULL.          -999.0000                     : NULL VALUE
 SRVC.          PYPOZO                        : Service Company/Logging company
 DATE.          05/07/2025                    : LAS file Creation Date
 WELL    .      ARIEL-1                        : Well Name
 COMP    .      PYPOZO 2.0                    : Company
 FLD     .      UNKNOWN                       : Field
 LOC     .      UNKNOWN                       : Location
 LATI    .      0                             : Latitude/Northing
 LONG    .      0                             : Longitude/Easting
 APDAT   .      0                             : Elevation Above Permanent Datum
~CURVE INFORMATION
#MNEM          UNIT     API CODE   Curve Type Comments
#---------- ---------- ----------  ---------- --------
 DEPTH     .M                    : Depth      
 CALI      .IN                         : CALI       
 CILD      .mm/m                       : CILD       
 DPHI      .V/V                        : DPHI       
 DRHO      .G/C3                       : DRHO       
 DT        .US/F                       : DT         
 GR        .GAPI                       : GR         
 ILD       .OHMM                       : ILD        
 MINV      .OHMM                       : MINV       
 MLL       .OHMM                       : MLL        
 MNOR      .OHMM                       : MNOR       
 NEUT      .NAPI                       : NEUT       
 NPHI      .V/V                        : NPHI       
 PROX      .OHMM                       : PROX       
 RHOB      .G/C3                       : RHOB       
 SN        .OHMM                       : SN         
 SP        .MV                         : SP         
 SPHI      .V/V                        : SPHI       
 TEMP      .DEGC                       : TEMP       
~A Log data section
# ...
 1343.1388        11.5183       625.8795         0.1096        -0.0105       112.0533        81.4604         1.5958         1.1800      -999.0000         1.3552       501.0784         0.2479         2.5295         2.4691         1.3438       -41.5641         0.4236      -999.0000 
 1343.2912        11.4863       596.3517         0.0928        -0.0144       110.6383        81.0535         1.6821         1.1800      -999.0000         1.3400       505.0910         0.2564         2.6487         2.4969         1.4083       -41.4693         0.4130      -999.0000 
 1343.4436        11.5132       564.9402         0.0726        -0.0071       111.9193        80.7970         1.7794         1.1800      -999.0000         1.3400       507.6040         0.2639         2.3283         2.5302         1.5272       -41.3745         0.4226      -999.0000 
 1343.5960        11.5072       521.2866         0.0630        -0.0024       113.2000        80.3863         1.9165         1.2200      -999.0000         1.3400       507.8863         0.2674         2.4380         2.5461         1.6058       -41.2797         0.4322      -999.0000 
 1343.7484        11.4674       486.4019         0.0613        -0.0005       114.4807        79.9040         2.0548         1.2200      -999.0000         1.3800       505.4760         0.2643         2.8810         2.5488         1.7194       -43.3936         0.4418      -999.0000 
 1343.9008        11.4582       463.4348         0.0688        -0.0038       115.7446        79.0628         2.1547         1.3000      -999.0000         1.4200       508.5409         0.2501         2.7773         2.5365         1.8781       -43.8183         0.4513      -999.0000 
 1344.0532        11.5900       449.2878         0.0695        -0.0053       113.9077        78.2736         2.2266         1.3802      -999.0000         1.4976       511.5600         0.2277         2.9111         2.5353         1.9545       -44.0583         0.4375      -999.0000 
 1344.2056        11.5740       437.9305         0.0596        -0.0001       108.7049        76.5696         2.2844         1.3738      -999.0000         1.4915       513.3759         0.2097         2.7431         2.5517         1.9842       -44.2590         0.3985      -999.0000 
 1344.3580        11.6487       426.5767         0.0522         0.0074       103.7248        74.9000         2.3371         1.3675      -999.0000         1.4854       510.9064         0.1987         2.5997         2.5638         1.9984       -44.3299         0.3612      -999.0000 
 1344.5104        11.7336       423.6415         0.0454         0.0062        98.7447        73.4132         2.3595         1.3613      -999.0000         1.4793       508.0524         0.1923         2.5295         2.5750         2.0145       -44.3402         0.3239      -999.0000 
 1344.6628        11.7873       425.5738         0.0435        -0.0057        95.9227        73.0338         2.3498         1.3553      -999.0000         1.4733       505.5918         0.1893         2.8512         2.5782         2.0358       -44.3543         0.3028      -999.0000 
 1344.8152        11.7918       427.9633         0.0453        -0.0144       101.1439        72.6714         2.3411         1.3492      -999.0000         1.4672       503.0013         0.1889         2.5063         2.5752         2.0600       -44.2587         0.3419      -999.0000 
 1344.9676        11.7773       425.5919         0.0680        -0.0148       107.5706        72.6902         2.3495         1.3431      -999.0000         1.4611       502.4344         0.1860         2.4833         2.5377         2.0855       -43.9957         0.3900      -999.0000 
 1345.1200        11.7766       421.4243         0.0638        -0.0180       114.0566        73.1087         2.3731         1.3400      -999.0000         1.4600       499.6724         0.1844         2.7992         2.5447         2.0968       -43.9132         0.4386      -999.0000 
 1345.2724        11.7890       417.4376         0.0617        -0.0205       120.5087        73.5157         2.3953         1.3400      -999.0000         1.4600       500.6869         0.1884         2.7992         2.5482         2.1010       -43.8422         0.4870      -999.0000 
 1345.4248        11.7939       413.9060         0.0687        -0.0238       119.3841        73.8800         2.4152         1.3399      -999.0000         1.4600       499.2766         0.1935         3.0132         2.5366         2.1060       -43.8301         0.4785      -999.0000 
 1345.5772        11.7882       411.4992         0.0674        -0.0175       111.8378        74.3180         2.4302         1.3400      -999.0000         1.4831       499.6987         0.1966         3.2736         2.5388         2.1140       -43.9957         0.4220      -999.0000 
 1345.7296        11.7906       409.5085         0.0654        -0.0118       104.3157        73.4558         2.4425         1.3800      -999.0000         1.4200       499.3430         0.2013         2.7735         2.5420         2.1261       -44.2350         0.3657      -999.0000 
 1345.8820        11.7867       407.0409         0.0646        -0.0049        98.4915        73.0030         2.4573         1.3800      -999.0000         1.3800       500.1530         0.2070         3.0692         2.5435         2.1461       -44.5285         0.3220      -999.0000 
 1346.0344        11.8110       403.9509         0.0698        -0.0029        98.8409        72.6920         2.4767         1.3420      -999.0000         1.3800       501.9052         0.2015         2.9856         2.5349         2.1881       -44.9312         0.3247      -999.0000 
 1346.1868        11.8308       399.6943         0.0748        -0.0053        99.4837        72.6313         2.5001         1.3414      -999.0000         1.3800       503.7084         0.1905         2.9856         2.5267         2.2258       -45.3173         0.3295      -999.0000 
 1346.3392        11.8308       396.8832         0.0670         0.0011        99.7255        72.2296         2.5203         1.3019      -999.0000         1.3800       503.2662         0.1829         3.1552         2.5395         2.2638       -45.6289         0.3313      -999.0000 
 1346.4916        11.8206       394.4353         0.0606         0.0088        98.8182        71.5222         2.5349         1.3000      -999.0000         1.3865       505.6237         0.1808         2.5651         2.5500         2.2845       -45.8502         0.3245      -999.0000 
 1346.6440        11.8299       392.2249         0.0564         0.0116        98.9676        70.6484         2.5507         1.3000      -999.0000         1.4054       513.8643         0.1848         2.8512         2.5570         2.2903       -46.0395         0.3256      -999.0000 
 1346.7964        11.8729       389.3213         0.0580         0.0127        99.6742        69.4902         2.5662         1.3000      -999.0000         1.4200       523.9495         0.1866         2.7992         2.5543         2.2752       -46.2778         0.3309      -999.0000 
 1346.9488        11.9050       388.2747         0.0571         0.0067        98.5703        68.8614         2.5750         1.2943      -999.0000         1.4067       529.7574         0.1832         3.1865         2.5557         2.2361       -46.3386         0.3226      -999.0000 
 1347.1012        11.8958       388.7298         0.0711        -0.0021        97.4663        68.3262         2.5723         1.2710      -999.0000         1.3833       537.3502         0.1784         2.9042         2.5327         2.2165       -46.3280         0.3144      -999.0000 
 1347.2536        11.8926       389.5331         0.0788        -0.0107        96.4745        68.3039         2.5681         1.2476      -999.0000         1.3600       541.6079         0.1742         2.9311         2.5200         2.2354       -46.6381         0.3069      -999.0000 
 1347.4060        11.8977       389.5717         0.0812        -0.0196        97.1231        68.6920         2.5669         1.2243      -999.0000         1.3367       543.3777         0.1750         2.6003         2.5161         2.2727       -46.0644         0.3118      -999.0000 
