~VERSION INFORMATION
 VERS.                 2.0:   CWLS LOG ASCII STANDARD - VERSION 2.0
 WRAP.                  NO:   SINGLE LINE PER DEPTH STEP
~WELL INFORMATION
#MNEM.UNIT       DATA           DESCRIPTION MNEMONIC
#---------    -------------   --------------------------
 STRT.M         149.0000                      : START DEPTH
 STOP.M         2735.0756                     : STOP DEPTH
 STEP.M         0.1524                        : STEP VALUE
 NULL.          -999.0000                     : NULL VALUE
 SRVC.          PYPOZO                        : Service Company/Logging company
 DATE.          03/07/2025                    : LAS file Creation Date
 WELL    .      CABALLO-1                      : Well Name
 COMP    .      PYPOZO 2.0                    : Company
 FLD     .      UNKNOWN                       : Field
 LOC     .      UNKNOWN                       : Location
 LATI    .      0                             : Latitude/Northing
 LONG    .      0                             : Longitude/Easting
 APDAT   .      0                             : Elevation Above Permanent Datum
~CURVE INFORMATION
#MNEM          UNIT     API CODE   Curve Type Comments
#---------- ---------- ----------  ---------- --------
 DEPTH     .M                    : Depth      
 CALI      .IN                         : CALI       
 CILD      .MM/M                       : CILD       
 DT        .US/F                       : DT         
 GR        .GAPI                       : GR         
 ILD       .OHMM                       : ILD        
 INV       .OHMM                       : INV        
 LAT       .OHMM                       : LAT        
 LN        .OHMM                       : LN         
 MINV      .OHMM                       : MINV       
 MNOR      .OHMM                       : MNOR       
 NEUT      .NAPI                       : NEUT       
 SN        .OHMM                       : SN         
 SP        .MV                         : SP         
 SPHI      .V/V                        : SPHI       
~A Log data section
# ...
 2731.5704         6.6745       615.1008        85.4774       141.9481         1.0658         2.3233      -999.0000         3.0597      -999.0000      -999.0000       767.0298         2.6414        -8.6786         0.3007 
 2731.7228         6.6838       616.4423        86.4832       141.6442         1.0622         2.2486      -999.0000         2.9633      -999.0000      -999.0000       760.1816         2.5711        -8.5477         0.3092 
 2731.8752         6.6931       620.3923        87.4879       141.3227         1.0519         2.1738      -999.0000         2.9656      -999.0000      -999.0000       762.5677         2.6745        -8.9290         0.3117 
 2732.0276         6.7023       623.7954        88.4927       142.3199         1.0431         2.0990      -999.0000         2.9966      -999.0000      -999.0000       779.8830         2.8904        -9.3621         0.3191 
 2732.1800         6.7023       619.4841        88.4927       142.2785         1.0545         2.0242      -999.0000         3.0287      -999.0000      -999.0000       815.1628         2.9936        -3.9539         0.3191 
 2732.3324         6.7023       600.9687        88.4927       141.8202         1.1044         1.9495      -999.0000         3.0609      -999.0000      -999.0000       856.6161         2.9995        -3.6693         0.3191 
 2732.4848      -999.0000       576.2369      -999.0000       142.5097         1.1768         2.0335      -999.0000         3.0930      -999.0000      -999.0000       885.2454         3.0197        -3.2645      -999.0000 
 2732.6372      -999.0000       549.7614      -999.0000       143.8663         1.2591         2.2360      -999.0000         3.1252      -999.0000      -999.0000       922.9447         3.1357        -2.8429      -999.0000 
 2732.7896      -999.0000       539.0804      -999.0000       145.1229         1.2952         2.4574      -999.0000         3.1574      -999.0000      -999.0000       978.2351         3.2968        -2.6977      -999.0000 
 2732.9420      -999.0000       528.2487      -999.0000       148.7553         1.3332         2.6904      -999.0000         3.1896      -999.0000      -999.0000      1018.0857         3.5155        -2.6837      -999.0000 
 2733.0944      -999.0000       517.1971      -999.0000       147.9118         1.3737         2.9772      -999.0000         3.0940      -999.0000      -999.0000      1023.7292         3.5237        -2.8184      -999.0000 
 2733.2468      -999.0000       506.3599      -999.0000       146.7140         1.4151         3.2765      -999.0000         2.9484      -999.0000      -999.0000      1000.9647         3.5836        -2.7318      -999.0000 
 2733.3992      -999.0000       496.6992      -999.0000       145.7192         1.4534         3.5755      -999.0000         2.7982      -999.0000      -999.0000       966.6475         3.6402        -2.6253      -999.0000 
 2733.5516      -999.0000       488.4971      -999.0000       145.4018         1.4872         3.5749      -999.0000         2.8441      -999.0000      -999.0000       938.1704         3.6143        -2.9039      -999.0000 
 2733.7040      -999.0000       481.1563      -999.0000       144.7674         1.5184         3.3798      -999.0000         3.1307      -999.0000      -999.0000       934.6505         3.7330        -3.5349      -999.0000 
 2733.8564      -999.0000       477.6321      -999.0000       144.2748         1.5337         3.1555      -999.0000         3.1762      -999.0000      -999.0000       946.3345         3.9777        -4.2690      -999.0000 
 2734.0088      -999.0000       478.3088      -999.0000       139.8425         1.5307         2.9731      -999.0000         3.1537      -999.0000      -999.0000       954.2831         4.0247        -5.0075      -999.0000 
 2734.1612      -999.0000       478.9849      -999.0000       135.4280         1.5278         2.9400      -999.0000         3.1312      -999.0000      -999.0000       949.3996         3.7341        -4.4497      -999.0000 
 2734.3136      -999.0000       479.6609      -999.0000       133.1047         1.5248         2.9400      -999.0000         3.1087      -999.0000      -999.0000       898.1538         3.6976        -4.6540      -999.0000 
 2734.4660      -999.0000       480.3372      -999.0000       130.3056         1.5219         3.2709      -999.0000         3.0861      -999.0000      -999.0000       847.6924         4.0039        -5.0961      -999.0000 
 2734.6184      -999.0000       481.0140      -999.0000       127.4282         1.5189         3.8496      -999.0000         3.0636      -999.0000      -999.0000       926.2695         4.0852        -5.1292      -999.0000 
 2734.7708      -999.0000       481.6779      -999.0000       125.0365         1.5161         4.0438      -999.0000         3.0411      -999.0000      -999.0000      1033.8890         3.8293        -4.9095      -999.0000 
 2734.9232      -999.0000       482.3014      -999.0000       124.5583         1.5134         3.8202      -999.0000         3.0186      -999.0000      -999.0000      1010.4880         3.6773        -4.8820      -999.0000 
 2735.0756      -999.0000       482.3014      -999.0000       124.5583         1.5134         3.8202      -999.0000         3.0186      -999.0000      -999.0000      1010.4880         3.7252        -6.1470      -999.0000 
