~VERSION INFORMATION
 VERS.                 2.0:   CWLS LOG ASCII STANDARD - VERSION 2.0
 WRAP.                  NO:   SINGLE LINE PER DEPTH STEP
~WELL INFORMATION
#MNEM.UNIT       DATA           DESCRIPTION MNEMONIC
#---------    -------------   --------------------------
 STRT.M         149.0000                      : START DEPTH
 STOP.M         2735.0756                     : STOP DEPTH
 STEP.M         0.1524                        : STEP VALUE
 NULL.          -999.0000                     : NULL VALUE
 SRVC.          PYPOZO                        : Service Company/Logging company
 DATE.          03/07/2025                    : LAS file Creation Date
 WELL    .      CABALLO-1                      : Well Name
 COMP    .      PYPOZO 2.0                    : Company
 FLD     .      UNKNOWN                       : Field
 LOC     .      UNKNOWN                       : Location
 LATI    .      0                             : Latitude/Northing
 LONG    .      0                             : Longitude/Easting
 APDAT   .      0                             : Elevation Above Permanent Datum
~CURVE INFORMATION
#MNEM          UNIT     API CODE   Curve Type Comments
#---------- ---------- ----------  ---------- --------
 DEPTH     .M                    : Depth      
 CALI      .IN                         : CALI       
 CILD      .MM/M                       : CILD       
 DT        .US/F                       : DT         
 GR        .GAPI                       : GR         
 ILD       .OHMM                       : ILD        
 INV       .OHMM                       : INV        
 LAT       .OHMM                       : LAT        
 LN        .OHMM                       : LN         
 MINV      .OHMM                       : MINV       
 MNOR      .OHMM                       : MNOR       
 NEUT      .NAPI                       : NEUT       
 SN        .OHMM                       : SN         
 SP        .MV                         : SP         
 SPHI      .V/V                        : SPHI       
~A Log data section
# ...
 2556.7676         6.8604       195.4754        78.4158       107.8578         5.1157         6.0934      -999.0000        41.6281      -999.0000      -999.0000      1092.5829        39.8927       -14.0345         0.2423 
 2556.9200         6.8614       194.6869        77.4392       108.2802         5.1365         7.1002      -999.0000        42.2857      -999.0000      -999.0000      1103.4491        40.2764       -13.7370         0.2346 
 2557.0724         6.8878       194.5310        74.9933       109.1255         5.1406         7.8852      -999.0000        43.1847      -999.0000      -999.0000      1111.4528        40.4493       -13.1920         0.2207 
 2557.2248         6.9155       195.8120        73.2651       109.9229         5.1070         8.6047      -999.0000        44.4032      -999.0000      -999.0000      1119.0135        40.5093       -12.6092         0.2090 
 2557.3772         6.9431       197.3915        73.0689       110.4748         5.0661         9.0237      -999.0000        45.2277      -999.0000      -999.0000      1123.8728        40.3530       -12.3190         0.2018 
 2557.5296         6.9707       198.5160        73.4816       111.4870         5.0374         9.2218      -999.0000        45.9679      -999.0000      -999.0000      1113.7478        39.3194       -12.3124         0.2084 
 2557.6820         6.9984       198.6500        73.5289       112.2752         5.0340         9.4013      -999.0000        46.8156      -999.0000      -999.0000      1087.8146        38.2839       -12.6072         0.2070 
 2557.8344         6.9701       198.2944        72.9980       115.1536         5.0430         9.5993      -999.0000        47.4908      -999.0000      -999.0000      1070.7960        37.9571       -13.2227         0.2041 
 2557.9868         6.9384       197.1798        72.6904       115.7470         5.0715         9.7743      -999.0000        48.1248      -999.0000      -999.0000      1077.7107        37.6389       -14.0725         0.2019 
 2558.1392         6.9067       195.9966        73.4727       114.6055         5.1022         9.9667      -999.0000        48.5475      -999.0000      -999.0000      1091.7190        37.3199       -14.9733         0.2037 
 2558.2916         6.9139       194.8134        74.6860       112.5349         5.1332        10.1470      -999.0000        48.9198      -999.0000      -999.0000      1101.9313        37.2563       -15.2686         0.2102 
 2558.4440         6.9579       193.8222        75.6416       110.4755         5.1594        10.3837      -999.0000        48.8952      -999.0000      -999.0000      1112.2556        37.4807       -14.9032         0.2166 
 2558.5964         7.0040       193.2245        76.3462       109.0535         5.1753        10.8942      -999.0000        48.7695      -999.0000      -999.0000      1124.1173        37.5863       -14.0616         0.2231 
 2558.7488         7.0466       192.6305        76.7926       107.9438         5.1913        11.3044      -999.0000        48.5255      -999.0000      -999.0000      1131.8788        37.6356       -12.8976         0.2282 
 2558.9012         7.0327       192.1054        76.5584       106.8875         5.2055        12.1969      -999.0000        48.1285      -999.0000      -999.0000      1128.1558        37.4997       -12.1678         0.2273 
 2559.0536         7.0154       192.6270        75.7005       107.9592         5.1916        13.1454      -999.0000        47.3289      -999.0000      -999.0000      1111.6027        36.9919       -13.1143         0.2244 
 2559.2060         6.9981       194.9984        74.9119       108.2290         5.1284        14.1203      -999.0000        46.2294      -999.0000      -999.0000      1091.6326        36.1857       -14.0374         0.2216 
 2559.3584         6.9808       197.2686        74.4664       107.5124         5.0694        14.9577      -999.0000        45.5884      -999.0000      -999.0000      1066.5332        35.4151       -14.1022         0.2187 
 2559.5108         6.9635       198.6500        74.0823       106.7970         5.0340        15.9126      -999.0000        44.7302      -999.0000      -999.0000      1028.4114        34.9887       -13.7934         0.2158 
 2559.6632         6.9545       198.6059        73.5796       106.0816         5.0351        16.5888      -999.0000        44.0488      -999.0000      -999.0000       991.1996        35.2402       -13.2982         0.2129 
 2559.8156         6.9676       198.2560        73.7951       105.3662         5.0440        17.1672      -999.0000        43.3920      -999.0000      -999.0000       986.8927        35.4556       -12.7520         0.2153 
 2559.9680         6.9820       197.4662        76.1546       104.6496         5.0642        17.6241      -999.0000        43.3960      -999.0000      -999.0000      1021.8414        35.6538       -12.4167         0.2396 
 2560.1204         6.9963       196.6173        79.3273       102.5343         5.0860        18.1815      -999.0000        44.1452      -999.0000      -999.0000      1063.0295        36.7777       -12.4630         0.2658 
 2560.2728         6.9998       195.4460        81.7031       101.6723         5.1166        19.8016      -999.0000        45.5118      -999.0000      -999.0000      1093.4678        38.1028       -12.5306         0.2714 
 2560.4252         7.0000       193.8661        82.7773       102.9169         5.1583        20.7831      -999.0000        45.9759      -999.0000      -999.0000      1110.5936        38.7326       -12.6948         0.2585 
 2560.5776         7.0000       192.2852        81.5143       102.6723         5.2007        21.9587      -999.0000        46.1996      -999.0000      -999.0000      1114.6324        38.8325       -12.8758         0.2455 
 2560.7300         7.0000       190.7061        78.8090       101.7618         5.2437        24.8639      -999.0000        46.4230      -999.0000      -999.0000      1096.4957        39.1559       -12.9849         0.2326 
 2560.8824         6.9850       189.1270        75.4637       101.2268         5.2875        26.2631      -999.0000        46.6464      -999.0000      -999.0000      1040.9967        39.3087       -12.9584         0.2197 
 2561.0348         6.8984       187.9107        72.2156       100.7953         5.3217        27.2134      -999.0000        46.8637      -999.0000      -999.0000       963.2884        39.3856       -12.9817         0.2067 
 2561.1872         6.8076       188.1106        71.0934       102.2177         5.3161        28.1638      -999.0000        46.5482      -999.0000      -999.0000       903.4108        38.5192       -12.9413         0.1960 
 2561.3396         6.8083       189.6893        71.4050       103.9109         5.2719        29.1154      -999.0000        46.3354      -999.0000      -999.0000       879.5613        37.4288       -12.8825         0.1961 
 2561.4920         6.8290       191.1608        72.3773       104.3566         5.2313        29.3062      -999.0000        46.4711      -999.0000      -999.0000       886.3143        36.0585       -12.8069         0.2047 
 2561.6444         6.8506       192.2645        74.4803       104.5378         5.2012        28.9449      -999.0000        46.9699      -999.0000      -999.0000       896.3004        35.2177       -12.7147         0.2134 
 2561.7968         6.8722       193.0572        76.9593       101.9167         5.1798        28.4955      -999.0000        47.8806      -999.0000      -999.0000       894.9951        34.7414       -12.5986         0.2240 
 2561.9492         6.8795       193.7280        78.4300        98.2839         5.1619        28.1614      -999.0000        48.4034      -999.0000      -999.0000       910.7967        34.3246       -12.6029         0.2412 
 2562.1016         6.8391       194.0100        79.9359        92.7413         5.1544        28.3133      -999.0000        48.7536      -999.0000      -999.0000       943.0116        33.8931       -12.8582         0.2562 
 2562.2540         6.7958       194.0100        80.9499        90.9590         5.1544        28.5740      -999.0000        49.0299      -999.0000      -999.0000       960.8324        33.5529       -13.2078         0.2613 
