~VERSION INFORMATION
 VERS.                 2.0:   CWLS LOG ASCII STANDARD - VERSION 2.0
 WRAP.                  NO:   SINGLE LINE PER DEPTH STEP
~WELL INFORMATION
#MNEM.UNIT       DATA           DESCRIPTION MNEMONIC
#---------    -------------   --------------------------
 STRT.M         149.0000                      : START DEPTH
 STOP.M         2735.0756                     : STOP DEPTH
 STEP.M         0.1524                        : STEP VALUE
 NULL.          -999.0000                     : NULL VALUE
 SRVC.          PYPOZO                        : Service Company/Logging company
 DATE.          03/07/2025                    : LAS file Creation Date
 WELL    .      CABALLO-1                      : Well Name
 COMP    .      PYPOZO 2.0                    : Company
 FLD     .      UNKNOWN                       : Field
 LOC     .      UNKNOWN                       : Location
 LATI    .      0                             : Latitude/Northing
 LONG    .      0                             : Longitude/Easting
 APDAT   .      0                             : Elevation Above Permanent Datum
~CURVE INFORMATION
#MNEM          UNIT     API CODE   Curve Type Comments
#---------- ---------- ----------  ---------- --------
 DEPTH     .M                    : Depth      
 CALI      .IN                         : CALI       
 CILD      .MM/M                       : CILD       
 DT        .US/F                       : DT         
 GR        .GAPI                       : GR         
 ILD       .OHMM                       : ILD        
 INV       .OHMM                       : INV        
 LAT       .OHMM                       : LAT        
 LN        .OHMM                       : LN         
 MINV      .OHMM                       : MINV       
 MNOR      .OHMM                       : MNOR       
 NEUT      .NAPI                       : NEUT       
 SN        .OHMM                       : SN         
 SP        .MV                         : SP         
 SPHI      .V/V                        : SPHI       
~A Log data section
# ...
 1011.7364        15.6652      -999.0000       129.7318        55.0005      -999.0000      -999.0000         5.0615         4.1585         0.7471         0.8216       653.5474         3.2275        -8.9323         0.5935 
 1011.8888        15.6610      -999.0000       147.3376        54.0056      -999.0000      -999.0000         4.7616         4.2029         0.7472         0.8473       638.8102         3.1611        -8.8366         0.7133 
 1012.0412        15.7281      -999.0000       134.7094        52.3325      -999.0000      -999.0000         4.3904         4.2433         0.7473         0.8347       623.6129         3.0489        -9.1375         0.6276 
 1012.1936        15.8253      -999.0000       132.2255        48.9211      -999.0000      -999.0000         3.8558         4.2930         0.7474         0.8176       608.2405         2.8892        -9.3964         0.6101 
 1012.3460        15.8949      -999.0000       142.7195        47.5749      -999.0000      -999.0000         3.4280         4.3892         0.7475         0.8005       590.2146         2.7812        -9.3435         0.6818 
 1012.4984        15.9080      -999.0000       146.6119        48.8688      -999.0000      -999.0000         3.3417         4.4810         0.7476         0.7900       589.4916         2.8736        -9.1939         0.7088 
 1012.6508        15.9313      -999.0000       131.0043        49.8717      -999.0000      -999.0000         3.3414         4.5772         0.7477         0.7798       601.5759         2.9592        -9.0460         0.6022 
 1012.8032        16.0208      -999.0000       107.7535        49.7712      -999.0000      -999.0000         3.3748         4.6687         0.7477         0.7695       628.9626         2.9274        -8.8931         0.4427 
 1012.9556        16.1026      -999.0000       108.6865        48.7505      -999.0000      -999.0000         3.4737         4.7526         0.7333         0.7606       665.8809         2.8887        -8.7469         0.4483 
 1013.1080        16.0323      -999.0000       113.5604        48.6680      -999.0000      -999.0000         3.5334         4.7529         0.7324         0.7688       706.1285         2.8382        -8.6098         0.4817 
 1013.2604        15.8166      -999.0000       118.5910        52.1120      -999.0000      -999.0000         3.5341         4.7203         0.7325         0.7771       731.5388         2.7921        -8.6006         0.5163 
 1013.4128        15.6802      -999.0000       123.6197        54.4655      -999.0000      -999.0000         3.5256         4.6899         0.7326         0.7853       735.4488         2.7553        -8.5984         0.5508 
 1013.5652        15.6547      -999.0000       128.6501        55.4722      -999.0000      -999.0000         3.4635         4.6564         0.7182         0.7935       732.5902         2.7410        -8.6009         0.5854 
 1013.7176        15.7125      -999.0000       133.6806        55.7951      -999.0000      -999.0000         3.4721         4.6194         0.7173         0.8015       727.8993         2.7253        -8.6000         0.6199 
 1013.8700        15.7961      -999.0000       138.7112        55.5778      -999.0000      -999.0000         3.5383         4.5826         0.7174         0.8089       722.7045         2.7116        -8.6000         0.6545 
 1014.0224        15.8730      -999.0000       118.0003        53.9292      -999.0000      -999.0000         3.5712         4.5464         0.7174         0.8162       716.6877         2.7024        -8.6000         0.5130 
 1014.1748        15.8999      -999.0000       113.2156        54.5117      -999.0000      -999.0000         3.6351         4.5094         0.7175         0.8235       707.6490         2.7054        -8.6000         0.4796 
 1014.3272        15.8934      -999.0000       109.7517        55.5879      -999.0000      -999.0000         3.6349         4.4724         0.7176         0.8309       698.5016         2.7085        -8.6000         0.4558 
 1014.4796        15.9222      -999.0000       106.2878        56.6641      -999.0000      -999.0000         3.6340         4.4356         0.7218         0.8382       689.2166         2.7124        -8.6000         0.4320 
 1014.6320        15.9482      -999.0000       117.1706        57.7404      -999.0000      -999.0000         3.6389         4.3999         0.7326         0.8455       677.1965         2.7155        -8.6000         0.5063 
 1014.7844        15.9342      -999.0000       129.8975        58.4250      -999.0000      -999.0000         3.6719         4.3683         0.7334         0.8478       661.8229         2.7192        -8.6000         0.5937 
 1014.9368        15.8738      -999.0000       128.5817        57.3682      -999.0000      -999.0000         3.7459         4.3462         0.7335         0.8421       646.3264         2.7201        -8.6000         0.5851 
 1015.0892        15.8150      -999.0000       118.4214        56.1780      -999.0000      -999.0000         3.8429         4.3233         0.7336         0.8364       621.8596         2.7134        -8.6000         0.5156 
 1015.2416        15.7889      -999.0000       125.2298        56.2490      -999.0000      -999.0000         3.9714         4.3013         0.7337         0.8307       606.0300         2.7081        -8.6000         0.5618 
 1015.3940        15.7882      -999.0000       133.3349        57.3248      -999.0000      -999.0000         4.0371         4.2792         0.7338         0.8250       596.5111         2.7015        -8.6000         0.6174 
 1015.5464        15.8136      -999.0000       141.4427        58.4007      -999.0000      -999.0000         4.0681         4.2563         0.7339         0.8193       587.2209         2.6917        -8.6000         0.6731 
 1015.6988        15.8716      -999.0000       121.2524        59.4766      -999.0000      -999.0000         4.1324         4.2343         0.7485         0.8136       583.9083         2.6392        -8.5999         0.5354 
 1015.8512        15.8913      -999.0000       110.3163        60.4292      -999.0000      -999.0000         4.1367         4.2122         0.7496         0.8079       589.7934         2.5776        -8.5993         0.4599 
 1016.0036        15.8461      -999.0000       120.7639        60.6968      -999.0000      -999.0000         4.1575         4.1900         0.7497         0.8022       610.8239         2.5244        -8.6009         0.5310 
 1016.1560        15.8412      -999.0000       132.7332        60.2083      -999.0000      -999.0000         4.3067         4.1760         0.7499         0.8000       634.6055         2.4659        -8.5990         0.6132 
 1016.3084        15.8928      -999.0000       128.9825        59.4250      -999.0000      -999.0000         4.2870         4.1759         0.7499         0.8000       653.0251         2.4375        -8.5799         0.5879 
 1016.4608        15.9727      -999.0000       109.1412        57.8997      -999.0000      -999.0000         4.4119         4.1751         0.7500         0.8000       640.3961         2.4409        -8.4802         0.4521 
 1016.6132        16.0651      -999.0000       114.8783        54.6854      -999.0000      -999.0000         4.5248         4.1759         0.7501         0.8000       581.1923         2.4400        -8.3678         0.4907 
 1016.7656        16.1160      -999.0000       122.5919        54.8877      -999.0000      -999.0000         4.5301         4.1750         0.7502         0.8000       593.1851         2.4400        -8.2592         0.5437 
 1016.9180        16.1417      -999.0000       130.3054        55.6034      -999.0000      -999.0000         4.5329         4.1750         0.7503         0.8000       605.1780         2.4393        -8.1985         0.5966 
 1017.0704        16.2099      -999.0000       138.0190        56.3190      -999.0000      -999.0000         4.5315         4.1750         0.7504         0.8000       617.1709         2.4323        -8.2135         0.6496 
 1017.2228        16.2956      -999.0000       133.9930        56.9460      -999.0000      -999.0000         4.5319         4.1750         0.7505         0.8000       583.2352         2.4183        -8.6553         0.6224 
