~VERSION INFORMATION
 VERS.                 2.0:   CWLS LOG ASCII STANDARD - VERSION 2.0
 WRAP.                  NO:   SINGLE LINE PER DEPTH STEP
~WELL INFORMATION
#MNEM.UNIT       DATA           DESCRIPTION MNEMONIC
#---------    -------------   --------------------------
 STRT.M         149.0000                      : START DEPTH
 STOP.M         2735.0756                     : STOP DEPTH
 STEP.M         0.1524                        : STEP VALUE
 NULL.          -999.0000                     : NULL VALUE
 SRVC.          PYPOZO                        : Service Company/Logging company
 DATE.          03/07/2025                    : LAS file Creation Date
 WELL    .      CABALLO-1                      : Well Name
 COMP    .      PYPOZO 2.0                    : Company
 FLD     .      UNKNOWN                       : Field
 LOC     .      UNKNOWN                       : Location
 LATI    .      0                             : Latitude/Northing
 LONG    .      0                             : Longitude/Easting
 APDAT   .      0                             : Elevation Above Permanent Datum
~CURVE INFORMATION
#MNEM          UNIT     API CODE   Curve Type Comments
#---------- ---------- ----------  ---------- --------
 DEPTH     .M                    : Depth      
 CALI      .IN                         : CALI       
 CILD      .MM/M                       : CILD       
 DT        .US/F                       : DT         
 GR        .GAPI                       : GR         
 ILD       .OHMM                       : ILD        
 INV       .OHMM                       : INV        
 LAT       .OHMM                       : LAT        
 LN        .OHMM                       : LN         
 MINV      .OHMM                       : MINV       
 MNOR      .OHMM                       : MNOR       
 NEUT      .NAPI                       : NEUT       
 SN        .OHMM                       : SN         
 SP        .MV                         : SP         
 SPHI      .V/V                        : SPHI       
~A Log data section
# ...
  667.7696        15.3974      -999.0000       104.1595      -999.0000      -999.0000      -999.0000         1.4219         1.3932      -999.0000      -999.0000      -999.0000         1.2911       -25.9609         0.3675 
  667.9220        15.6871      -999.0000       101.9160      -999.0000      -999.0000      -999.0000         1.4214         1.4040      -999.0000      -999.0000      -999.0000         1.2665       -26.1267         0.3621 
  668.0744        15.8297      -999.0000        96.7642      -999.0000      -999.0000      -999.0000         1.3743         1.4149      -999.0000      -999.0000      -999.0000         1.2771       -26.4200         0.3492 
  668.2268        15.8188      -999.0000        91.6124      -999.0000      -999.0000      -999.0000         1.3233         1.4258      -999.0000      -999.0000      -999.0000         1.2945       -26.8500         0.3347 
  668.3792        15.8071      -999.0000        88.3419      -999.0000      -999.0000      -999.0000         1.2723         1.4366      -999.0000      -999.0000      -999.0000         1.3142       -27.1551         0.3246 
  668.5316        15.5844      -999.0000        93.9338      -999.0000      -999.0000      -999.0000         1.2214         1.4475      -999.0000      -999.0000      -999.0000         1.3171       -27.3942         0.3414 
  668.6840        14.9730      -999.0000       100.2751      -999.0000      -999.0000      -999.0000         1.1704         1.4584      -999.0000      -999.0000      -999.0000         1.2954       -27.5772         0.3581 
  668.8364        14.1128      -999.0000       104.2122      -999.0000      -999.0000      -999.0000         1.1194         1.4692      -999.0000      -999.0000      -999.0000         1.3128       -27.6271         0.3674 
  668.9888        13.1113      -999.0000        98.6649      -999.0000      -999.0000      -999.0000         1.0684         1.4801      -999.0000      -999.0000      -999.0000         1.3301       -27.6904         0.3542 
  669.1412        12.4622      -999.0000       100.2734      -999.0000      -999.0000      -999.0000         1.0175         1.4910      -999.0000      -999.0000      -999.0000         1.3475       -27.6476         0.3582 
  669.2936        12.7235      -999.0000        99.5819      -999.0000      -999.0000      -999.0000         0.9781         1.5018      -999.0000      -999.0000      -999.0000         1.3649       -28.1940         0.3565 
  669.4460        13.7203      -999.0000        96.8315      -999.0000      -999.0000      -999.0000         1.0063         1.5127      -999.0000      -999.0000      -999.0000         1.3823       -27.9720         0.3494 
  669.5984        14.3366      -999.0000        94.6090      -999.0000      -999.0000      -999.0000         1.0403         1.5236      -999.0000      -999.0000      -999.0000         1.3980       -27.7488         0.3434 
  669.7508        14.5266      -999.0000        95.7635      -999.0000      -999.0000      -999.0000         1.0743         1.5344      -999.0000      -999.0000      -999.0000         1.3980       -27.5912         0.3465 
  669.9032        14.6968      -999.0000       101.1798      -999.0000      -999.0000      -999.0000         1.1083         1.5453      -999.0000      -999.0000      -999.0000         1.3636       -27.4226         0.3604 
  670.0556        14.8767      -999.0000       103.9645      -999.0000      -999.0000      -999.0000         1.1423         1.5562      -999.0000      -999.0000      -999.0000         1.3318       -27.2440         0.3668 
  670.2080        15.0601      -999.0000        95.9362      -999.0000      -999.0000      -999.0000         1.1762         1.5670      -999.0000      -999.0000      -999.0000         1.3392       -27.0476         0.3468 
  670.3604        15.3406      -999.0000        91.3510      -999.0000      -999.0000      -999.0000         1.2102         1.5779      -999.0000      -999.0000      -999.0000         1.3387       -27.1534         0.3335 
  670.5128        15.5057      -999.0000        98.8524      -999.0000      -999.0000      -999.0000         1.2442         1.5888      -999.0000      -999.0000      -999.0000         1.3488       -27.3786         0.3543 
  670.6652        15.3694      -999.0000        89.3446      -999.0000      -999.0000      -999.0000         1.2782         1.5996      -999.0000      -999.0000      -999.0000         1.3696       -27.2851         0.3277 
  670.8176        15.3302      -999.0000        85.4496      -999.0000      -999.0000      -999.0000         1.3122         1.6105      -999.0000      -999.0000      -999.0000         1.3862       -27.2446         0.3150 
  670.9700        15.4473      -999.0000        91.8249      -999.0000      -999.0000      -999.0000         1.3462         1.6214      -999.0000      -999.0000      -999.0000         1.3801       -27.2012         0.3353 
  671.1224        15.1892      -999.0000        97.3199      -999.0000      -999.0000      -999.0000         1.3802         1.6322      -999.0000      -999.0000      -999.0000         1.3733       -27.0828         0.3507 
  671.2748        14.0838      -999.0000        96.0478      -999.0000      -999.0000      -999.0000         1.4141         1.6431      -999.0000      -999.0000      -999.0000         1.3572       -26.8905         0.3465 
  671.4272        13.5038      -999.0000        82.2610      -999.0000      -999.0000      -999.0000         1.4143         1.6540      -999.0000      -999.0000      -999.0000         1.3564       -26.7143         0.3026 
  671.5796        13.5246      -999.0000        69.2617      -999.0000      -999.0000      -999.0000         1.3389         1.6648      -999.0000      -999.0000      -999.0000         1.3665       -26.5368         0.2462 
  671.7320        13.4758      -999.0000        65.0575      -999.0000      -999.0000      -999.0000         1.2574         1.6757      -999.0000      -999.0000      -999.0000         1.3835       -26.3466         0.2198 
  671.8844        13.4129      -999.0000        84.6857      -999.0000      -999.0000      -999.0000         1.1758         1.6866      -999.0000      -999.0000      -999.0000         1.3917       -26.1874         0.3106 
  672.0368        13.5034      -999.0000       100.1469      -999.0000      -999.0000      -999.0000         1.0942         1.6974      -999.0000      -999.0000      -999.0000         1.3954       -26.0204         0.3579 
  672.1892        13.6327      -999.0000        95.2802      -999.0000      -999.0000      -999.0000         1.0127         1.7083      -999.0000      -999.0000      -999.0000         1.4085       -26.2104         0.3448 
  672.3416        13.6524      -999.0000        86.7641      -999.0000      -999.0000      -999.0000         1.0246         1.7192      -999.0000      -999.0000      -999.0000         1.4231       -26.3818         0.3196 
  672.4940        13.6484      -999.0000        85.3927      -999.0000      -999.0000      -999.0000         1.1194         1.7300      -999.0000      -999.0000      -999.0000         1.4365       -26.6187         0.3149 
  672.6464        13.5564      -999.0000        90.6215      -999.0000      -999.0000      -999.0000         1.2207         1.7409      -999.0000      -999.0000      -999.0000         1.4445       -26.7720         0.3317 
  672.7988        13.4532      -999.0000        95.8504      -999.0000      -999.0000      -999.0000         1.3219         1.7518      -999.0000      -999.0000      -999.0000         1.4423       -26.9536         0.3467 
  672.9512        13.4712      -999.0000       100.0293      -999.0000      -999.0000      -999.0000         1.4231         1.7626      -999.0000      -999.0000      -999.0000         1.4338       -27.1934         0.3576 
  673.1036        13.5540      -999.0000        98.5690      -999.0000      -999.0000      -999.0000         1.5244         1.7735      -999.0000      -999.0000      -999.0000         1.4191       -27.4080         0.3539 
  673.2560        13.6011      -999.0000        93.4883      -999.0000      -999.0000      -999.0000         1.6256         1.7844      -999.0000      -999.0000      -999.0000         1.4149       -27.5924         0.3401 
