~VERSION INFORMATION
 VERS.                 2.0:   CWLS LOG ASCII STANDARD - VERSION 2.0
 WRAP.                  NO:   SINGLE LINE PER DEPTH STEP
~WELL INFORMATION
#MNEM.UNIT       DATA           DESCRIPTION MNEMONIC
#---------    -------------   --------------------------
 STRT.M         149.0000                      : START DEPTH
 STOP.M         2735.0756                     : STOP DEPTH
 STEP.M         0.1524                        : STEP VALUE
 NULL.          -999.0000                     : NULL VALUE
 SRVC.          PYPOZO                        : Service Company/Logging company
 DATE.          03/07/2025                    : LAS file Creation Date
 WELL    .      CABALLO-1                      : Well Name
 COMP    .      PYPOZO 2.0                    : Company
 FLD     .      UNKNOWN                       : Field
 LOC     .      UNKNOWN                       : Location
 LATI    .      0                             : Latitude/Northing
 LONG    .      0                             : Longitude/Easting
 APDAT   .      0                             : Elevation Above Permanent Datum
~CURVE INFORMATION
#MNEM          UNIT     API CODE   Curve Type Comments
#---------- ---------- ----------  ---------- --------
 DEPTH     .M                    : Depth      
 CALI      .IN                         : CALI       
 CILD      .MM/M                       : CILD       
 DT        .US/F                       : DT         
 GR        .GAPI                       : GR         
 ILD       .OHMM                       : ILD        
 INV       .OHMM                       : INV        
 LAT       .OHMM                       : LAT        
 LN        .OHMM                       : LN         
 MINV      .OHMM                       : MINV       
 MNOR      .OHMM                       : MNOR       
 NEUT      .NAPI                       : NEUT       
 SN        .OHMM                       : SN         
 SP        .MV                         : SP         
 SPHI      .V/V                        : SPHI       
~A Log data section
# ...
 2043.6368         9.9948         6.2078        51.7135        20.2279       662.2935      -999.0000       435.3935       177.2816        19.3719        20.0948      2537.9727        56.9976       -87.3635         0.1316 
 2043.7892        10.0276         5.5506        51.6966        21.5601       637.2361      -999.0000       419.0746       175.5498        18.7532        19.2933      2497.2444        56.4295       -87.7774         0.1267 
 2043.9416        10.1233         5.5131        51.4977        22.8929       591.7331      -999.0000       406.0197       173.8975        19.9467        18.7383      2461.0603        55.7791       -87.7913         0.1295 
 2044.0940        10.1405         5.8913        52.9971        24.1840       539.1580      -999.0000       403.9759       172.3888        20.0337        20.0235      2401.0205        55.1427       -87.3562         0.1563 
 2044.2464        10.1254         6.2697        60.1986        24.7718       485.9117      -999.0000       403.9093       170.9152        20.0339        20.0237      2365.0210        54.7454       -87.1769         0.2178 
 2044.3988        10.1362         6.6074        64.2130        23.0505       432.6967      -999.0000       396.4418       169.6674        20.0341        20.0239      2345.5776        54.4272       -87.0236         0.2455 
 2044.5512        10.1464         6.9110        59.9257        21.0437       430.1098      -999.0000       388.2210       168.2660        16.8863        19.9351      2312.7275        53.3919       -87.3415         0.1970 
 2044.7036        10.1597         7.2789        60.5098        18.8734       439.3571      -999.0000       380.7857       166.9304        16.4551        16.6489      2255.1228        53.2526       -87.7067         0.1715 
 2044.8560        10.3345         7.6924        61.0838        16.2874       393.1889      -999.0000       373.2755       165.9053        17.8833        16.4699      2196.6846        53.1134       -88.0831         0.1678 
 2045.0084        10.3230         8.1019        60.1418        15.7311       338.8657      -999.0000       366.9119       165.2612        19.5664        18.0196      2136.2542        53.0572       -88.3984         0.1676 
 2045.1608        10.2039         8.4991        58.8753        17.7730       338.5180      -999.0000       362.5101       164.6197        20.0260        19.6773      2190.4526        53.0355       -88.4361         0.1654 
 2045.3132        10.3106         8.6169        58.7985        20.6947       346.4946      -999.0000       359.4102       163.9620        19.7316        20.0315      2244.6079        52.9417       -88.6179         0.1629 
 2045.4656        10.4427         8.2044        59.0271        22.1965       356.9131      -999.0000       356.6406       163.0095        17.1852        19.6298      2298.8066        53.1301       -89.1134         0.1600 
 2045.6180        10.4961         7.5706        64.5927        22.9844       387.9025      -999.0000       354.2851       161.5786        17.9651        17.0246      2352.9619        53.3979       -89.3652         0.1951 
 2045.7704        10.5210         6.9558        70.0101        23.5245       421.9849      -999.0000       352.0498       160.1489        20.2536        18.0835      2407.1606        53.5830       -88.8824         0.2322 
 2045.9228        10.6844         6.3473        62.7188        23.7943       456.0874      -999.0000       349.7994       158.7139        19.8682        20.3967      2409.5012        53.7218       -88.6207         0.1840 
 2046.0752        10.7714         5.7757        59.3378        22.8753       432.9601      -999.0000       347.0800       157.2677        19.7517        20.2272      2379.0198        53.6447       -88.4393         0.1659 
 2046.2276        10.7457         5.2805        59.5671        20.9579       524.7964      -999.0000       342.7374       155.2205        20.0172        18.4772      2397.0693        53.2292       -88.8406         0.1679 
 2046.3800        10.8281         4.9503        60.4353        18.6189       646.2371      -999.0000       335.7301       151.2752        20.0365        20.0263      2415.1333        52.7286       -89.5858         0.1744 
 2046.5324        10.8201         4.8490        62.6078        16.6242       662.6905      -999.0000       323.0103       150.8298        20.0367        20.0265      2433.1826        52.2913       -88.8899         0.1914 
 2046.6848        10.7425         4.8490        70.3906        15.1678       662.6906      -999.0000       307.7476       150.3009        20.0369        20.0267      2415.4905        51.4819       -89.7950         0.2346 
 2046.8372        10.6773         4.8490        78.1273        14.4215       662.6906      -999.0000       294.0681       149.5448        20.0371        20.0269      2365.0151        50.7578       -89.6982         0.2931 
 2046.9896        10.8286         4.7691        74.6689        14.7345       683.0458      -999.0000       286.4350       148.6493        20.0373        20.0271      2315.2512        49.9956       -89.5801         0.2717 
 2047.1420        10.8989         4.5255        64.2257        16.6790       860.3752      -999.0000       273.9050       147.5348        20.0374        20.0308      2283.5322        49.1962       -89.8116         0.1977 
 2047.2944        10.8065         4.1975        73.6087        17.1257      1206.7715      -999.0000       276.2701       144.8595        20.0376        20.1676      2270.4343        48.3195       -90.2796         0.2629 
 2047.4468        10.7144         3.9340        78.9010        16.4100      1831.1206      -999.0000       279.8293       142.1639        20.0378        20.1678      2268.7878        47.2615       -90.7212         0.2994 
 2047.5992        10.5152         3.8430        76.3203        15.6939      1938.4913      -999.0000       285.0162       139.4793        20.0380        20.1680      2276.2385        46.1373       -91.0818         0.2829 
 2047.7516        10.4359         3.8430        74.0182        15.2964      1955.1816      -999.0000       289.7043       136.5986        20.0382        20.0282      2294.2427        45.1464       -91.0114         0.2667 
 2047.9040        10.4231         3.8430        76.4329        16.3697      1945.0592      -999.0000       291.2947       133.5477        20.0384        20.0284      2308.1411        44.1800       -90.8611         0.2797 
 2048.0564        10.3741         3.9138        89.8469        17.9819      1924.5544      -999.0000       288.4810       130.9316        18.5234        18.4067      2225.6943        43.3945       -90.6930         0.3611 
 2048.2088        10.2647         4.1626       104.0605        19.5946      1297.2120      -999.0000       280.7276       129.4616         9.7485         9.1282      2105.7935        42.6659       -90.5390         0.4590 
 2048.3612        10.2584         4.5175        94.8230        21.1460       860.3270      -999.0000       269.3397       128.8096         8.6320        10.9545      1984.5973        42.1397       -90.5797         0.3935 
 2048.5136        10.3221         4.7737       100.2050        21.8271       682.0886      -999.0000       256.6920       129.3218         6.3863        12.1099      1876.2826        41.8235       -90.7784         0.4267 
 2048.6660        10.3812         5.2584        98.9073        19.9641       571.9492      -999.0000       238.5303       129.8342        12.2114        12.6225      1739.6023        41.7629       -91.1078         0.4192 
 2048.8184        10.3842         6.5203       101.4173        18.1011       321.3706      -999.0000       227.2001       130.3460        18.3193        14.1741      1520.9731        41.9726       -91.4074         0.4369 
 2048.9708        10.3038         7.9442        98.2880        16.2376       273.1164      -999.0000       218.9932       130.8579        19.1527        15.7258      1385.8864        42.3476       -91.4161         0.4155 
 2049.1232        10.2492         9.1192        96.3942        14.3722       259.5622      -999.0000       215.9151       130.9860        19.6168        17.2799      1146.2988        42.6262       -91.4718         0.4017 
