~VERSION INFORMATION
 VERS.                 2.0:   CWLS LOG ASCII STANDARD - VERSION 2.0
 WRAP.                  NO:   SINGLE LINE PER DEPTH STEP
~WELL INFORMATION
#MNEM.UNIT       DATA           DESCRIPTION MNEMONIC
#---------    -------------   --------------------------
 STRT.M         149.0000                      : START DEPTH
 STOP.M         2735.0756                     : STOP DEPTH
 STEP.M         0.1524                        : STEP VALUE
 NULL.          -999.0000                     : NULL VALUE
 SRVC.          PYPOZO                        : Service Company/Logging company
 DATE.          03/07/2025                    : LAS file Creation Date
 WELL    .      CABALLO-1                      : Well Name
 COMP    .      PYPOZO 2.0                    : Company
 FLD     .      UNKNOWN                       : Field
 LOC     .      UNKNOWN                       : Location
 LATI    .      0                             : Latitude/Northing
 LONG    .      0                             : Longitude/Easting
 APDAT   .      0                             : Elevation Above Permanent Datum
~CURVE INFORMATION
#MNEM          UNIT     API CODE   Curve Type Comments
#---------- ---------- ----------  ---------- --------
 DEPTH     .M                    : Depth      
 CALI      .IN                         : CALI       
 CILD      .MM/M                       : CILD       
 DT        .US/F                       : DT         
 GR        .GAPI                       : GR         
 ILD       .OHMM                       : ILD        
 INV       .OHMM                       : INV        
 LAT       .OHMM                       : LAT        
 LN        .OHMM                       : LN         
 MINV      .OHMM                       : MINV       
 MNOR      .OHMM                       : MNOR       
 NEUT      .NAPI                       : NEUT       
 SN        .OHMM                       : SN         
 SP        .MV                         : SP         
 SPHI      .V/V                        : SPHI       
~A Log data section
# ...
 1868.8340        13.9281      -999.0000        89.7088        38.1847      -999.0000      -999.0000         7.3214         6.4536         2.8339         3.3011       693.6914         5.4744       -10.9225         0.3178 
 1868.9864        13.7791      -999.0000        74.9981        38.5442      -999.0000      -999.0000         6.6480         6.5394         1.5496         1.8564       707.1598         5.3937       -10.7191         0.2173 
 1869.1388        13.7091      -999.0000        80.3144        38.9036      -999.0000      -999.0000         5.9749         6.6225         1.6790         1.2631       765.1171         5.2837       -10.6853         0.2533 
 1869.2912        13.3692      -999.0000        93.4976        39.2631      -999.0000      -999.0000         5.3258         6.7012         4.0068         1.8467       845.5073         5.0678       -10.4607         0.3437 
 1869.4436        13.5963      -999.0000        82.0806        39.4172      -999.0000      -999.0000         4.9239         6.7930         3.8065         2.7488       868.3146         4.5995       -10.2363         0.2661 
 1869.5960        13.8773      -999.0000        60.1073        38.5529      -999.0000      -999.0000         5.0741         6.8917         2.4783         5.9009       839.2044         4.1359       -10.0117         0.1154 
 1869.7484        14.2015      -999.0000        51.4870        37.3808      -999.0000      -999.0000         5.2242         7.0023         2.9785         2.7424       793.2310         3.9339        -9.7872         0.0558 
 1869.9008        14.2130      -999.0000        72.8215        37.6203      -999.0000      -999.0000         5.3001         7.1128         2.3589         3.2400       697.2658         3.7992        -9.5627         0.2018 
 1870.0532        13.8315      -999.0000        80.3045        37.8600      -999.0000      -999.0000         5.0914         7.2245         1.5194         2.1555       601.1107         3.6199        -9.3382         0.2532 
 1870.2056        13.1557      -999.0000        92.8995        38.1975      -999.0000      -999.0000         4.8129         7.1895         1.1134         1.3459       505.0164         3.3294        -9.1136         0.3396 
 1870.3580        13.6561      -999.0000       100.8539        38.6435      -999.0000      -999.0000         4.8167         6.9360         0.7886         1.0511       408.9278         3.1783        -8.8892         0.3944 
 1870.5104        14.1466      -999.0000       108.4373        37.6602      -999.0000      -999.0000         5.1522         6.6992         0.7890         0.8338       364.8371         3.1221        -8.7173         0.4465 
 1870.6628        13.8332      -999.0000       116.0259        36.0273      -999.0000      -999.0000         5.4879         6.4508         0.8121         0.6942       390.4337         3.3341        -8.9311         0.4986 
 1870.8152        12.9395      -999.0000       123.6093        34.0953      -999.0000      -999.0000         5.8233         6.2147         0.8352         0.6168       421.4208         3.4804        -9.2318         0.5507 
 1870.9676        12.1351      -999.0000        88.6724        31.8403      -999.0000      -999.0000         6.0637         6.0501         0.8491         0.5703       455.4564         3.5630        -9.5313         0.3111 
 1871.1200        12.4673      -999.0000        78.5501        30.3683      -999.0000      -999.0000         5.9298         6.3355         1.0734         0.6049       492.6479         3.6343        -9.8186         0.2417 
 1871.2724        14.2567      -999.0000       101.4472        28.8703      -999.0000      -999.0000         5.5914         6.4992         1.5519         0.7638       529.8962         3.7273       -10.0885         0.3984 
 1871.4248        14.4775      -999.0000       111.0922        27.2357      -999.0000      -999.0000         5.1997         6.5756         1.3610         0.9747       561.2194         4.0595       -10.3583         0.4646 
 1871.5772        14.5502      -999.0000       108.9349        26.1737      -999.0000      -999.0000         4.8077         6.6596         1.0949         1.1509       589.2467         4.3643       -10.6282         0.4502 
 1871.7296        14.7938      -999.0000       101.1267        27.0655      -999.0000      -999.0000         4.4161         7.5306         0.8985         1.2357       613.1713         4.6105       -10.8980         0.3967 
 1871.8820        14.2485      -999.0000        89.6478        28.9234      -999.0000      -999.0000         4.1897         8.3129         0.7606         1.2963       616.8254         4.8681       -11.1679         0.3177 
 1872.0344        13.7824      -999.0000        85.5664        31.6837      -999.0000      -999.0000         4.5208         9.0092         1.9380         2.1029       576.2479         5.5192       -11.4377         0.2897 
 1872.1868        13.3480      -999.0000        76.6329        34.7634      -999.0000      -999.0000         4.8734        10.0504         1.4684         1.4560       534.0053         5.7034       -11.7076         0.2285 
 1872.3392        13.1212      -999.0000        74.4520        37.4699      -999.0000      -999.0000         5.2260        11.4011         0.7353         0.8090       522.5895         6.4900       -11.9773         0.2133 
 1872.4916        13.1385      -999.0000        90.0119        40.8255      -999.0000      -999.0000         5.5786        12.0489         0.9456         0.6558       566.4787         6.6672       -12.2471         0.3196 
 1872.6440        13.2288      -999.0000       106.8669        42.8436      -999.0000      -999.0000         5.9313        13.0419         3.4497         4.2832       663.9948         8.3822       -12.5170         0.4354 
 1872.7964        13.6328      -999.0000       101.5942        43.6088      -999.0000      -999.0000         6.2838        14.5012         2.1991         3.1374       824.1066         9.6756       -12.7362         0.3999 
 1872.9488        13.8068      -999.0000        87.1380        43.1677      -999.0000      -999.0000         6.6365        15.8994         0.5919         1.5579      1022.7390        11.6882       -12.5853         0.3005 
 1873.1012        13.7621      -999.0000        82.6464        41.0998      -999.0000      -999.0000         6.8717        18.0489         1.8170         1.4304      1259.0442        14.3865       -12.3598         0.2697 
 1873.2536        13.5584      -999.0000        74.6892        38.8739      -999.0000      -999.0000         6.6999        19.7666         6.2444         2.5933      1419.6633        15.5880       -12.1341         0.2152 
 1873.4060        13.2815      -999.0000        64.7133        36.4616      -999.0000      -999.0000         6.4748        21.8362         8.4409         2.5294      1431.4974        16.5650       -11.9267         0.1467 
 1873.5584        13.0425      -999.0000        62.6100        35.5195      -999.0000      -999.0000         6.3964        23.9708         7.1693         3.8649      1434.7411        16.9385       -11.9135         0.1320 
 1873.7108        12.8077      -999.0000        63.7172        33.6807      -999.0000      -999.0000         6.8347        28.1788         5.6658         5.4969      1430.2454        17.3438       -12.3624         0.1395 
 1873.8632        12.9002      -999.0000        62.7520        31.2484      -999.0000      -999.0000         7.3808        27.8437         4.3701         4.2759      1373.9127        17.5200       -12.8115         0.1329 
 1874.0156        12.9056      -999.0000        65.3111        29.5979      -999.0000      -999.0000         8.0481        27.2168         3.3439         3.2676      1227.5009        17.5200       -13.2603         0.1504 
 1874.1680        12.7980      -999.0000        73.0295        28.5080      -999.0000      -999.0000         8.8455        26.5939         2.2163         2.1316      1131.4452        17.4952       -13.6085         0.2033 
 1874.3204        12.9120      -999.0000        67.3684        28.4955      -999.0000      -999.0000         9.2993        25.9802         6.3144         6.5981      1078.4619        17.2962       -13.1733         0.1648 
