~VERSION INFORMATION
 VERS.                 2.0:   CWLS LOG ASCII STANDARD - VERSION 2.0
 WRAP.                  NO:   SINGLE LINE PER DEPTH STEP
~WELL INFORMATION
#MNEM.UNIT       DATA           DESCRIPTION MNEMONIC
#---------    -------------   --------------------------
 STRT.M         149.0000                      : START DEPTH
 STOP.M         2735.0756                     : STOP DEPTH
 STEP.M         0.1524                        : STEP VALUE
 NULL.          -999.0000                     : NULL VALUE
 SRVC.          PYPOZO                        : Service Company/Logging company
 DATE.          03/07/2025                    : LAS file Creation Date
 WELL    .      CABALLO-1                      : Well Name
 COMP    .      PYPOZO 2.0                    : Company
 FLD     .      UNKNOWN                       : Field
 LOC     .      UNKNOWN                       : Location
 LATI    .      0                             : Latitude/Northing
 LONG    .      0                             : Longitude/Easting
 APDAT   .      0                             : Elevation Above Permanent Datum
~CURVE INFORMATION
#MNEM          UNIT     API CODE   Curve Type Comments
#---------- ---------- ----------  ---------- --------
 DEPTH     .M                    : Depth      
 CALI      .IN                         : CALI       
 CILD      .MM/M                       : CILD       
 DT        .US/F                       : DT         
 GR        .GAPI                       : GR         
 ILD       .OHMM                       : ILD        
 INV       .OHMM                       : INV        
 LAT       .OHMM                       : LAT        
 LN        .OHMM                       : LN         
 MINV      .OHMM                       : MINV       
 MNOR      .OHMM                       : MNOR       
 NEUT      .NAPI                       : NEUT       
 SN        .OHMM                       : SN         
 SP        .MV                         : SP         
 SPHI      .V/V                        : SPHI       
~A Log data section
# ...
 1180.9004        16.5806      -999.0000        83.4304        57.7192      -999.0000      -999.0000         5.6868         6.2208         0.7180         0.8500       865.6527         3.9396       -11.9104         0.2752 
 1181.0528        16.4918      -999.0000        91.4509        54.0765      -999.0000      -999.0000         5.9413         6.1732         0.7664         0.8500       888.7082         4.0112       -12.2309         0.3297 
 1181.2052        16.4606      -999.0000        98.6149        50.3627      -999.0000      -999.0000         6.0335         6.0836         0.7700         0.8500       915.8600         3.9808       -11.8527         0.3790 
 1181.3576        16.5209      -999.0000       105.4440        48.2327      -999.0000      -999.0000         6.1115         5.9821         0.7700         0.8604       955.0835         3.9682       -11.7968         0.4259 
 1181.5100        16.6280      -999.0000        86.4734        47.7644      -999.0000      -999.0000         6.2005         5.8780         0.7700         0.8789      1000.3080         4.0543       -11.8110         0.2964 
 1181.6624        16.7139      -999.0000        55.2349        48.9793      -999.0000      -999.0000         6.2164         5.7807         0.7700         0.8973      1028.3987         4.1381       -11.7749         0.0822 
 1181.8148        16.7617      -999.0000        70.7270        51.3823      -999.0000      -999.0000         6.1590         5.7021         0.7700         0.9158      1056.2018         4.0531       -11.8061         0.1871 
 1181.9672        16.7567      -999.0000        76.0262        53.5376      -999.0000      -999.0000         6.2322         5.7781         0.7700         0.9343      1092.0215         4.0182       -11.7045         0.2240 
 1182.1196        16.7284      -999.0000        67.7816        55.7898      -999.0000      -999.0000         6.2828         5.8685         0.7700         0.9400      1030.0546         4.1863       -11.8159         0.1677 
 1182.2720        16.7084      -999.0000        65.0800        57.9813      -999.0000      -999.0000         6.3370         5.9542         0.7700         0.9400       962.4688         4.2856       -11.3322         0.1490 
 1182.4244        16.6837      -999.0000        74.2211        58.6962      -999.0000      -999.0000         6.4055         5.9863         0.7700         0.9171       918.2426         4.1079       -11.4189         0.2114 
 1182.5768        16.6445      -999.0000        59.1647        57.7618      -999.0000      -999.0000         6.5199         6.0140         0.7700         0.8863       892.7705         4.0186       -11.2736         0.1088 
 1182.7292        16.6046      -999.0000        68.9990        56.5570      -999.0000      -999.0000         6.6823         6.0899         0.7700         0.8555       871.3450         3.9419       -10.9607         0.1755 
 1182.8816        16.6121      -999.0000        81.0950        55.5299      -999.0000      -999.0000         6.8998         6.0666         0.7700         0.8500       855.5949         3.9136       -10.9657         0.2585 
 1183.0340        16.7126      -999.0000        70.3016        54.5233      -999.0000      -999.0000         6.9129         5.9976         0.7700         0.8500       839.8575         3.8478       -10.4812         0.1851 
 1183.1864        16.8739      -999.0000        46.5300        53.3442      -999.0000      -999.0000         6.8654         5.9214         0.7700         0.8500       824.1074         3.6981       -10.2568         0.0222 
 1183.3388        17.0148      -999.0000        44.4807        52.1494      -999.0000      -999.0000         6.6499         5.8440         0.7700         0.8500       808.3700         3.6489       -10.0322         0.0074 
 1183.4912        16.9888      -999.0000        50.6356        50.5947      -999.0000      -999.0000         6.4607         5.7708         0.7700         0.8500       816.6664         3.6050        -9.8077         0.0495 
 1183.6436        16.8508      -999.0000        65.5608        47.5583      -999.0000      -999.0000         6.2954         5.6948         0.7700         0.8500       832.4151         3.6620        -9.5831         0.1517 
 1183.7960        16.8111      -999.0000        71.1823        44.7176      -999.0000      -999.0000         6.1030         5.6203         0.7700         0.8500       848.1512         3.7105        -9.3587         0.1907 
 1183.9484        16.7863      -999.0000        74.0945        42.6126      -999.0000      -999.0000         5.9557         5.6205         0.7700         0.8500       863.8999         3.7094        -9.1343         0.2107 
 1184.1008        16.8179      -999.0000        76.8625        43.0055      -999.0000      -999.0000         5.9447         5.7197         0.7700         0.8500       879.6359         3.7749        -8.9097         0.2297 
 1184.2532        16.8954      -999.0000        79.6286        44.7331      -999.0000      -999.0000         5.9822         5.8059         0.7700         0.8500       895.3846         3.7567        -8.7270         0.2487 
 1184.4056        16.9716      -999.0000        88.9345        46.6349      -999.0000      -999.0000         6.0197         5.8721         0.7700         0.8500       911.1207         3.6932        -8.8569         0.3124 
 1184.5580        17.0125      -999.0000        65.6670        48.0693      -999.0000      -999.0000         6.0572         5.8399         0.7700         0.8500       926.8694         3.6819        -9.1021         0.1537 
 1184.7104        17.0012      -999.0000        75.8723        49.3517      -999.0000      -999.0000         6.0948         5.8064         0.7700         0.8500       942.6055         3.7508        -9.3475         0.2226 
 1184.8628        16.9619      -999.0000        87.9402        50.8022      -999.0000      -999.0000         6.1323         5.7699         0.7700         0.8500       943.4426         3.8048        -9.5927         0.3056 
 1185.0152        16.9233      -999.0000        82.1532        52.4586      -999.0000      -999.0000         6.0837         5.7363         0.7700         0.8500       930.8535         3.7702        -9.8381         0.2664 
 1185.1676        16.9140      -999.0000        75.0532        54.1740      -999.0000      -999.0000         5.8010         5.6989         0.7700         0.8514       918.2543         3.7355       -10.0833         0.2176 
 1185.3200        16.9355      -999.0000        47.8304        56.2079      -999.0000      -999.0000         5.7446         5.6666         0.7700         0.8571       905.6652         3.7009       -10.3287         0.0313 
 1185.4724        16.9522      -999.0000        59.1052        58.1570      -999.0000      -999.0000         5.8572         5.6382         0.7700         0.8628       893.0762         3.6703       -10.5739         0.1074 
 1185.6248        16.9632      -999.0000        77.1916        59.5035      -999.0000      -999.0000         5.9698         5.6072         0.7700         0.8685       880.4770         3.6745       -10.8193         0.2315 
 1185.7772        16.9619      -999.0000        92.9305        60.6150      -999.0000      -999.0000         6.0824         5.5763         0.7700         0.8742       867.2112         3.7207       -11.0645         0.3397 
 1185.9296        16.9406      -999.0000       105.2964        61.0338      -999.0000      -999.0000         6.0207         5.5463         0.7700         0.8799       853.7120         3.7669       -11.3097         0.4248 
 1186.0820        16.8983      -999.0000        80.0797        59.8148      -999.0000      -999.0000         5.4953         5.5162         0.7700         0.8856       840.2236         3.7997       -11.3588         0.2527 
 1186.2344        16.8263      -999.0000        68.8303        58.3710      -999.0000      -999.0000         5.3604         5.4896         0.7700         0.8913       826.7243         3.7361       -10.1828         0.1750 
 1186.3868        16.7364      -999.0000        77.2573        57.0927      -999.0000      -999.0000         5.2535         5.4965         0.7700         0.8970       816.8242         3.6668       -10.2070         0.2322 
