~VERSION INFORMATION
 VERS.                 2.0:   CWLS LOG ASCII STANDARD - VERSION 2.0
 WRAP.                  NO:   SINGLE LINE PER DEPTH STEP
~WELL INFORMATION
#MNEM.UNIT       DATA           DESCRIPTION MNEMONIC
#---------    -------------   --------------------------
 STRT.M         149.0000                      : START DEPTH
 STOP.M         2735.0756                     : STOP DEPTH
 STEP.M         0.1524                        : STEP VALUE
 NULL.          -999.0000                     : NULL VALUE
 SRVC.          PYPOZO                        : Service Company/Logging company
 DATE.          03/07/2025                    : LAS file Creation Date
 WELL    .      CABALLO-1                      : Well Name
 COMP    .      PYPOZO 2.0                    : Company
 FLD     .      UNKNOWN                       : Field
 LOC     .      UNKNOWN                       : Location
 LATI    .      0                             : Latitude/Northing
 LONG    .      0                             : Longitude/Easting
 APDAT   .      0                             : Elevation Above Permanent Datum
~CURVE INFORMATION
#MNEM          UNIT     API CODE   Curve Type Comments
#---------- ---------- ----------  ---------- --------
 DEPTH     .M                    : Depth      
 CALI      .IN                         : CALI       
 CILD      .MM/M                       : CILD       
 DT        .US/F                       : DT         
 GR        .GAPI                       : GR         
 ILD       .OHMM                       : ILD        
 INV       .OHMM                       : INV        
 LAT       .OHMM                       : LAT        
 LN        .OHMM                       : LN         
 MINV      .OHMM                       : MINV       
 MNOR      .OHMM                       : MNOR       
 NEUT      .NAPI                       : NEUT       
 SN        .OHMM                       : SN         
 SP        .MV                         : SP         
 SPHI      .V/V                        : SPHI       
~A Log data section
# ...
 1524.8672        18.8555      -999.0000       129.9907        41.1511      -999.0000      -999.0000         4.4728         4.4779         1.5066         1.7296       320.7148         3.2023        -9.8103         0.5948 
 1525.0196        18.9003      -999.0000       128.1194        40.9657      -999.0000      -999.0000         4.2075         4.4769         1.6686         1.4677       330.5626         3.1322        -9.7461         0.5819 
 1525.1720        18.8822      -999.0000       110.0504        41.6816      -999.0000      -999.0000         4.0595         4.4761         1.8482         1.6700       344.1956         2.7815        -9.5552         0.4583 
 1525.3244        18.8641      -999.0000       115.6582        42.3978      -999.0000      -999.0000         4.1865         4.4770         2.0280         2.0039       359.3787         2.7167        -9.4066         0.4961 
 1525.4768        18.8732      -999.0000       128.8146        42.8755      -999.0000      -999.0000         4.2054         4.4769         1.8088         1.8423       374.3849         2.6816        -9.4031         0.5862 
 1525.6292        18.9303      -999.0000       119.3610        42.3124      -999.0000      -999.0000         4.2131         4.4761         1.4810         1.5806       389.4735         2.6456        -9.3963         0.5220 
 1525.7816        18.9661      -999.0000        86.9227        41.8169      -999.0000      -999.0000         4.2321         4.4769         1.7362         1.7193       403.5723         2.6104        -9.3968         0.2999 
 1525.9340        18.9328      -999.0000       110.8112        42.4193      -999.0000      -999.0000         4.2378         4.4756         2.1107         1.9109       412.8071         2.5823        -9.4045         0.4622 
 1526.0864        18.8543      -999.0000       118.7351        43.7509      -999.0000      -999.0000         4.2680         4.4676         1.3238         2.1026       421.8430         2.5662        -9.1827         0.5172 
 1526.2388        18.7938      -999.0000        91.5940        45.0819      -999.0000      -999.0000         4.3335         4.4242         1.3615         1.6462       432.6522         2.5918        -9.3142         0.3319 
 1526.3912        18.7485      -999.0000       109.7067        46.4135      -999.0000      -999.0000         4.3413         4.3850         1.5025         1.1759       436.5385         2.6152        -9.4074         0.4548 
 1526.5436        18.7307      -999.0000       126.4157        47.7444      -999.0000      -999.0000         4.4211         4.3440         1.6345         1.5866       439.1929         2.6410        -9.4037         0.5697 
 1526.6960        18.7868      -999.0000       119.6935        49.0760      -999.0000      -999.0000         4.5181         4.3039         1.4800         1.5003       432.6743         2.6668        -9.4035         0.5242 
 1526.8484        18.8431      -999.0000       104.7740        50.4070      -999.0000      -999.0000         4.6087         4.2723         1.3055         1.4141       417.8962         2.7166        -9.4081         0.4220 
 1527.0008        18.7564      -999.0000        95.3376        51.4861      -999.0000      -999.0000         4.6310         4.2508         0.9608         1.3279       396.6908         2.8306        -9.7314         0.3570 
 1527.1532        18.5730      -999.0000        86.3500        51.2214      -999.0000      -999.0000         4.6316         4.2325         1.0506         1.2416       374.9804         2.8566        -9.7998         0.2953 
 1527.3056        18.4413      -999.0000       106.2058        49.7863      -999.0000      -999.0000         4.6324         4.2129         1.2037         1.1944       359.2720         2.8826        -9.8104         0.4307 
 1527.4580        18.3692      -999.0000       130.5004        48.3588      -999.0000      -999.0000         4.6279         4.1955         1.3010         1.3701       340.7722         2.9086        -9.7866         0.5975 
 1527.6104        18.3085      -999.0000        93.1594        47.5028      -999.0000      -999.0000         4.5966         4.1802         1.3651         1.4168       328.1646         2.9346        -9.6919         0.3430 
 1527.7628        18.2478      -999.0000       105.0431        48.5401      -999.0000      -999.0000         4.5282         4.1990         1.4273         1.5959       339.0825         2.9565        -9.3558         0.4229 
 1527.9152        18.1872      -999.0000       120.9147        47.8157      -999.0000      -999.0000         4.4870         4.2231         1.8374         1.9728       364.2320         2.9456        -9.7558         0.5319 
 1528.0676        18.1294      -999.0000       123.7624        46.8109      -999.0000      -999.0000         4.3570         4.2480         1.4312         2.3347       389.3613         2.9073        -9.4650         0.5519 
 1528.2200        18.0757      -999.0000       124.7401        45.8065      -999.0000      -999.0000         4.3326         4.2713         1.1858         1.4160       414.5108         2.8689        -9.7419         0.5586 
 1528.3724        18.0136      -999.0000       119.3229        44.8016      -999.0000      -999.0000         4.2946         4.2901         1.2931         1.2307       439.6401         2.8306        -9.7847         0.5216 
 1528.5248        17.9468      -999.0000       109.1773        43.8346      -999.0000      -999.0000         4.2342         4.3071         1.6984         1.5853       464.7896         2.7922        -9.6915         0.4521 
 1528.6772        17.8931      -999.0000       104.2826        43.4271      -999.0000      -999.0000         4.2353         4.3240         1.9856         1.8017       478.7555         2.7539        -9.3564         0.4183 
 1528.8296        17.8468      -999.0000       103.4628        44.7189      -999.0000      -999.0000         4.2420         4.3401         2.1944         2.2885       465.2811         2.7155        -9.4198         0.4125 
 1528.9820        17.8098      -999.0000        89.7522        46.0114      -999.0000      -999.0000         4.2974         4.3571         1.7540         2.0582       451.8175         2.6830        -9.3959         0.3188 
 1529.1344        17.8026      -999.0000        90.5037        47.3032      -999.0000      -999.0000         4.3355         4.3741         1.5843         1.8142       438.3431         2.6906        -9.3926         0.3235 
 1529.2868        17.8260      -999.0000        93.6873        48.5957      -999.0000      -999.0000         4.3699         4.3911         1.5255         1.5578       424.8795         2.6902        -9.4178         0.3453 
 1529.4392        17.8608      -999.0000        96.9640        49.7676      -999.0000      -999.0000         4.4403         4.4081         1.4915         1.4335       411.4052         2.7080        -9.4004         0.3678 
 1529.5916        17.8973      -999.0000       100.3162        50.1690      -999.0000      -999.0000         4.5089         4.4250         1.4010         1.3403       397.9416         2.7240        -9.6031         0.3908 
 1529.7440        17.9125      -999.0000       106.2867        49.4503      -999.0000      -999.0000         4.5252         4.4411         1.2677         1.2627       392.2817         2.7401        -9.3745         0.4317 
 1529.8964        17.8725      -999.0000       112.4508        49.0992      -999.0000      -999.0000         4.4756         4.4581         1.1603         1.1850       401.2657         2.7784        -9.5362         0.4741 
 1530.0488        17.7720      -999.0000       118.6195        50.2956      -999.0000      -999.0000         4.2916         4.4781         1.0956         1.2317       410.2424         2.9492        -9.6575         0.5164 
 1530.2012        17.6223      -999.0000       124.7839        51.4907      -999.0000      -999.0000         4.2003         4.5200         1.1930         1.6206       419.2264         2.9867        -9.3973         0.5588 
 1530.3536        17.4939      -999.0000       117.0592        52.4526      -999.0000      -999.0000         4.1217         4.5690         1.5482         1.1697       428.2031         3.0243        -9.7495         0.5062 
