~VERSION INFORMATION
 VERS.                 2.0:   CWLS LOG ASCII STANDARD - VERSION 2.0
 WRAP.                  NO:   SINGLE LINE PER DEPTH STEP
~WELL INFORMATION
#MNEM.UNIT       DATA           DESCRIPTION MNEMONIC
#---------    -------------   --------------------------
 STRT.M         149.0000                      : START DEPTH
 STOP.M         2735.0756                     : STOP DEPTH
 STEP.M         0.1524                        : STEP VALUE
 NULL.          -999.0000                     : NULL VALUE
 SRVC.          PYPOZO                        : Service Company/Logging company
 DATE.          03/07/2025                    : LAS file Creation Date
 WELL    .      CABALLO-1                      : Well Name
 COMP    .      PYPOZO 2.0                    : Company
 FLD     .      UNKNOWN                       : Field
 LOC     .      UNKNOWN                       : Location
 LATI    .      0                             : Latitude/Northing
 LONG    .      0                             : Longitude/Easting
 APDAT   .      0                             : Elevation Above Permanent Datum
~CURVE INFORMATION
#MNEM          UNIT     API CODE   Curve Type Comments
#---------- ---------- ----------  ---------- --------
 DEPTH     .M                    : Depth      
 CALI      .IN                         : CALI       
 CILD      .MM/M                       : CILD       
 DT        .US/F                       : DT         
 GR        .GAPI                       : GR         
 ILD       .OHMM                       : ILD        
 INV       .OHMM                       : INV        
 LAT       .OHMM                       : LAT        
 LN        .OHMM                       : LN         
 MINV      .OHMM                       : MINV       
 MNOR      .OHMM                       : MNOR       
 NEUT      .NAPI                       : NEUT       
 SN        .OHMM                       : SN         
 SP        .MV                         : SP         
 SPHI      .V/V                        : SPHI       
~A Log data section
# ...
  323.8028        13.9529      -999.0000        47.2787      -999.0000      -999.0000      -999.0000         2.3650         2.6412      -999.0000      -999.0000      -999.0000         1.8445       -29.6768         0.0800 
  323.9552        14.0801      -999.0000        43.9982      -999.0000      -999.0000      -999.0000         2.2637         2.6114      -999.0000      -999.0000      -999.0000         1.8451       -29.4975         0.0410 
  324.1076        13.9767      -999.0000        42.2890      -999.0000      -999.0000      -999.0000         2.1625         2.5816      -999.0000      -999.0000      -999.0000         1.8542       -29.3410         0.0184 
  324.2600        13.6716      -999.0000        43.6572      -999.0000      -999.0000      -999.0000         2.1811         2.5477      -999.0000      -999.0000      -999.0000         1.8448       -29.1777         0.0368 
  324.4124        13.1718      -999.0000        45.0254      -999.0000      -999.0000      -999.0000         2.2300         2.5033      -999.0000      -999.0000      -999.0000         1.8173       -29.0398         0.0541 
  324.5648        12.8049      -999.0000        46.3934      -999.0000      -999.0000      -999.0000         2.2806         2.4589      -999.0000      -999.0000      -999.0000         1.7922       -28.8147         0.0704 
  324.7172        12.8819      -999.0000        47.6077      -999.0000      -999.0000      -999.0000         2.3312         2.4144      -999.0000      -999.0000      -999.0000         1.7651       -28.5795         0.0841 
  324.8696        13.3669      -999.0000        47.5494      -999.0000      -999.0000      -999.0000         2.3818         2.3700      -999.0000      -999.0000      -999.0000         1.7417       -28.4219         0.0832 
  325.0220        13.8164      -999.0000        44.8971      -999.0000      -999.0000      -999.0000         2.4324         2.3256      -999.0000      -999.0000      -999.0000         1.6952       -28.2088         0.0523 
  325.1744        13.9294      -999.0000        42.3243      -999.0000      -999.0000      -999.0000         2.4830         2.2811      -999.0000      -999.0000      -999.0000         1.6395       -28.3701         0.0187 
  325.3268        13.9250      -999.0000        40.8150      -999.0000      -999.0000      -999.0000         2.5337         2.2367      -999.0000      -999.0000      -999.0000         1.6306       -28.6153        -0.0029 
  325.4792        13.9989      -999.0000        42.5235      -999.0000      -999.0000      -999.0000         2.5843         2.1923      -999.0000      -999.0000      -999.0000         1.6433       -28.5838         0.0216 
  325.6316        13.9501      -999.0000        44.2323      -999.0000      -999.0000      -999.0000         2.6349         2.1478      -999.0000      -999.0000      -999.0000         1.6757       -28.5881         0.0442 
  325.7840        13.7700      -999.0000        45.7808      -999.0000      -999.0000      -999.0000         2.6855         2.1034      -999.0000      -999.0000      -999.0000         1.6784       -28.7928         0.0633 
  325.9364        13.5736      -999.0000        45.9915      -999.0000      -999.0000      -999.0000         2.7361         2.1738      -999.0000      -999.0000      -999.0000         1.6722       -28.9363         0.0655 
  326.0888        13.3745      -999.0000        43.4443      -999.0000      -999.0000      -999.0000         2.7867         2.2538      -999.0000      -999.0000      -999.0000         1.6464       -28.7478         0.0338 
  326.2412        13.2049      -999.0000        42.0857      -999.0000      -999.0000      -999.0000         2.8344         2.3338      -999.0000      -999.0000      -999.0000         1.6183       -28.7102         0.0149 
  326.3936        13.1955      -999.0000        46.3881      -999.0000      -999.0000      -999.0000         2.7742         2.4138      -999.0000      -999.0000      -999.0000         1.6268       -28.7838         0.0695 
  326.5460        13.3488      -999.0000        51.4573      -999.0000      -999.0000      -999.0000         2.7048         2.4937      -999.0000      -999.0000      -999.0000         1.6741       -29.3132         0.1225 
  326.6984        13.5000      -999.0000        56.5273      -999.0000      -999.0000      -999.0000         2.6354         2.5463      -999.0000      -999.0000      -999.0000         1.7133       -29.7800         0.1660 
  326.8508        13.4976      -999.0000        61.1271      -999.0000      -999.0000      -999.0000         2.4979         2.4663      -999.0000      -999.0000      -999.0000         1.7361       -29.7318         0.1995 
  327.0032        13.4105      -999.0000        61.7692      -999.0000      -999.0000      -999.0000         2.3028         2.3863      -999.0000      -999.0000      -999.0000         1.7635       -29.5269         0.2028 
  327.1556        13.3840      -999.0000        54.1650      -999.0000      -999.0000      -999.0000         2.1810         2.3063      -999.0000      -999.0000      -999.0000         1.7808       -29.4016         0.1458 
  327.3080        13.3830      -999.0000        46.7275      -999.0000      -999.0000      -999.0000         2.2839         2.2264      -999.0000      -999.0000      -999.0000         1.7607       -29.4774         0.0725 
  327.4604        13.3066      -999.0000        41.6342      -999.0000      -999.0000      -999.0000         2.4053         2.1464      -999.0000      -999.0000      -999.0000         1.7317       -29.5359         0.0090 
  327.6128        13.1720      -999.0000        43.8140      -999.0000      -999.0000      -999.0000         2.5268         2.1256      -999.0000      -999.0000      -999.0000         1.7120       -29.6010         0.0387 
  327.7652        13.0281      -999.0000        45.9938      -999.0000      -999.0000      -999.0000         2.6483         2.1864      -999.0000      -999.0000      -999.0000         1.7058       -29.6739         0.0656 
  327.9176        12.9525      -999.0000        48.1735      -999.0000      -999.0000      -999.0000         2.7698         2.2473      -999.0000      -999.0000      -999.0000         1.7294       -30.5973         0.0901 
  328.0700        12.9124      -999.0000        50.0634      -999.0000      -999.0000      -999.0000         2.7392         2.3081      -999.0000      -999.0000      -999.0000         1.7650       -30.8451         0.1097 
  328.2224        13.1752      -999.0000        50.2248      -999.0000      -999.0000      -999.0000         2.5864         2.3690      -999.0000      -999.0000      -999.0000         1.8033       -30.5752         0.1112 
  328.3748        13.1683      -999.0000        48.5904      -999.0000      -999.0000      -999.0000         2.5036         2.4298      -999.0000      -999.0000      -999.0000         1.8432       -30.4294         0.0946 
  328.5272        12.8534      -999.0000        46.9556      -999.0000      -999.0000      -999.0000         2.4277         2.4906      -999.0000      -999.0000      -999.0000         1.8712       -30.4322         0.0768 
  328.6796        12.7045      -999.0000        45.3209      -999.0000      -999.0000      -999.0000         2.3518         2.5515      -999.0000      -999.0000      -999.0000         1.8819       -30.4306         0.0577 
  328.8320        12.7345      -999.0000        43.6862      -999.0000      -999.0000      -999.0000         2.2759         2.6123      -999.0000      -999.0000      -999.0000         1.8918       -30.4348         0.0371 
  328.9844        12.8779      -999.0000        42.1894      -999.0000      -999.0000      -999.0000         2.1999         2.6732      -999.0000      -999.0000      -999.0000         1.8825       -30.0461         0.0170 
  329.1368        13.0007      -999.0000        41.8743      -999.0000      -999.0000      -999.0000         2.1240         2.7340      -999.0000      -999.0000      -999.0000         1.8375       -29.6247         0.0124 
  329.2892        13.0469      -999.0000        44.0746      -999.0000      -999.0000      -999.0000         2.0481         2.7949      -999.0000      -999.0000      -999.0000         1.7805       -29.1468         0.0421 
