~VERSION INFORMATION
 VERS.                 2.0:   CWLS LOG ASCII STANDARD - VERSION 2.0
 WRAP.                  NO:   SINGLE LINE PER DEPTH STEP
~WELL INFORMATION
#MNEM.UNIT       DATA           DESCRIPTION MNEMONIC
#---------    -------------   --------------------------
 STRT.M         149.0000                      : START DEPTH
 STOP.M         2735.0756                     : STOP DEPTH
 STEP.M         0.1524                        : STEP VALUE
 NULL.          -999.0000                     : NULL VALUE
 SRVC.          PYPOZO                        : Service Company/Logging company
 DATE.          03/07/2025                    : LAS file Creation Date
 WELL    .      CABALLO-1                      : Well Name
 COMP    .      PYPOZO 2.0                    : Company
 FLD     .      UNKNOWN                       : Field
 LOC     .      UNKNOWN                       : Location
 LATI    .      0                             : Latitude/Northing
 LONG    .      0                             : Longitude/Easting
 APDAT   .      0                             : Elevation Above Permanent Datum
~CURVE INFORMATION
#MNEM          UNIT     API CODE   Curve Type Comments
#---------- ---------- ----------  ---------- --------
 DEPTH     .M                    : Depth      
 CALI      .IN                         : CALI       
 CILD      .MM/M                       : CILD       
 DT        .US/F                       : DT         
 GR        .GAPI                       : GR         
 ILD       .OHMM                       : ILD        
 INV       .OHMM                       : INV        
 LAT       .OHMM                       : LAT        
 LN        .OHMM                       : LN         
 MINV      .OHMM                       : MINV       
 MNOR      .OHMM                       : MNOR       
 NEUT      .NAPI                       : NEUT       
 SN        .OHMM                       : SN         
 SP        .MV                         : SP         
 SPHI      .V/V                        : SPHI       
~A Log data section
# ...
 1355.7032        16.8455      -999.0000       106.6045        59.5988      -999.0000      -999.0000         5.2392         6.1729         1.0909         1.4428       715.6138         3.9856        -9.5117         0.4346 
 1355.8556        16.8557      -999.0000       130.0816        57.2419      -999.0000      -999.0000         5.3152         6.1637         1.0577         1.3650       741.1107         4.0356        -9.1760         0.5946 
 1356.0080        16.9905      -999.0000       100.1497        57.7216      -999.0000      -999.0000         5.4056         6.1528         1.0269         1.3182       766.5872         4.0857        -9.4262         0.3908 
 1356.1604        17.1665      -999.0000        83.6242        58.2007      -999.0000      -999.0000         5.4270         6.1428         1.0122         1.2870       792.0841         4.1357        -9.4128         0.2767 
 1356.3128        17.3607      -999.0000        91.1867        58.6801      -999.0000      -999.0000         5.4314         6.1328         1.0664         1.3025       817.5607         4.1506        -9.5853         0.3279 
 1356.4652        17.5669      -999.0000        99.2436        59.1591      -999.0000      -999.0000         5.4688         6.1228         1.1255         1.3490       800.5159         3.9443        -9.3848         0.3833 
 1356.6176        17.7858      -999.0000        96.4515        59.6383      -999.0000      -999.0000         5.5417         6.1128         1.1845         1.4422       764.5434         3.9359        -9.1842         0.3645 
 1356.7700        17.9858      -999.0000        92.8592        60.0976      -999.0000      -999.0000         5.6489         6.1027         1.1020         1.5230       749.1943         3.9109        -8.9838         0.3398 
 1356.9224        17.9516      -999.0000        89.2695        60.2165      -999.0000      -999.0000         5.6712         6.0917         1.1383         1.5992       767.1944         3.8867        -8.7832         0.3151 
 1357.0748        17.6378      -999.0000        95.7922        59.2579      -999.0000      -999.0000         5.8241         6.0793         1.1832         1.6441       785.1800         3.8652        -8.5827         0.3596 
 1357.2272        17.3168      -999.0000       117.6468        58.2997      -999.0000      -999.0000         5.9709         6.0572         1.2149         1.6441       803.1800         3.8224        -8.3823         0.5093 
 1357.3796        17.0455      -999.0000       106.5877        57.6205      -999.0000      -999.0000         6.1257         6.0341         1.2316         1.6376       779.8690         3.7545        -8.1817         0.4344 
 1357.5320        16.9117      -999.0000        93.0196        58.3007      -999.0000      -999.0000         6.1237         6.0102         1.2327         1.6015       780.3632         3.7060        -7.9812         0.3412 
 1357.6844        16.9505      -999.0000        99.0120        59.5326      -999.0000      -999.0000         6.1656         5.9872         1.2037         1.5407       789.3546         3.6883        -7.7818         0.3817 
 1357.8368        16.7976      -999.0000       118.3367        59.5042      -999.0000      -999.0000         6.2607         5.9642         1.1439         1.4601       798.3531         3.6656        -7.6369         0.5141 
 1357.9892        16.5113      -999.0000       109.8831        58.3821      -999.0000      -999.0000         6.3227         5.9412         1.0819         1.3879       798.5860         3.6961        -7.8174         0.4569 
 1358.1416        16.4320      -999.0000        98.8172        59.5769      -999.0000      -999.0000         6.3211         5.9177         1.0634         1.3844       778.3347         3.7367        -7.9979         0.3809 
 1358.2940        16.6368      -999.0000        85.5983        60.7722      -999.0000      -999.0000         6.2872         5.8946         1.0190         1.3360       758.0996         3.7873        -8.1784         0.2902 
 1358.4464        16.8788      -999.0000        81.0305        61.7357      -999.0000      -999.0000         6.2288         5.9059         1.0015         1.2876       737.8483         3.9112        -8.3588         0.2586 
 1358.5988        17.0037      -999.0000        82.2337        61.7040      -999.0000      -999.0000         6.2637         5.9614         0.9629         1.2392       717.6132         3.9233        -8.5394         0.2667 
 1358.7512        16.9533      -999.0000        79.4744        61.3483      -999.0000      -999.0000         6.3227         6.0135         0.9386         1.1908       723.4080         3.9521        -8.7198         0.2479 
 1358.9036        16.9336      -999.0000        73.8193        59.9089      -999.0000      -999.0000         6.3243         6.0667         0.9168         1.1424       741.4054         3.9810        -8.9004         0.2091 
 1359.0560        17.1143      -999.0000        75.3256        58.2220      -999.0000      -999.0000         6.3212         6.1205         0.9149         1.0940       759.3884         4.0067        -9.0808         0.2192 
 1359.2084        17.2596      -999.0000        77.3753        56.6230      -999.0000      -999.0000         6.2883         6.1734         0.9434         1.2845       777.3857         4.0100        -9.2612         0.2333 
 1359.3608        17.2540      -999.0000        78.8793        55.1991      -999.0000      -999.0000         6.2240         6.2258         1.2963         1.8220       795.3687         4.0131        -9.4418         0.2436 
 1359.5132        17.1663      -999.0000        84.1029        54.1184      -999.0000      -999.0000         6.1857         6.2803         1.6135         1.8342       813.3661         4.0409        -9.5951         0.2794 
 1359.6656        16.9864      -999.0000        92.4289        53.3761      -999.0000      -999.0000         6.0916         6.3319         1.4987         1.6561       831.3491         4.0859        -9.5290         0.3365 
 1359.8180        16.8769      -999.0000       100.9579        52.8223      -999.0000      -999.0000         6.0565         6.3831         1.2399         1.4782       849.3465         4.1309        -9.2712         0.3951 
 1359.9704        16.9722      -999.0000        71.3330        52.3388      -999.0000      -999.0000         6.0508         6.4000         1.2030         1.6574       869.6688         4.1760        -9.0133         0.1928 
 1360.1228        17.1901      -999.0000        50.1930        53.4585      -999.0000      -999.0000         5.9430         6.4157         1.2256         1.5653       888.0302         4.2210        -8.7556         0.0472 
 1360.2752        17.4000      -999.0000        61.9362        55.1500      -999.0000      -999.0000         5.9586         6.4300         1.2512         1.4216       810.7982         4.2603        -8.4977         0.1269 
 1360.4276        17.5705      -999.0000        77.9165        54.0714      -999.0000      -999.0000         5.9858         6.4459         1.2769         1.5846       804.8686         4.2568        -8.2400         0.2366 
 1360.5800        17.6387      -999.0000        77.2510        53.2771      -999.0000      -999.0000         6.0342         6.4612         1.6154         1.7745       801.8038         4.2424        -7.9821         0.2326 
 1360.7324        17.5618      -999.0000        66.0242        53.5561      -999.0000      -999.0000         6.1005         6.4754         1.5188         1.7102       789.7732         4.2268        -7.7382         0.1557 
 1360.8848        17.4321      -999.0000        85.3815        53.2240      -999.0000      -999.0000         6.1253         6.4554         1.2819         1.5086       762.4544         4.1961        -7.6100         0.2877 
 1361.0372        17.2898      -999.0000        92.3808        52.5080      -999.0000      -999.0000         6.1278         6.3857         1.5992         1.7107       725.5989         4.1196        -7.6100         0.3362 
 1361.1896        17.2183      -999.0000        83.0086        51.8766      -999.0000      -999.0000         6.1211         6.3186         1.9997         1.9751       697.3436         4.0669        -7.6100         0.2723 
