~VERSION INFORMATION
 VERS.                 2.0:   CWLS LOG ASCII STANDARD - VERSION 2.0
 WRAP.                  NO:   SINGLE LINE PER DEPTH STEP
~WELL INFORMATION
#MNEM.UNIT       DATA           DESCRIPTION MNEMONIC
#---------    -------------   --------------------------
 STRT.M         149.0000                      : START DEPTH
 STOP.M         2735.0756                     : STOP DEPTH
 STEP.M         0.1524                        : STEP VALUE
 NULL.          -999.0000                     : NULL VALUE
 SRVC.          PYPOZO                        : Service Company/Logging company
 DATE.          03/07/2025                    : LAS file Creation Date
 WELL    .      CABALLO-1                      : Well Name
 COMP    .      PYPOZO 2.0                    : Company
 FLD     .      UNKNOWN                       : Field
 LOC     .      UNKNOWN                       : Location
 LATI    .      0                             : Latitude/Northing
 LONG    .      0                             : Longitude/Easting
 APDAT   .      0                             : Elevation Above Permanent Datum
~CURVE INFORMATION
#MNEM          UNIT     API CODE   Curve Type Comments
#---------- ---------- ----------  ---------- --------
 DEPTH     .M                    : Depth      
 CALI      .IN                         : CALI       
 CILD      .MM/M                       : CILD       
 DT        .US/F                       : DT         
 GR        .GAPI                       : GR         
 ILD       .OHMM                       : ILD        
 INV       .OHMM                       : INV        
 LAT       .OHMM                       : LAT        
 LN        .OHMM                       : LN         
 MINV      .OHMM                       : MINV       
 MNOR      .OHMM                       : MNOR       
 NEUT      .NAPI                       : NEUT       
 SN        .OHMM                       : SN         
 SP        .MV                         : SP         
 SPHI      .V/V                        : SPHI       
~A Log data section
# ...
 2387.6036         9.0232        68.2338        60.3549        90.7596        50.2969      -999.0000       229.5865       147.0626         9.4118        20.1232      1761.0812        80.8820       -13.0538         0.1164 
 2387.7560         9.0114        68.3575        59.2605        99.0753        50.2547      -999.0000       246.4165       144.4462        19.4532        20.1294      1887.2544        82.0075       -12.5257         0.1090 
 2387.9084         8.9965        68.4813        58.4595       102.9029        50.2124      -999.0000       260.3736       141.8233        20.1600        20.1355      2013.6299        82.9697       -12.2809         0.1035 
 2388.0608         8.9878        68.6050        57.9799       102.9668        50.1702      -999.0000       277.6798       139.2164        20.1600        20.1417      2144.0349        82.4387       -11.9558         0.1002 
 2388.2132         8.9806        68.7287        56.9756        96.2237        50.1279      -999.0000       289.5944       136.6258        20.1600        20.1478      2283.7537        79.5462       -11.7802         0.0932 
 2388.3656         8.9944        68.8524        56.0973        93.4849        50.0857      -999.0000       291.7562       134.4662        20.1600        20.1540      2347.2634        76.6537       -11.4523         0.0872 
 2388.5180         9.0008        68.9762        56.5280        92.6785        50.0434      -999.0000       288.4516       132.4986        20.1600        20.1602      2158.1301        73.7607       -11.4138         0.0901 
 2388.6704         8.9965        69.0999        57.3690        92.0179        50.0012      -999.0000       277.7122       131.2332        20.1600        20.1663      1969.2993        70.8642       -11.2982         0.0959 
 2388.8228         8.9879        69.2236        57.4012        90.1254        49.9590      -999.0000       263.4087       130.7775        20.1600        20.1725      1782.9940        67.9717       -11.7458         0.0962 
 2388.9752         8.9712        69.3473        55.4869        83.9839        49.9167      -999.0000       258.0755       129.8048        20.0326        20.1786      1639.1884        65.0793       -11.3579         0.0830 
 2389.1276         8.9676        69.4711        54.9834        78.6501        49.8745      -999.0000       261.8619       125.7179        18.7790        20.1848      1495.1523        62.2856       -11.5548         0.0796 
 2389.2800         8.9728        69.5948        52.8019        76.8614        49.8322      -999.0000       267.1558       121.0778        17.4488        19.5582      1351.3467        60.4988       -11.2551         0.0647 
 2389.4324         8.9798        69.7185        51.1641        76.4307        49.7900      -999.0000       275.1907       116.4517        16.1187        15.4940      1340.4373        60.8740       -10.9559         0.0534 
 2389.5848         8.9805        69.8422        83.9021        75.4750        49.7478      -999.0000       277.7289       112.2128        14.8471        13.9313      1421.3668        61.2493       -10.6567         0.2771 
 2389.7372         8.9873        69.9659        65.9423        74.5185        49.7055      -999.0000       274.7124       111.2319        12.9247        20.1016      1502.2964        61.6245       -10.3575         0.1555 
 2389.8896         9.0004        70.0897        58.3232        72.1049        49.6633      -999.0000       266.1562       111.4052        19.6754        11.9167      1570.6743        61.9997       -10.0582         0.1027 
 2390.0420         9.0012        70.2134        59.7682        63.4921        49.6210      -999.0000       256.1644       112.6956        20.1600        20.1153      1552.6903        62.3755        -9.8255         0.1124 
 2390.1944         8.9921        70.3371        61.4343        54.7040        49.5788      -999.0000       247.0237       114.3550        20.1600        20.1221      1534.7063        62.6917       -10.1058         0.1238 
 2390.3468         8.9856        70.4608        61.3944        45.9073        49.5366      -999.0000       246.3276       115.8968        20.1600        20.1290      1516.7223        62.4625       -10.6453         0.1236 
 2390.4992         8.9896        70.5846        61.9454        38.0216        49.4943      -999.0000       254.4990       114.6886        20.1600        20.1358      1542.0511        61.3385       -11.1849         0.1273 
 2390.6516         8.9939        70.7083        61.4441        35.5757        49.4521      -999.0000       268.0628       111.5468        19.9509        19.7124      1589.2363        60.3600       -11.7252         0.1240 
 2390.8040         8.9956        70.8320        65.4207        40.0582        49.4098      -999.0000       282.7066       108.5339        19.6964        19.5088      1636.4214        60.3600       -12.2647         0.1511 
 2390.9564         9.0151        70.9557        71.5622        44.5421        49.3676      -999.0000       287.6373       105.9554        19.8585        20.1000      1683.6066        60.3600       -12.6866         0.1931 
 2391.1088         9.0166        71.0795        59.7960        49.0304        49.3253      -999.0000       289.6826       103.4645        20.0504        20.1000      1725.3780        60.3600       -12.2561         0.1130 
 2391.2612         8.9921        71.2032        58.0152        54.6651        49.2831      -999.0000       285.6417       100.2505        20.1536        20.1000      1647.3224        60.3600       -11.7159         0.1005 
 2391.4136         8.9818        71.3269        68.9452        65.5804        49.2409      -999.0000       269.1496       100.3407        20.1600        20.1000      1569.3916        60.3437       -11.1764         0.1751 
 2391.5660         8.9886        71.4506        80.9343        78.2489        49.1986      -999.0000       243.9018       101.2821        20.1600        20.1000      1491.4609        60.1581       -10.6368         0.2574 
 2391.7184         9.0017        71.5744        92.9592        90.1742        49.1564      -999.0000       232.0106       103.0602        20.1600        20.1000      1401.3591        59.5953       -10.1189         0.3400 
 2391.8708         9.0085        71.6981        63.8096        96.8567        49.1141      -999.0000       220.1150       104.9085        20.1600        20.1000      1302.2900        59.0325        -9.9101         0.1407 
 2392.0232         9.0052        71.8218        60.8701        94.9461        49.0719      -999.0000       205.6824       106.8020        16.4393        20.1000      1203.3794        58.4689       -10.8090         0.1200 
 2392.1756         9.0000        71.9455        53.5658        93.0348        49.0297      -999.0000       187.1817       108.6208        10.2088        20.1000      1123.0498        58.0630       -11.5709         0.0699 
 2392.3280         9.0035        72.0693        67.9839        91.9712        48.9874      -999.0000       183.5093       109.8792         7.8922        15.1512      1182.9687        58.8704       -11.3372         0.1684 
 2392.4804         8.9918        72.1930        86.2299        94.6999        48.9452      -999.0000       181.0033       113.5796         7.8257         7.8336      1242.9838        60.3709       -10.8876         0.2936 
 2392.6328         8.9756        72.3167        68.0701        97.1408        48.9029      -999.0000       179.2690       116.8777        11.6505         9.3993      1302.9028        61.8450       -10.4374         0.1700 
 2392.7852         8.9706        72.4404        57.3857        93.6008        48.8607      -999.0000       181.9809       120.2354        15.5309        14.2914      1392.9333        62.9600        -9.9879         0.0963 
 2392.9376         8.9859        72.5642        58.4247        85.1722        48.8184      -999.0000       190.1603       123.7426        18.8678        19.1835      1499.0185        62.9600        -9.5383         0.1031 
 2393.0900         8.9865        72.6879        63.0034        76.7352        48.7762      -999.0000       196.4971       128.0604        18.6071        20.1676      1605.1038        63.9563        -9.0887         0.1345 
