~VERSION INFORMATION
 VERS.                 2.0:   CWLS LOG ASCII STANDARD - VERSION 2.0
 WRAP.                  NO:   SINGLE LINE PER DEPTH STEP
~WELL INFORMATION
#MNEM.UNIT       DATA           DESCRIPTION MNEMONIC
#---------    -------------   --------------------------
 STRT.M         149.0000                      : START DEPTH
 STOP.M         2735.0756                     : STOP DEPTH
 STEP.M         0.1524                        : STEP VALUE
 NULL.          -999.0000                     : NULL VALUE
 SRVC.          PYPOZO                        : Service Company/Logging company
 DATE.          03/07/2025                    : LAS file Creation Date
 WELL    .      CABALLO-1                      : Well Name
 COMP    .      PYPOZO 2.0                    : Company
 FLD     .      UNKNOWN                       : Field
 LOC     .      UNKNOWN                       : Location
 LATI    .      0                             : Latitude/Northing
 LONG    .      0                             : Longitude/Easting
 APDAT   .      0                             : Elevation Above Permanent Datum
~CURVE INFORMATION
#MNEM          UNIT     API CODE   Curve Type Comments
#---------- ---------- ----------  ---------- --------
 DEPTH     .M                    : Depth      
 CALI      .IN                         : CALI       
 CILD      .MM/M                       : CILD       
 DT        .US/F                       : DT         
 GR        .GAPI                       : GR         
 ILD       .OHMM                       : ILD        
 INV       .OHMM                       : INV        
 LAT       .OHMM                       : LAT        
 LN        .OHMM                       : LN         
 MINV      .OHMM                       : MINV       
 MNOR      .OHMM                       : MNOR       
 NEUT      .NAPI                       : NEUT       
 SN        .OHMM                       : SN         
 SP        .MV                         : SP         
 SPHI      .V/V                        : SPHI       
~A Log data section
  149.0000        12.8038      -999.0000        65.6611      -999.0000      -999.0000      -999.0000         0.2700         1.6071      -999.0000      -999.0000      -999.0000         1.0377       -24.4018         0.5476 
  149.1524        12.7578      -999.0000        64.1631      -999.0000      -999.0000      -999.0000         0.2700         1.6790      -999.0000      -999.0000      -999.0000         1.3015       -23.9161         0.5388 
  149.3048        12.7707      -999.0000        64.1650      -999.0000      -999.0000      -999.0000         0.2700         1.7510      -999.0000      -999.0000      -999.0000         1.5308       -17.6825         0.5388 
  149.4572        12.7939      -999.0000        62.9442      -999.0000      -999.0000      -999.0000         0.2700         1.2464      -999.0000      -999.0000      -999.0000         1.7275       -18.3539         0.5313 
  149.6096        13.1024      -999.0000        61.5526      -999.0000      -999.0000      -999.0000         0.2700         1.7550      -999.0000      -999.0000      -999.0000         1.8600       -16.2271         0.5223 
  149.7620        13.6237      -999.0000        61.7425      -999.0000      -999.0000      -999.0000         0.2700         2.2635      -999.0000      -999.0000      -999.0000         1.8600       -16.2991         0.5228 
  149.9144        14.4105      -999.0000        69.1498      -999.0000      -999.0000      -999.0000         0.2700         2.4358      -999.0000      -999.0000      -999.0000         1.8600       -16.3878         0.5662 
  150.0668        15.5551      -999.0000        73.8330      -999.0000      -999.0000      -999.0000         0.2700         2.5575      -999.0000      -999.0000      -999.0000         1.8755       -16.6590         0.5892 
  150.2192        15.9980      -999.0000        69.2426      -999.0000      -999.0000      -999.0000         0.2700         2.6792      -999.0000      -999.0000      -999.0000         1.9719       -17.0927         0.5672 
  150.3716        15.9125      -999.0000        71.1592      -999.0000      -999.0000      -999.0000         0.2700         2.8009      -999.0000      -999.0000      -999.0000         2.0172       -17.5115         0.5767 
  150.5240        15.8613      -999.0000        73.3610      -999.0000      -999.0000      -999.0000         0.2700         2.9226      -999.0000      -999.0000      -999.0000         2.0390       -18.0165         0.5868 
  150.6764        15.8500      -999.0000        66.2405      -999.0000      -999.0000      -999.0000         0.2700         3.0060      -999.0000      -999.0000      -999.0000         2.0406       -18.5895         0.5503 
  150.8288        15.7881      -999.0000        60.0622      -999.0000      -999.0000      -999.0000         0.2700         2.8017      -999.0000      -999.0000      -999.0000         2.0535       -19.0405         0.5123 
  150.9812        15.5582      -999.0000        62.3078      -999.0000      -999.0000      -999.0000         0.2700         2.5974      -999.0000      -999.0000      -999.0000         2.0772       -19.6095         0.5217 
  151.1336        15.2466      -999.0000        79.5931      -999.0000      -999.0000      -999.0000         0.2700         2.6026      -999.0000      -999.0000      -999.0000         2.0805       -20.2067         0.6139 
  151.2860        14.7805      -999.0000        77.9657      -999.0000      -999.0000      -999.0000         0.2700         2.6548      -999.0000      -999.0000      -999.0000         2.0896       -20.8074         0.6067 
  151.4384        13.9919      -999.0000        68.6123      -999.0000      -999.0000      -999.0000         0.2700         2.7069      -999.0000      -999.0000      -999.0000         2.1125       -21.3602         0.5622 
  151.5908        13.5175      -999.0000        59.6746      -999.0000      -999.0000      -999.0000         0.2700         2.7591      -999.0000      -999.0000      -999.0000         2.1230       -21.9533         0.5094 
  151.7432        13.3472      -999.0000        63.4502      -999.0000      -999.0000      -999.0000         0.2700         2.9719      -999.0000      -999.0000      -999.0000         2.1430       -22.5591         0.5342 
  151.8956        13.3120      -999.0000        67.2262      -999.0000      -999.0000      -999.0000         0.2700         2.9754      -999.0000      -999.0000      -999.0000         2.1641       -23.1617         0.5563 
  152.0480        13.5383      -999.0000        71.0021      -999.0000      -999.0000      -999.0000         0.2700         2.9788      -999.0000      -999.0000      -999.0000         2.1879       -23.6475         0.5759 
  152.2004        13.8001      -999.0000        74.0887      -999.0000      -999.0000      -999.0000         0.2700         2.9822      -999.0000      -999.0000      -999.0000         2.2066       -23.8747         0.5907 
  152.3528        13.9397      -999.0000        73.0411      -999.0000      -999.0000      -999.0000         0.2700         2.9857      -999.0000      -999.0000      -999.0000         2.2351       -23.9935         0.5856 
  152.5052        14.0340      -999.0000        68.3744      -999.0000      -999.0000      -999.0000         0.2700         2.9891      -999.0000      -999.0000      -999.0000         2.2765       -24.1273         0.5626 
  152.6576        14.1282      -999.0000        67.3841      -999.0000      -999.0000      -999.0000         0.2700         3.0624      -999.0000      -999.0000      -999.0000         2.3233       -24.4076         0.5573 
  152.8100        14.2062      -999.0000        67.4560      -999.0000      -999.0000      -999.0000         0.2700         3.0658      -999.0000      -999.0000      -999.0000         2.3657       -24.7919         0.5576 
  152.9624        14.1204      -999.0000        70.3036      -999.0000      -999.0000      -999.0000         0.2700         3.0693      -999.0000      -999.0000      -999.0000         2.4113       -25.1120         0.5724 
  153.1148        13.9373      -999.0000        74.2820      -999.0000      -999.0000      -999.0000         0.2700         3.0727      -999.0000      -999.0000      -999.0000         2.4431       -25.2782         0.5915 
  153.2672        13.7542      -999.0000        71.7838      -999.0000      -999.0000      -999.0000         0.2700         3.0761      -999.0000      -999.0000      -999.0000         2.4687       -25.4093         0.5782 
  153.4196        14.0641      -999.0000        61.8029      -999.0000      -999.0000      -999.0000         0.2700         3.0796      -999.0000      -999.0000      -999.0000         2.4508       -25.6036         0.5240 
  153.5720        14.2649      -999.0000        62.9702      -999.0000      -999.0000      -999.0000         0.2700         3.0300      -999.0000      -999.0000      -999.0000         2.4081       -25.8264         0.5314 
  153.7244        14.1974      -999.0000        63.4995      -999.0000      -999.0000      -999.0000         0.2700         3.0019      -999.0000      -999.0000      -999.0000         2.3539       -25.7452         0.5347 
  153.8768        14.1327      -999.0000        61.9466      -999.0000      -999.0000      -999.0000         0.2700         2.9519      -999.0000      -999.0000      -999.0000         2.2772       -25.7214         0.5249 
  154.0292        14.0964      -999.0000        60.3938      -999.0000      -999.0000      -999.0000         0.2700         2.9020      -999.0000      -999.0000      -999.0000         2.2254       -25.8419         0.5146 
  154.1816        14.1677      -999.0000        58.9779      -999.0000      -999.0000      -999.0000         0.2700         2.8520      -999.0000      -999.0000      -999.0000         2.1888       -26.0342         0.5047 
  154.3340        14.2171      -999.0000        58.7711      -999.0000      -999.0000      -999.0000         0.2917         2.8020      -999.0000      -999.0000      -999.0000         2.1695       -26.1987         0.5031 
  154.4864        14.1971      -999.0000        60.8871      -999.0000      -999.0000      -999.0000         0.8542         2.8089      -999.0000      -999.0000      -999.0000         2.1541       -26.3950         0.5180 
