~VERSION INFORMATION
 VERS.                 2.0:   CWLS LOG ASCII STANDARD - VERSION 2.0
 WRAP.                  NO:   SINGLE LINE PER DEPTH STEP
~WELL INFORMATION
#MNEM.UNIT       DATA           DESCRIPTION MNEMONIC
#---------    -------------   --------------------------
 STRT.M         149.0000                      : START DEPTH
 STOP.M         2735.0756                     : STOP DEPTH
 STEP.M         0.1524                        : STEP VALUE
 NULL.          -999.0000                     : NULL VALUE
 SRVC.          PYPOZO                        : Service Company/Logging company
 DATE.          03/07/2025                    : LAS file Creation Date
 WELL    .      CABALLO-1                      : Well Name
 COMP    .      PYPOZO 2.0                    : Company
 FLD     .      UNKNOWN                       : Field
 LOC     .      UNKNOWN                       : Location
 LATI    .      0                             : Latitude/Northing
 LONG    .      0                             : Longitude/Easting
 APDAT   .      0                             : Elevation Above Permanent Datum
~CURVE INFORMATION
#MNEM          UNIT     API CODE   Curve Type Comments
#---------- ---------- ----------  ---------- --------
 DEPTH     .M                    : Depth      
 CALI      .IN                         : CALI       
 CILD      .MM/M                       : CILD       
 DT        .US/F                       : DT         
 GR        .GAPI                       : GR         
 ILD       .OHMM                       : ILD        
 INV       .OHMM                       : INV        
 LAT       .OHMM                       : LAT        
 LN        .OHMM                       : LN         
 MINV      .OHMM                       : MINV       
 MNOR      .OHMM                       : MNOR       
 NEUT      .NAPI                       : NEUT       
 SN        .OHMM                       : SN         
 SP        .MV                         : SP         
 SPHI      .V/V                        : SPHI       
~A Log data section
# ...
 2212.8008         9.2765         6.3118        58.2544        15.7915       261.6657      -999.0000       134.0299       115.0324         7.6176         7.7337      2670.8137        53.0381       -60.8538         0.1648 
 2212.9532         9.3278         7.8231        56.5084        14.9714       185.8583      -999.0000       133.1284       114.4681         8.0803         8.2439      2699.0671        52.5823       -61.0771         0.1559 
 2213.1056         9.3219         9.4250        56.6441        14.1505       143.7414      -999.0000       131.2064       113.9038        10.9499        11.2796      2829.7285        51.9526       -61.6316         0.1558 
 2213.2580         9.2909        11.2079        58.2001        13.3306       114.2315      -999.0000       128.9873       113.3395        16.9044        17.4397      2865.4595        51.5750       -62.2674         0.1603 
 2213.4104         9.2781        12.7542        57.9895        12.5107        95.7994      -999.0000       126.2843       112.8110        19.8300        20.1375      2874.9951        51.2327       -62.5731         0.1601 
 2213.5628         9.2518        13.2865        56.1627        11.6906        97.7062      -999.0000       123.3250       112.5257        19.8040        19.9197      2878.3415        50.9705       -63.2589         0.1534 
 2213.7152         9.1948        13.3018        54.9013        10.8696        98.3500      -999.0000       122.3332       111.7671        18.0411        18.0480      2875.5051        50.8108       -62.5743         0.1492 
 2213.8676         9.1985        13.8284        55.8379        10.2111        97.1248      -999.0000       122.8404       110.2386        15.2678        15.2112      2881.4165        50.3365       -62.2206         0.1500 
 2214.0200         9.1896        14.5123        58.0080        10.3119        94.1813      -999.0000       123.5846       108.8365         4.1048         3.4618      2893.6296        50.0108       -62.3548         0.1565 
 2214.1724         9.1774        14.8407        58.7354        10.7413        91.0061      -999.0000       124.9378       107.5532         2.1486         2.1953      2891.1362        49.8639       -62.4815         0.1575 
 2214.3248         9.1240        14.6733        61.3445        11.1708        94.5152      -999.0000       127.1338       106.5636         3.9338         4.1954      2855.1946        49.9381       -63.2143         0.1787 
 2214.4772         9.1092        13.9175        63.7899        11.6008       102.5066      -999.0000       128.5468       105.6336         5.2387         5.4513      2823.9724        49.7237       -62.9754         0.2023 
 2214.6296         9.1316        13.1530        58.9301        12.0302       108.4619      -999.0000       129.4421       104.0489         5.8138         8.0785      2810.8921        49.4774       -62.7635         0.1712 
 2214.7820         9.1683        12.9030        58.0222        12.2208       114.0284      -999.0000       134.8802       102.3832         5.3127         7.5050      2804.5151        49.2308       -62.3750         0.1651 
 2214.9344         9.1713        12.9030        59.1331        11.3764       112.5798      -999.0000       140.2843       100.1048         4.2757         6.4353      2776.4956        48.4225       -61.9345         0.1665 
 2215.0868         9.1489        12.9030        58.6335        10.4198       105.3633      -999.0000       146.1603        96.5282         3.7564         5.9548      2717.1587        46.6886       -60.9700         0.1630 
 2215.2392         9.1328        13.8379        57.4185         9.5595        97.4237      -999.0000       154.3205        93.5302         3.3483         5.5518      2665.5173        45.6373       -59.9702         0.1585 
 2215.3916         9.1652        16.5809        57.2250         9.2230        71.5004      -999.0000       161.7926        92.0418         3.0066         5.2144      2677.9927        45.1856       -58.8452         0.1578 
 2215.5440         9.1547        19.4782        56.7896         9.4027        57.8168      -999.0000       164.4954        91.0794         2.6882         4.8973      2741.6304        44.5574       -57.5028         0.1552 
 2215.6964         9.0386        21.2343        55.5659         9.5826        50.1046      -999.0000       168.5238        89.2256         4.4603         6.8166      2809.3486        44.1249       -56.3451         0.1513 
 2215.8488         9.0620        22.3757        53.6707         9.7622        46.9658      -999.0000       174.0939        87.0867         5.3390         7.6220      2887.0110        43.9506       -55.2473         0.1429 
 2216.0012         9.0953        23.1937        53.8032         9.9698        46.1711      -999.0000       180.1719        84.7577         5.4914         7.7284      2961.2681        43.9318       -54.7385         0.1411 
 2216.1536         9.1387        23.6870        54.3099        10.3019        45.6435      -999.0000       186.2976        83.2748         5.4377         7.6634      3009.8809        43.6822       -54.1870         0.1421 
 2216.3060         9.1558        23.9172        54.0548        10.6601        45.1159      -999.0000       193.3859        82.1116         5.1774         7.3894      3045.4214        43.1387       -54.0202         0.1440 
 2216.4584         9.1767        23.9700        57.0805        11.0187        44.7175      -999.0000       200.7216        77.5618         4.7446         6.9454      3040.7739        42.6408       -53.9787         0.1524 
 2216.6108         9.2120        23.7153        57.6720        11.3769        46.3561      -999.0000       212.0782        70.0424         4.0232         6.2044      2965.7393        42.1559       -54.0834         0.1554 
 2216.7632         9.2440        22.2892        56.0467        11.7350        49.5021      -999.0000       223.4352        64.1154         2.1692         4.2721      2893.0596        41.5533       -54.0004         0.1507 
 2216.9156         9.2331        19.5810        55.4199        12.0933        59.0078      -999.0000       228.6404        51.7018         1.8770         4.0954      2808.1409        40.6716       -53.1450         0.1474 
 2217.0680         9.2384        17.2331        55.1140        12.4519        68.1969      -999.0000       214.6409        46.9304         2.4159         4.6847      2722.7473        38.7025       -51.7727         0.1461 
 2217.2204         9.2335        16.3566        55.3721        12.8100        72.6107      -999.0000       202.3372        42.1911         3.8597         6.1886      2635.4724        35.9670       -50.4980         0.1491 
 2217.3728         9.1777        16.7999        61.5661        13.0688        69.3859      -999.0000       184.5265        37.7535         4.8133         7.1035      2593.4614        33.4173       -49.6927         0.1942 
 2217.5252         9.1033        18.0666        70.4538        12.8357        64.2928      -999.0000       179.3670        33.8187         8.2339        10.7005      2550.3479        31.2124       -48.8509         0.2549 
 2217.6776         9.1327        19.5355        62.9416        12.2982        57.5411      -999.0000       182.9771        30.2126        12.1253        16.3750      2464.1587        28.7874       -47.9573         0.2053 
 2217.8300         9.1627        19.9198        56.1281        11.7614        56.0351      -999.0000       189.0638        26.6269        13.9306        16.1843      2238.0645        26.0344       -47.1303         0.1649 
 2217.9824         9.1945        18.7560        56.6654        11.2247        60.9629      -999.0000       196.9388        23.8411        14.5111        16.8206      2014.6428        22.5958       -45.7930         0.1712 
 2218.1348         9.2130        19.3100        60.6967        10.8657        64.9872      -999.0000       185.4057        22.5306        15.2443        17.4409      1943.6012        18.6389       -45.0671         0.1985 
 2218.2872         9.2159        25.5892        62.7599        11.2652        45.5766      -999.0000       171.5729        21.1710        13.0769        14.9685      1488.1248        15.6730       -44.6713         0.2002 
