~VERSION INFORMATION
 VERS.                 2.0:   CWLS LOG ASCII STANDARD - VERSION 2.0
 WRAP.                  NO:   SINGLE LINE PER DEPTH STEP
~WELL INFORMATION
#MNEM.UNIT       DATA           DESCRIPTION MNEMONIC
#---------    -------------   --------------------------
 STRT.M         149.0000                      : START DEPTH
 STOP.M         2735.0756                     : STOP DEPTH
 STEP.M         0.1524                        : STEP VALUE
 NULL.          -999.0000                     : NULL VALUE
 SRVC.          PYPOZO                        : Service Company/Logging company
 DATE.          03/07/2025                    : LAS file Creation Date
 WELL    .      CABALLO-1                      : Well Name
 COMP    .      PYPOZO 2.0                    : Company
 FLD     .      UNKNOWN                       : Field
 LOC     .      UNKNOWN                       : Location
 LATI    .      0                             : Latitude/Northing
 LONG    .      0                             : Longitude/Easting
 APDAT   .      0                             : Elevation Above Permanent Datum
~CURVE INFORMATION
#MNEM          UNIT     API CODE   Curve Type Comments
#---------- ---------- ----------  ---------- --------
 DEPTH     .M                    : Depth      
 CALI      .IN                         : CALI       
 CILD      .MM/M                       : CILD       
 DT        .US/F                       : DT         
 GR        .GAPI                       : GR         
 ILD       .OHMM                       : ILD        
 INV       .OHMM                       : INV        
 LAT       .OHMM                       : LAT        
 LN        .OHMM                       : LN         
 MINV      .OHMM                       : MINV       
 MNOR      .OHMM                       : MNOR       
 NEUT      .NAPI                       : NEUT       
 SN        .OHMM                       : SN         
 SP        .MV                         : SP         
 SPHI      .V/V                        : SPHI       
~A Log data section
# ...
  492.9668        13.0927      -999.0000        48.6895      -999.0000      -999.0000      -999.0000         1.2117         2.3101      -999.0000      -999.0000      -999.0000         1.4133       -28.2904         0.0954 
  493.1192        13.7786      -999.0000        50.2764      -999.0000      -999.0000      -999.0000         1.2278         2.2741      -999.0000      -999.0000      -999.0000         1.4373       -28.2586         0.1104 
  493.2716        14.0663      -999.0000        43.5463      -999.0000      -999.0000      -999.0000         1.2510         2.1983      -999.0000      -999.0000      -999.0000         1.4522       -28.2662         0.0332 
  493.4240        13.4244      -999.0000        38.2166      -999.0000      -999.0000      -999.0000         1.2741         2.1225      -999.0000      -999.0000      -999.0000         1.4407       -28.2776        -0.0442 
  493.5764        13.0025      -999.0000        39.9944      -999.0000      -999.0000      -999.0000         1.2972         2.0467      -999.0000      -999.0000      -999.0000         1.4159       -28.2439        -0.0164 
  493.7288        13.6463      -999.0000        44.2352      -999.0000      -999.0000      -999.0000         1.3204         1.9710      -999.0000      -999.0000      -999.0000         1.3835       -28.1638         0.0441 
  493.8812        14.0163      -999.0000        45.5170      -999.0000      -999.0000      -999.0000         1.3435         1.8952      -999.0000      -999.0000      -999.0000         1.3544       -28.1022         0.0599 
  494.0336        13.5524      -999.0000        42.9289      -999.0000      -999.0000      -999.0000         1.3666         1.8194      -999.0000      -999.0000      -999.0000         1.3436       -28.0978         0.0269 
  494.1860        13.0261      -999.0000        40.3408      -999.0000      -999.0000      -999.0000         1.3898         1.7436      -999.0000      -999.0000      -999.0000         1.3640       -28.9395        -0.0103 
  494.3384        12.8285      -999.0000        37.7527      -999.0000      -999.0000      -999.0000         1.4129         1.6678      -999.0000      -999.0000      -999.0000         1.3993       -29.2072        -0.0526 
  494.4908        12.7831      -999.0000        36.7569      -999.0000      -999.0000      -999.0000         1.4361         1.6485      -999.0000      -999.0000      -999.0000         1.4245       -29.5029        -0.0726 
  494.6432        12.7730      -999.0000        43.5386      -999.0000      -999.0000      -999.0000         1.4955         1.6855      -999.0000      -999.0000      -999.0000         1.4520       -29.6766         0.0324 
  494.7956        12.7887      -999.0000        50.0846      -999.0000      -999.0000      -999.0000         1.5617         1.7225      -999.0000      -999.0000      -999.0000         1.4775       -29.8838         0.1096 
  494.9480        12.8108      -999.0000        46.6984      -999.0000      -999.0000      -999.0000         1.6282         1.7595      -999.0000      -999.0000      -999.0000         1.4841       -29.9345         0.0735 
  495.1004        12.8446      -999.0000        43.3123      -999.0000      -999.0000      -999.0000         1.6948         1.7965      -999.0000      -999.0000      -999.0000         1.4541       -29.9003         0.0318 
  495.2528        12.8524      -999.0000        39.9261      -999.0000      -999.0000      -999.0000         1.7613         1.8335      -999.0000      -999.0000      -999.0000         1.4500       -29.7648        -0.0170 
  495.4052        12.9134      -999.0000        37.0870      -999.0000      -999.0000      -999.0000         1.8278         1.8705      -999.0000      -999.0000      -999.0000         1.4699       -29.6390        -0.0639 
  495.5576        13.1867      -999.0000        38.7113      -999.0000      -999.0000      -999.0000         1.8947         1.9075      -999.0000      -999.0000      -999.0000         1.4920       -29.4951        -0.0418 
  495.7100        13.8402      -999.0000        47.0158      -999.0000      -999.0000      -999.0000         1.8391         1.9445      -999.0000      -999.0000      -999.0000         1.4958       -29.3940         0.0774 
  495.8624        14.9306      -999.0000        44.6496      -999.0000      -999.0000      -999.0000         1.7726         1.9815      -999.0000      -999.0000      -999.0000         1.5166       -29.2829         0.0490 
  496.0148        15.5950      -999.0000        41.6414      -999.0000      -999.0000      -999.0000         1.7061         2.0185      -999.0000      -999.0000      -999.0000         1.5501       -29.1761         0.0092 
  496.1672        15.6855      -999.0000        40.5626      -999.0000      -999.0000      -999.0000         1.7053         2.0555      -999.0000      -999.0000      -999.0000         1.5867       -29.1403        -0.0065 
  496.3196        15.6947      -999.0000        40.7285      -999.0000      -999.0000      -999.0000         1.7669         2.0926      -999.0000      -999.0000      -999.0000         1.6235       -29.2086        -0.0040 
  496.4720        15.7106      -999.0000        40.7666      -999.0000      -999.0000      -999.0000         1.8334         2.1177      -999.0000      -999.0000      -999.0000         1.6631       -29.6926        -0.0035 
  496.6244        15.6959      -999.0000        40.5617      -999.0000      -999.0000      -999.0000         1.8911         2.1398      -999.0000      -999.0000      -999.0000         1.6849       -30.0394        -0.0066 
  496.7768        15.6966      -999.0000        41.1924      -999.0000      -999.0000      -999.0000         1.8430         2.1619      -999.0000      -999.0000      -999.0000         1.7169       -30.4264         0.0028 
  496.9292        15.6561      -999.0000        41.9449      -999.0000      -999.0000      -999.0000         1.7860         2.1841      -999.0000      -999.0000      -999.0000         1.7590       -30.6069         0.0136 
  497.0816        15.4741      -999.0000        41.0128      -999.0000      -999.0000      -999.0000         1.7290         2.2062      -999.0000      -999.0000      -999.0000         1.7702       -30.6582         0.0002 
  497.2340        15.3964      -999.0000        41.1115      -999.0000      -999.0000      -999.0000         1.6720         2.2283      -999.0000      -999.0000      -999.0000         1.7451       -30.3077         0.0016 
  497.3864        15.5545      -999.0000        41.4430      -999.0000      -999.0000      -999.0000         1.6149         2.2505      -999.0000      -999.0000      -999.0000         1.6981       -29.7741         0.0063 
  497.5388        15.6916      -999.0000        39.8189      -999.0000      -999.0000      -999.0000         1.5579         2.2726      -999.0000      -999.0000      -999.0000         1.6643       -29.2609        -0.0181 
  497.6912        15.7093      -999.0000        39.1875      -999.0000      -999.0000      -999.0000         1.5009         2.2947      -999.0000      -999.0000      -999.0000         1.6268       -28.7870        -0.0282 
  497.8436        15.6477      -999.0000        40.4500      -999.0000      -999.0000      -999.0000         1.4452         2.3169      -999.0000      -999.0000      -999.0000         1.5925       -28.5006        -0.0083 
  497.9960        15.5003      -999.0000        39.1096      -999.0000      -999.0000      -999.0000         1.5107         2.3026      -999.0000      -999.0000      -999.0000         1.5624       -28.2470        -0.0295 
  498.1484        15.4778      -999.0000        37.7275      -999.0000      -999.0000      -999.0000         1.5867         2.2352      -999.0000      -999.0000      -999.0000         1.5313       -28.2109        -0.0526 
  498.3008        15.4696      -999.0000        37.6983      -999.0000      -999.0000      -999.0000         1.6626         2.1679      -999.0000      -999.0000      -999.0000         1.5030       -28.2305        -0.0531 
  498.4532        15.5616      -999.0000        38.5680      -999.0000      -999.0000      -999.0000         1.7385         2.1005      -999.0000      -999.0000      -999.0000         1.4712       -28.2681        -0.0383 
