~VERSION INFORMATION
 VERS.                 2.0:   CWLS LOG ASCII STANDARD - VERSION 2.0
 WRAP.                  NO:   SINGLE LINE PER DEPTH STEP
~WELL INFORMATION
#MNEM.UNIT       DATA           DESCRIPTION MNEMONIC
#---------    -------------   --------------------------
 STRT.M         149.0000                      : START DEPTH
 STOP.M         2735.0756                     : STOP DEPTH
 STEP.M         0.1524                        : STEP VALUE
 NULL.          -999.0000                     : NULL VALUE
 SRVC.          PYPOZO                        : Service Company/Logging company
 DATE.          03/07/2025                    : LAS file Creation Date
 WELL    .      CABALLO-1                      : Well Name
 COMP    .      PYPOZO 2.0                    : Company
 FLD     .      UNKNOWN                       : Field
 LOC     .      UNKNOWN                       : Location
 LATI    .      0                             : Latitude/Northing
 LONG    .      0                             : Longitude/Easting
 APDAT   .      0                             : Elevation Above Permanent Datum
~CURVE INFORMATION
#MNEM          UNIT     API CODE   Curve Type Comments
#---------- ---------- ----------  ---------- --------
 DEPTH     .M                    : Depth      
 CALI      .IN                         : CALI       
 CILD      .MM/M                       : CILD       
 DT        .US/F                       : DT         
 GR        .GAPI                       : GR         
 ILD       .OHMM                       : ILD        
 INV       .OHMM                       : INV        
 LAT       .OHMM                       : LAT        
 LN        .OHMM                       : LN         
 MINV      .OHMM                       : MINV       
 MNOR      .OHMM                       : MNOR       
 NEUT      .NAPI                       : NEUT       
 SN        .OHMM                       : SN         
 SP        .MV                         : SP         
 SPHI      .V/V                        : SPHI       
~A Log data section
# ...
 1699.6700        12.5531      -999.0000        85.5304        34.4307      -999.0000      -999.0000         8.2689         9.2031         6.1713         4.2365       830.7393         7.8836        -8.1828         0.2891 
 1699.8224        12.5416      -999.0000        95.5701        34.5914      -999.0000      -999.0000         8.2946         9.4549         3.3655         5.7540       752.2207         7.6791        -8.5440         0.3580 
 1699.9748        12.5782      -999.0000        98.6715        34.1172      -999.0000      -999.0000         8.3372         9.6915         5.1347         7.1142       865.9780         7.8294        -8.5729         0.3795 
 1700.1272        12.9744      -999.0000       101.8398        33.2210      -999.0000      -999.0000         8.3774         9.8072         6.7171         0.3179      1005.0622         7.9154        -8.4020         0.4013 
 1700.2796        13.9813      -999.0000        99.9037        32.3244      -999.0000      -999.0000         8.4429         9.7945         0.8501         0.6476      1037.0166         7.7874        -8.2424         0.3883 
 1700.4320        13.5374      -999.0000        91.0051        31.4283      -999.0000      -999.0000         8.5101         9.7982         0.6917         0.9508      1059.0034         7.7152        -8.1886         0.3272 
 1700.5844        13.0165      -999.0000        82.1003        30.9519      -999.0000      -999.0000         8.4724         9.7934         0.9717         1.0867      1089.6948         7.6816        -8.2781         0.2661 
 1700.7368        12.8169      -999.0000        77.0538        32.2737      -999.0000      -999.0000         8.5208         9.7252         1.2267         1.5191      1147.6439         7.6308        -7.8794         0.2313 
 1700.8892        13.4757      -999.0000        83.6901        33.7081      -999.0000      -999.0000         8.5604         9.5565         2.3517         3.5774      1206.6252         7.5967        -8.2750         0.2765 
 1701.0416        13.7479      -999.0000        89.5731        35.1431      -999.0000      -999.0000         8.7180         9.3955         4.2120         5.7114      1286.5249         7.6084        -8.2509         0.3169 
 1701.1940        13.7891      -999.0000        96.3439        36.5774      -999.0000      -999.0000         8.7883         9.2353         6.1197         7.8454      1382.1736         7.5457        -7.9569         0.3638 
 1701.3464        13.2459      -999.0000        89.7863        38.0125      -999.0000      -999.0000         8.7336         8.8455         8.0274         6.1347      1420.8954         7.4796        -7.7982         0.3188 
 1701.4988        12.6602      -999.0000        83.0585        39.4148      -999.0000      -999.0000         8.4315         8.5986         1.5001         2.4888      1384.0800         7.4289        -7.7925         0.2726 
 1701.6512        12.3766      -999.0000        98.5382        39.9819      -999.0000      -999.0000         7.9875         8.6945         0.7598         7.8131      1355.1709         7.3874        -7.4753         0.3782 
 1701.8036        12.3340      -999.0000       106.1692        37.9704      -999.0000      -999.0000         7.5594         8.7466        12.3318        13.1375      1322.0503         6.9492        -7.4101         0.4309 
 1701.9560        12.2917      -999.0000        66.7794        37.0445      -999.0000      -999.0000         7.4311         8.7829        16.0683        16.2638      1322.2419         6.4420        -7.7088         0.1612 
 1702.1084        12.3009      -999.0000        68.1041        34.0718      -999.0000      -999.0000         7.9448         8.7569        13.3253        13.1078      1361.3090         5.3095        -7.8100         0.1696 
 1702.2608        12.3974      -999.0000        76.2412        31.8026      -999.0000      -999.0000         7.6185         8.7233        10.1694         9.9519      1400.3447         4.9724        -7.4972         0.2254 
 1702.4132        12.3985      -999.0000        71.2775        29.9591      -999.0000      -999.0000         8.3967         8.6624         7.0134         6.7959      1416.1486         4.8332        -7.7098         0.1916 
 1702.5656        12.4714      -999.0000        73.0429        28.8050      -999.0000      -999.0000         8.7870         8.4343         3.2886         3.0311      1376.5054         4.8586        -8.1305         0.2035 
 1702.7180        12.7387      -999.0000        69.2503        27.8819      -999.0000      -999.0000         9.0747         8.1721         3.8600         3.9076      1336.8622         4.6683        -7.9891         0.1777 
 1702.8704        13.5455      -999.0000        75.6608        27.3040      -999.0000      -999.0000         9.2183         7.8798         4.2209         4.2322      1297.1873         4.6306        -7.9086         0.2214 
 1703.0228        13.6395      -999.0000        67.3530        26.7644      -999.0000      -999.0000         9.2197         7.5856         7.7579         7.9953      1257.5441         5.0052        -7.8209         0.1648 
 1703.1752        13.1492      -999.0000        81.2833        26.3354      -999.0000      -999.0000         8.7975         7.0176        11.5210        11.7584      1217.8691         6.0856        -7.6945         0.2596 
 1703.3276        12.8584      -999.0000        78.4620        27.0856      -999.0000      -999.0000         8.2956         7.0040        15.8401        16.1166      1140.1486         6.1879        -7.4905         0.2409 
 1703.4800        12.5376      -999.0000        65.6472        27.9808      -999.0000      -999.0000         7.5119         7.1339         2.9771         2.0417      1028.9565         6.2387        -7.3733         0.1532 
 1703.6324        12.3194      -999.0000        78.4856        29.2193      -999.0000      -999.0000         6.8756         7.5516         5.6648         5.9091       917.8536         5.8834        -7.2923         0.2405 
 1703.7848        12.2867      -999.0000        99.8789        31.2759      -999.0000      -999.0000         6.4853         7.9275         8.6936         8.8788       825.2078         5.4069        -7.0858         0.3873 
 1703.9372        12.2915      -999.0000        93.8310        33.0797      -999.0000      -999.0000         6.4494         8.1680         7.2348         7.1084       960.3340         5.0861        -7.3443         0.3463 
 1704.0896        12.3113      -999.0000        97.3476        33.3388      -999.0000      -999.0000         6.9457         8.3376         5.4643         5.3379      1095.5686         4.7220        -7.5556         0.3704 
 1704.2420        12.6540      -999.0000       114.5033        32.3841      -999.0000      -999.0000         7.5628         8.3159         0.9542         0.5700      1230.6948         4.6444        -7.8197         0.4884 
 1704.3944        13.1982      -999.0000       108.4819        31.0621      -999.0000      -999.0000         8.1410         8.2184         0.8482         0.5873      1224.0040         4.5397        -8.1128         0.4472 
 1704.5468        13.2285      -999.0000       112.8723        30.0911      -999.0000      -999.0000         8.5799         8.1244         0.9558         0.9524      1129.3989         4.5036        -8.2066         0.4770 
 1704.6992        12.7820      -999.0000       118.0562        29.4815      -999.0000      -999.0000         8.7434         8.0302         2.0778         2.1463      1034.7938         4.6826        -8.3224         0.5126 
 1704.8516        12.4641      -999.0000       100.7671        29.0505      -999.0000      -999.0000         8.7652         7.9344         3.2717         3.3402       940.1129         4.8759        -8.2933         0.3941 
 1705.0040        12.3716      -999.0000        95.1394        30.1265      -999.0000      -999.0000         8.6004         7.8386         4.5973         4.6751       845.4752         5.4144        -8.2443         0.3555 
 1705.1564        12.3861      -999.0000        89.3526        32.8676      -999.0000      -999.0000         8.4571         7.7481         3.8583         3.7901       746.2816         6.2419        -8.4910         0.3159 
