~VERSION INFORMATION
 VERS.                 2.0:   CWLS LOG ASCII STANDARD - VERSION 2.0
 WRAP.                  NO:   SINGLE LINE PER DEPTH STEP
~WELL INFORMATION
#MNEM.UNIT       DATA           DESCRIPTION MNEMONIC
#---------    -------------   --------------------------
 STRT.M         149.0000                      : START DEPTH
 STOP.M         2735.0756                     : STOP DEPTH
 STEP.M         0.1524                        : STEP VALUE
 NULL.          -999.0000                     : NULL VALUE
 SRVC.          PYPOZO                        : Service Company/Logging company
 DATE.          03/07/2025                    : LAS file Creation Date
 WELL    .      CABALLO-1                      : Well Name
 COMP    .      PYPOZO 2.0                    : Company
 FLD     .      UNKNOWN                       : Field
 LOC     .      UNKNOWN                       : Location
 LATI    .      0                             : Latitude/Northing
 LONG    .      0                             : Longitude/Easting
 APDAT   .      0                             : Elevation Above Permanent Datum
~CURVE INFORMATION
#MNEM          UNIT     API CODE   Curve Type Comments
#---------- ---------- ----------  ---------- --------
 DEPTH     .M                    : Depth      
 CALI      .IN                         : CALI       
 CILD      .MM/M                       : CILD       
 DT        .US/F                       : DT         
 GR        .GAPI                       : GR         
 ILD       .OHMM                       : ILD        
 INV       .OHMM                       : INV        
 LAT       .OHMM                       : LAT        
 LN        .OHMM                       : LN         
 MINV      .OHMM                       : MINV       
 MNOR      .OHMM                       : MNOR       
 NEUT      .NAPI                       : NEUT       
 SN        .OHMM                       : SN         
 SP        .MV                         : SP         
 SPHI      .V/V                        : SPHI       
~A Log data section
# ...
  836.9336        13.9999      -999.0000       123.2121      -999.0000      -999.0000      -999.0000         3.8896         3.1222      -999.0000      -999.0000      -999.0000         3.4376       -24.4698         0.4043 
  837.0860        13.8524      -999.0000       119.9247      -999.0000      -999.0000      -999.0000         3.9563         3.1730      -999.0000      -999.0000      -999.0000         3.4441       -24.6828         0.3988 
  837.2384        13.7659      -999.0000       126.1145      -999.0000      -999.0000      -999.0000         3.8673         3.2237      -999.0000      -999.0000      -999.0000         3.4082       -24.7861         0.4088 
  837.3908        13.7831      -999.0000       136.6876      -999.0000      -999.0000      -999.0000         3.7661         3.2744      -999.0000      -999.0000      -999.0000         3.3557       -24.8006         0.4242 
  837.5432        13.8010      -999.0000       141.4024      -999.0000      -999.0000      -999.0000         3.6649         3.3251      -999.0000      -999.0000      -999.0000         3.2873       -24.6771         0.4303 
  837.6956        13.7812      -999.0000       137.5613      -999.0000      -999.0000      -999.0000         3.5637         3.3758      -999.0000      -999.0000      -999.0000         3.2423       -24.6515         0.4254 
  837.8480        13.8305      -999.0000       139.1161      -999.0000      -999.0000      -999.0000         3.4625         3.4265      -999.0000      -999.0000      -999.0000         3.1809       -24.6909         0.4274 
  838.0004        14.0480      -999.0000       142.5600      -999.0000      -999.0000      -999.0000         3.3612         3.4772      -999.0000      -999.0000      -999.0000         3.1072       -24.7680         0.4317 
  838.1528        14.0735      -999.0000       146.0040      -999.0000      -999.0000      -999.0000         3.2967         3.5279      -999.0000      -999.0000      -999.0000         3.0330       -24.9642         0.4359 
  838.3052        13.5648      -999.0000       148.7058      -999.0000      -999.0000      -999.0000         3.2342         3.5787      -999.0000      -999.0000      -999.0000         2.9924       -25.1648         0.4390 
  838.4576        13.3339      -999.0000       147.1442      -999.0000      -999.0000      -999.0000         3.1862         3.6294      -999.0000      -999.0000      -999.0000         2.9531       -25.3169         0.4371 
  838.6100        13.8079      -999.0000       143.2450      -999.0000      -999.0000      -999.0000         3.1379         3.6801      -999.0000      -999.0000      -999.0000         2.9247       -25.3466         0.4326 
  838.7624        14.2753      -999.0000       146.3062      -999.0000      -999.0000      -999.0000         3.0650         3.7300      -999.0000      -999.0000      -999.0000         2.9180       -24.9857         0.4362 
  838.9148        13.7242      -999.0000       148.3925      -999.0000      -999.0000      -999.0000         3.0107         3.7300      -999.0000      -999.0000      -999.0000         2.9180       -24.7761         0.4386 
  839.0672        13.2701      -999.0000       145.9119      -999.0000      -999.0000      -999.0000         2.9347         3.7300      -999.0000      -999.0000      -999.0000         2.9180       -24.6084         0.4357 
  839.2196        13.3738      -999.0000       143.1614      -999.0000      -999.0000      -999.0000         2.8192         3.7300      -999.0000      -999.0000      -999.0000         2.9180       -24.6914         0.4325 
  839.3720        13.3230      -999.0000       141.2951      -999.0000      -999.0000      -999.0000         2.7561         3.7070      -999.0000      -999.0000      -999.0000         2.9143       -24.8382         0.4302 
  839.5244        13.1839      -999.0000       143.6985      -999.0000      -999.0000      -999.0000         2.6868         3.6661      -999.0000      -999.0000      -999.0000         2.8834       -24.9558         0.4331 
  839.6768        13.3858      -999.0000       146.9359      -999.0000      -999.0000      -999.0000         2.6190         3.6252      -999.0000      -999.0000      -999.0000         2.8232       -25.0532         0.4369 
  839.8292        13.6477      -999.0000       147.6255      -999.0000      -999.0000      -999.0000         2.3930         3.5844      -999.0000      -999.0000      -999.0000         2.8043       -25.1643         0.4376 
  839.9816        13.6993      -999.0000       135.5344      -999.0000      -999.0000      -999.0000         2.4541         3.5435      -999.0000      -999.0000      -999.0000         2.7934       -24.9766         0.4223 
  840.1340        13.6887      -999.0000       118.8358      -999.0000      -999.0000      -999.0000         2.5408         3.5027      -999.0000      -999.0000      -999.0000         2.7809       -24.8763         0.3963 
  840.2864        13.8093      -999.0000       106.2060      -999.0000      -999.0000      -999.0000         2.6276         3.4618      -999.0000      -999.0000      -999.0000         2.7546       -24.7057         0.3720 
  840.4388        14.0053      -999.0000       115.0085      -999.0000      -999.0000      -999.0000         2.7144         3.4210      -999.0000      -999.0000      -999.0000         2.7039       -24.4376         0.3891 
  840.5912        13.8784      -999.0000       134.7809      -999.0000      -999.0000      -999.0000         2.8012         3.3801      -999.0000      -999.0000      -999.0000         2.6501       -24.1525         0.4214 
  840.7436        13.5870      -999.0000       145.5221      -999.0000      -999.0000      -999.0000         2.8879         3.3392      -999.0000      -999.0000      -999.0000         2.5886       -23.9259         0.4353 
  840.8960        13.5757      -999.0000       140.9284      -999.0000      -999.0000      -999.0000         2.9747         3.2984      -999.0000      -999.0000      -999.0000         2.5347       -23.7877         0.4297 
  841.0484        14.1266      -999.0000       136.6346      -999.0000      -999.0000      -999.0000         3.0615         3.2616      -999.0000      -999.0000      -999.0000         2.5404       -23.6978         0.4242 
  841.2008        14.5326      -999.0000       135.3142      -999.0000      -999.0000      -999.0000         2.9962         3.2877      -999.0000      -999.0000      -999.0000         2.5713       -23.6488         0.4224 
  841.3532        14.4779      -999.0000       139.2584      -999.0000      -999.0000      -999.0000         2.9149         3.3137      -999.0000      -999.0000      -999.0000         2.6180       -23.7566         0.4276 
  841.5056        14.3860      -999.0000       132.3778      -999.0000      -999.0000      -999.0000         2.8334         3.3398      -999.0000      -999.0000      -999.0000         2.6922       -23.8319         0.4181 
  841.6580        14.3143      -999.0000       122.3953      -999.0000      -999.0000      -999.0000         2.7518         3.3659      -999.0000      -999.0000      -999.0000         2.7792       -23.9088         0.4030 
  841.8104        14.1709      -999.0000       124.5734      -999.0000      -999.0000      -999.0000         2.6703         3.3920      -999.0000      -999.0000      -999.0000         2.8620       -23.9633         0.4066 
  841.9628        13.9954      -999.0000       126.7515      -999.0000      -999.0000      -999.0000         2.6558         3.4181      -999.0000      -999.0000      -999.0000         2.9053       -23.9931         0.4100 
  842.1152        13.8163      -999.0000       128.9294      -999.0000      -999.0000      -999.0000         2.8889         3.4441      -999.0000      -999.0000      -999.0000         2.9472       -24.0982         0.4133 
  842.2676        13.7353      -999.0000       129.7499      -999.0000      -999.0000      -999.0000         3.1428         3.4702      -999.0000      -999.0000      -999.0000         2.9565       -24.3113         0.4145 
  842.4200        13.8098      -999.0000       122.0552      -999.0000      -999.0000      -999.0000         3.3966         3.4963      -999.0000      -999.0000      -999.0000         2.9103       -24.5364         0.4017 
