~VERSION INFORMATION
 VERS.                 2.0:   CWLS LOG ASCII STANDARD - VERSION 2.0
 WRAP.                  NO:   SINGLE LINE PER DEPTH STEP
~WELL INFORMATION
#MNEM.UNIT       DATA           DESCRIPTION MNEMONIC
#---------    -------------   --------------------------
 STRT.M         20.0000                      : START DEPTH
 STOP.M         2909.1992                     : STOP DEPTH
 STEP.M         0.1524                        : STEP VALUE
 NULL.          -999.0000                     : NULL VALUE
 SRVC.          PYPOZO                        : Service Company/Logging company
 DATE.          03/07/2025                    : LAS file Creation Date
 WELL    .      FURBERO-101                    : Well Name
 COMP    .      PYPOZO 2.0                    : Company
 FLD     .      UNKNOWN                       : Field
 LOC     .      UNKNOWN                       : Location
 LATI    .      0                             : Latitude/Northing
 LONG    .      0                             : Longitude/Easting
 APDAT   .      0                             : Elevation Above Permanent Datum
~CURVE INFORMATION
#MNEM          UNIT     API CODE   Curve Type Comments
#---------- ---------- ----------  ---------- --------
 DEPTH     .M                    : Depth      
 GR        .UNIT                       : GR         
 INV       .OHMM                       : INV        
 LAT       .OHMM                       : LAT        
 LIM       .OHMM                       : LIM        
 LN        .OHMM                       : LN         
 MINV      .OHMM                       : MINV       
 MNOR      .OHMM                       : MNOR       
 NEUT      .UNIT                       : NEUT       
 SIM       .OHMM                       : SIM        
 SN        .OHMM                       : SN         
 SP        .MV                         : SP         
~A Log data section
# ...
 2740.0352      -999.0000      -999.0000        12.4538        28.9521        38.2641         6.9887         3.4109      -999.0000      -999.0000        26.4885        -9.1030 
 2740.1876      -999.0000      -999.0000        12.3797        29.3705        37.7419         7.0540         3.4810      -999.0000      -999.0000        26.5997        -9.0282 
 2740.3400      -999.0000      -999.0000        12.3797        29.3705        37.7419         7.0540         3.4810      -999.0000      -999.0000        26.5997        -9.0282 
 2740.4924      -999.0000      -999.0000        12.4376        29.9249        36.8186         6.9387         3.5409      -999.0000      -999.0000        26.8753        -9.0048 
 2740.6448      -999.0000      -999.0000        12.4956        30.4792        35.8953         6.8234         3.6008      -999.0000      -999.0000        27.1508        -8.9814 
 2740.7972      -999.0000      -999.0000        12.5535        31.0336        34.9720         6.7081         3.6607      -999.0000      -999.0000        27.4264        -8.9580 
 2740.9496      -999.0000      -999.0000        12.6115        31.5880        34.0487         6.5928         3.7206      -999.0000      -999.0000        27.7019        -8.9346 
 2741.1020      -999.0000      -999.0000        12.6694        32.1424        33.1254         6.4775         3.7805      -999.0000      -999.0000        27.9775        -8.9112 
 2741.2544      -999.0000      -999.0000        12.6694        32.1424        33.1254         6.4775         3.7805      -999.0000      -999.0000        27.9775        -8.9112 
 2741.4068      -999.0000      -999.0000        12.8116        31.8182        33.5299         6.2877         3.6739      -999.0000      -999.0000        27.9551        -8.9635 
 2741.5592      -999.0000      -999.0000        12.9539        31.4940        33.9343         6.0978         3.5674      -999.0000      -999.0000        27.9327        -9.0158 
 2741.7116      -999.0000      -999.0000        13.0961        31.1698        34.3388         5.9080         3.4608      -999.0000      -999.0000        27.9103        -9.0681 
 2741.8640      -999.0000      -999.0000        13.2383        30.8456        34.7433         5.7181         3.3542      -999.0000      -999.0000        27.8880        -9.1204 
 2742.0164      -999.0000      -999.0000        13.3805        30.5214        35.1478         5.5283         3.2476      -999.0000      -999.0000        27.8656        -9.1727 
 2742.1688      -999.0000      -999.0000        13.5227        30.1972        35.5523         5.3384         3.1411      -999.0000      -999.0000        27.8432        -9.2250 
 2742.3212      -999.0000      -999.0000        13.5227        30.1972        35.5523         5.3384         3.1411      -999.0000      -999.0000        27.8432        -9.2250 
 2742.4736      -999.0000      -999.0000        13.7632        30.3989        36.3038         5.1086         3.1686      -999.0000      -999.0000        28.0431        -9.3557 
 2742.6260      -999.0000      -999.0000        14.0036        30.6006        37.0553         4.8789         3.1961      -999.0000      -999.0000        28.2430        -9.4864 
 2742.7784      -999.0000      -999.0000        14.2440        30.8023        37.8068         4.6491         3.2236      -999.0000      -999.0000        28.4429        -9.6172 
 2742.9308      -999.0000      -999.0000        14.4844        31.0040        38.5583         4.4193         3.2511      -999.0000      -999.0000        28.6428        -9.7479 
 2743.0832      -999.0000      -999.0000        14.7248        31.2058        39.3098         4.1896         3.2787      -999.0000      -999.0000        28.8427        -9.8786 
 2743.2356      -999.0000      -999.0000        14.7248        31.2058        39.3098         4.1896         3.2787      -999.0000      -999.0000        28.8427        -9.8786 
 2743.3880      -999.0000      -999.0000        14.7350        31.4758        39.5103         4.0573         3.1587      -999.0000      -999.0000        28.8183        -9.9201 
 2743.5404      -999.0000      -999.0000        14.7451        31.7458        39.7107         3.9250         3.0388      -999.0000      -999.0000        28.7939        -9.9615 
 2743.6928      -999.0000      -999.0000        14.7552        32.0158        39.9112         3.7927         2.9188      -999.0000      -999.0000        28.7695       -10.0030 
 2743.8452      -999.0000      -999.0000        14.7654        32.2858        40.1117         3.6604         2.7989      -999.0000      -999.0000        28.7451       -10.0445 
 2743.9976      -999.0000      -999.0000        14.7755        32.5558        40.3121         3.5281         2.6789      -999.0000      -999.0000        28.7207       -10.0860 
 2744.1500      -999.0000      -999.0000        14.7856        32.8258        40.5126         3.3958         2.5590      -999.0000      -999.0000        28.6963       -10.1274 
 2744.3024      -999.0000      -999.0000        14.7856        32.8258        40.5126         3.3958         2.5590      -999.0000      -999.0000        28.6963       -10.1274 
 2744.4548      -999.0000      -999.0000        15.0562        32.7207        40.6165         4.1669         2.8627      -999.0000      -999.0000        28.2494       -10.1475 
 2744.6072      -999.0000      -999.0000        15.3268        32.6157        40.7204         4.9379         3.1664      -999.0000      -999.0000        27.8024       -10.1676 
 2744.7596      -999.0000      -999.0000        15.5973        32.5107        40.8243         5.7090         3.4702      -999.0000      -999.0000        27.3554       -10.1877 
 2744.9120      -999.0000      -999.0000        15.8679        32.4056        40.9282         6.4801         3.7739      -999.0000      -999.0000        26.9084       -10.2078 
 2745.0644      -999.0000      -999.0000        16.1385        32.3006        41.0321         7.2512         4.0776      -999.0000      -999.0000        26.4615       -10.2279 
 2745.2168      -999.0000      -999.0000        16.1385        32.3006        41.0321         7.2512         4.0776      -999.0000      -999.0000        26.4615       -10.2279 
 2745.3692      -999.0000      -999.0000        16.2807        30.5647        40.4245         7.2930         4.1149      -999.0000      -999.0000        25.4473       -10.3092 
 2745.5216      -999.0000      -999.0000        16.4228        28.8288        39.8169         7.3348         4.1521      -999.0000      -999.0000        24.4332       -10.3904 
 2745.6740      -999.0000      -999.0000        16.5650        27.0929        39.2093         7.3766         4.1893      -999.0000      -999.0000        23.4191       -10.4717 
 2745.8264      -999.0000      -999.0000        16.7072        25.3570        38.6017         7.4184         4.2266      -999.0000      -999.0000        22.4049       -10.5529 
 2745.9788      -999.0000      -999.0000        16.8493        23.6211        37.9940         7.4602         4.2638      -999.0000      -999.0000        21.3908       -10.6341 
 2746.1312      -999.0000      -999.0000        16.9915        21.8852        37.3864         7.5020         4.3010      -999.0000      -999.0000        20.3767       -10.7154 
 2746.2836      -999.0000      -999.0000        16.9915        21.8852        37.3864         7.5020         4.3010      -999.0000      -999.0000        20.3767       -10.7154 
 2746.4360      -999.0000      -999.0000        16.7770        22.5506        36.3050         8.7720         4.2684      -999.0000      -999.0000        21.1107       -10.8662 
 2746.5884      -999.0000      -999.0000        16.5625        23.2160        35.2236        10.0421         4.2358      -999.0000      -999.0000        21.8447       -11.0170 
 2746.7408      -999.0000      -999.0000        16.3480        23.8814        34.1422        11.3121         4.2032      -999.0000      -999.0000        22.5788       -11.1678 
 2746.8932      -999.0000      -999.0000        16.1335        24.5468        33.0609        12.5821         4.1706      -999.0000      -999.0000        23.3128       -11.3186 
