~VERSION INFORMATION
 VERS.                 2.0:   CWLS LOG ASCII STANDARD - VERSION 2.0
 WRAP.                  NO:   SINGLE LINE PER DEPTH STEP
~WELL INFORMATION
#MNEM.UNIT       DATA           DESCRIPTION MNEMONIC
#---------    -------------   --------------------------
 STRT.M         20.0000                      : START DEPTH
 STOP.M         2909.1992                     : STOP DEPTH
 STEP.M         0.1524                        : STEP VALUE
 NULL.          -999.0000                     : NULL VALUE
 SRVC.          PYPOZO                        : Service Company/Logging company
 DATE.          03/07/2025                    : LAS file Creation Date
 WELL    .      FURBERO-101                    : Well Name
 COMP    .      PYPOZO 2.0                    : Company
 FLD     .      UNKNOWN                       : Field
 LOC     .      UNKNOWN                       : Location
 LATI    .      0                             : Latitude/Northing
 LONG    .      0                             : Longitude/Easting
 APDAT   .      0                             : Elevation Above Permanent Datum
~CURVE INFORMATION
#MNEM          UNIT     API CODE   Curve Type Comments
#---------- ---------- ----------  ---------- --------
 DEPTH     .M                    : Depth      
 GR        .UNIT                       : GR         
 INV       .OHMM                       : INV        
 LAT       .OHMM                       : LAT        
 LIM       .OHMM                       : LIM        
 LN        .OHMM                       : LN         
 MINV      .OHMM                       : MINV       
 MNOR      .OHMM                       : MNOR       
 NEUT      .UNIT                       : NEUT       
 SIM       .OHMM                       : SIM        
 SN        .OHMM                       : SN         
 SP        .MV                         : SP         
~A Log data section
# ...
  819.1856       168.0013      -999.0000         2.4325         1.6319         1.5358      -999.0000      -999.0000        33.5584      -999.0000         2.3179       -67.5065 
  819.3380       165.5738      -999.0000         2.4323         1.8421         1.5359      -999.0000      -999.0000        31.1155      -999.0000         2.4145       -69.2060 
  819.4904       163.1463      -999.0000         2.4321         1.8419         1.5360      -999.0000      -999.0000        28.6726      -999.0000         2.4137       -69.3391 
  819.6428       160.7187      -999.0000         2.4318         1.8418         1.5360      -999.0000      -999.0000        26.2297      -999.0000         2.3950       -69.4722 
  819.7952       158.2912      -999.0000         2.4316         1.8417         1.5361      -999.0000      -999.0000        23.7869      -999.0000         2.3615       -69.4702 
  819.9476       155.8637      -999.0000         2.4313         1.8416         1.5362      -999.0000      -999.0000        21.3440      -999.0000         2.3441       -69.6032 
  820.1000       155.8637      -999.0000         2.4311         1.6042         1.5363      -999.0000      -999.0000        21.3440      -999.0000         2.2149       -67.9064 
  820.2524       159.2803      -999.0000         2.4308         1.6041         1.5364      -999.0000      -999.0000        21.1534      -999.0000         2.2141       -67.9054 
  820.4048       162.6970      -999.0000         2.4306         1.8412         1.5365      -999.0000      -999.0000        20.9629      -999.0000         2.3081       -69.4620 
  820.5572       166.1137      -999.0000         2.4303         1.8411         1.5366      -999.0000      -999.0000        20.7723      -999.0000         2.3073       -69.4599 
  820.7096       169.5304      -999.0000         2.4301         1.8409         1.5367      -999.0000      -999.0000        20.5818      -999.0000         2.3181       -69.4579 
  820.8620       172.9470      -999.0000         2.4298         1.8408         1.5367      -999.0000      -999.0000        20.3913      -999.0000         2.3396       -69.4558 
  821.0144       176.3637      -999.0000         2.4296         1.6874         1.5368      -999.0000      -999.0000        20.2007      -999.0000         2.2858       -68.2533 
  821.1668       176.3637      -999.0000         2.4293         1.6873         1.5369      -999.0000      -999.0000        20.2007      -999.0000         2.2851       -68.2523 
  821.3192       173.6272      -999.0000         2.4291         1.8404         1.5370      -999.0000      -999.0000        22.4777      -999.0000         2.3371       -69.4497 
  821.4716       170.8908      -999.0000         2.4288         1.8403         1.5371      -999.0000      -999.0000        24.7546      -999.0000         2.3387       -69.3808 
  821.6240       168.1543      -999.0000         2.4286         1.8402         1.5372      -999.0000      -999.0000        27.0316      -999.0000         2.3601       -69.1753 
  821.7764       165.4178      -999.0000         2.4284         1.8401         1.5373      -999.0000      -999.0000        29.3085      -999.0000         2.3686       -69.0381 
  821.9288       162.6813      -999.0000         2.4281         1.8399         1.5374      -999.0000      -999.0000        31.5855      -999.0000         2.4015       -68.9009 
  822.0812       162.6813      -999.0000         2.4279         1.5817         1.5374      -999.0000      -999.0000        31.5855      -999.0000         2.2956       -67.5090 
  822.2336       163.1456      -999.0000         2.4276         1.5817         1.5375      -999.0000      -999.0000        30.2555      -999.0000         2.2948       -67.6431 
  822.3860       163.6099      -999.0000         2.4274         1.8396         1.5376      -999.0000      -999.0000        28.9254      -999.0000         2.3992       -69.0299 
  822.5384       164.0742      -999.0000         2.4271         1.8394         1.5377      -999.0000      -999.0000        27.5954      -999.0000         2.3984       -68.8927 
  822.6908       164.5385      -999.0000         2.4269         1.8393         1.5378      -999.0000      -999.0000        26.2654      -999.0000         2.3976       -68.8906 
  822.8432       165.0028      -999.0000         2.4266         1.8392         1.5379      -999.0000      -999.0000        24.9353      -999.0000         2.3968       -69.0237 
  822.9956       165.4671      -999.0000         2.4264         1.4474         1.5380      -999.0000      -999.0000        23.6053      -999.0000         2.2755       -67.3945 
  823.1480       165.4671      -999.0000         2.4261         1.4473         1.5381      -999.0000      -999.0000        23.6053      -999.0000         2.2746       -67.3935 
  823.3004       162.8058      -999.0000         2.4259         1.8388         1.5381      -999.0000      -999.0000        23.0273      -999.0000         2.3945       -69.0176 
  823.4528       160.1444      -999.0000         2.4256         1.8387         1.5382      -999.0000      -999.0000        22.4494      -999.0000         2.3937       -69.0155 
  823.6052       157.4830      -999.0000         2.4254         1.8386         1.5383      -999.0000      -999.0000        21.8714      -999.0000         2.3929       -69.0135 
  823.7576       154.8216      -999.0000         2.4251         1.8384         1.5384      -999.0000      -999.0000        21.2935      -999.0000         2.3921       -68.8763 
  823.9100       152.1602      -999.0000         2.4249         1.8383         1.5385      -999.0000      -999.0000        20.7155      -999.0000         2.3914       -68.8742 
  824.0624       152.1602      -999.0000         2.4246         1.6467         1.5386      -999.0000      -999.0000        20.7155      -999.0000         2.3165       -67.3844 
  824.2148       152.8849      -999.0000         2.4244         1.6466         1.5387      -999.0000      -999.0000        22.0331      -999.0000         2.3157       -67.3834 
  824.3672       153.6096      -999.0000         2.4242         1.8379         1.5388      -999.0000      -999.0000        23.3507      -999.0000         2.4228       -68.8708 
  824.5196       154.3342      -999.0000         2.4239         1.8378         1.5389      -999.0000      -999.0000        24.6682      -999.0000         2.4558       -69.0011 
  824.6720       155.0589      -999.0000         2.4237         1.8377         1.5389      -999.0000      -999.0000        25.9858      -999.0000         2.4549       -69.1342 
  824.8244       155.7836      -999.0000         2.4234         1.8375         1.5390      -999.0000      -999.0000        27.3034      -999.0000         2.4879       -69.1321 
  824.9768       156.5083      -999.0000         2.4232         1.5293         1.5391      -999.0000      -999.0000        28.6210      -999.0000         2.3946       -67.7505 
  825.1292       156.5083      -999.0000         2.4229         1.5292         1.5392      -999.0000      -999.0000        28.6210      -999.0000         2.3939       -67.7495 
  825.2816       156.8604      -999.0000         2.4227         1.8372         1.5393      -999.0000      -999.0000        28.6350      -999.0000         2.4856       -69.2611 
  825.4340       157.2125      -999.0000         2.4224         1.8370         1.5394      -999.0000      -999.0000        28.6491      -999.0000         2.4849       -69.1239 
  825.5864       157.5646      -999.0000         2.4222         1.8369         1.5395      -999.0000      -999.0000        28.6632      -999.0000         2.4841       -69.1219 
  825.7388       157.9167      -999.0000         2.4219         1.8368         1.5396      -999.0000      -999.0000        28.6773      -999.0000         2.4833       -69.1198 
  825.8912       158.2688      -999.0000         2.4217         1.8367         1.5396      -999.0000      -999.0000        28.6914      -999.0000         2.4826       -69.1178 
  826.0436       158.6209      -999.0000         2.4214         1.5479         1.5397      -999.0000      -999.0000        28.7054      -999.0000         2.4079       -67.4916 
