~VERSION INFORMATION
 VERS.                 2.0:   CWLS LOG ASCII STANDARD - VERSION 2.0
 WRAP.                  NO:   SINGLE LINE PER DEPTH STEP
~WELL INFORMATION
#MNEM.UNIT       DATA           DESCRIPTION MNEMONIC
#---------    -------------   --------------------------
 STRT.M         20.0000                      : START DEPTH
 STOP.M         2909.1992                     : STOP DEPTH
 STEP.M         0.1524                        : STEP VALUE
 NULL.          -999.0000                     : NULL VALUE
 SRVC.          PYPOZO                        : Service Company/Logging company
 DATE.          03/07/2025                    : LAS file Creation Date
 WELL    .      FURBERO-101                    : Well Name
 COMP    .      PYPOZO 2.0                    : Company
 FLD     .      UNKNOWN                       : Field
 LOC     .      UNKNOWN                       : Location
 LATI    .      0                             : Latitude/Northing
 LONG    .      0                             : Longitude/Easting
 APDAT   .      0                             : Elevation Above Permanent Datum
~CURVE INFORMATION
#MNEM          UNIT     API CODE   Curve Type Comments
#---------- ---------- ----------  ---------- --------
 DEPTH     .M                    : Depth      
 GR        .UNIT                       : GR         
 INV       .OHMM                       : INV        
 LAT       .OHMM                       : LAT        
 LIM       .OHMM                       : LIM        
 LN        .OHMM                       : LN         
 MINV      .OHMM                       : MINV       
 MNOR      .OHMM                       : MNOR       
 NEUT      .UNIT                       : NEUT       
 SIM       .OHMM                       : SIM        
 SN        .OHMM                       : SN         
 SP        .MV                         : SP         
~A Log data section
# ...
  657.9464       123.5937      -999.0000         2.6938         1.9746         1.4427      -999.0000      -999.0000        75.6056      -999.0000       257.6772       -98.1436 
  658.0988       123.5937      -999.0000         2.6935        36.8046         1.4428      -999.0000      -999.0000        75.6056      -999.0000       375.6131      -121.1182 
  658.2512       122.7858      -999.0000         2.6933        36.8045         1.4429      -999.0000      -999.0000        73.2375      -999.0000       375.6131      -121.6327 
  658.4036       121.9780      -999.0000         2.6930         1.9742         1.4429      -999.0000      -999.0000        70.8694      -999.0000       257.6774       -97.9881 
  658.5560       121.1701      -999.0000         2.6928         1.9741         1.4430      -999.0000      -999.0000        68.5013      -999.0000       257.6774       -97.0513 
  658.7084       120.3622      -999.0000         2.6926         1.9740         1.4431      -999.0000      -999.0000        66.1332      -999.0000       257.6775       -98.5908 
  658.8608       119.5543      -999.0000         2.6923         1.9739         1.4432      -999.0000      -999.0000        63.7651      -999.0000       257.6776       -99.1103 
  659.0132       118.7465      -999.0000         2.6921        38.1240         1.4433      -999.0000      -999.0000        61.3970      -999.0000       374.2436      -121.7802 
  659.1656       118.7465      -999.0000         2.6918        38.1239         1.4434      -999.0000      -999.0000        61.3970      -999.0000       374.2436      -121.9372 
  659.3180       118.8461      -999.0000         2.6916         1.9735         1.4435      -999.0000      -999.0000        64.9802      -999.0000       257.6777       -99.1846 
  659.4704       118.9458      -999.0000         2.6913         1.9734         1.4436      -999.0000      -999.0000        68.5635      -999.0000       257.8304       -98.6187 
  659.6228       119.0455      -999.0000         2.6911         1.9732         1.4437      -999.0000      -999.0000        72.1468      -999.0000       258.1094       -98.0943 
  659.7752       119.1451      -999.0000         2.6908         1.9731         1.4437      -999.0000      -999.0000        75.7300      -999.0000       258.3884       -97.8194 
  659.9276       119.2448      -999.0000         2.6906         1.9730         1.4438      -999.0000      -999.0000        79.3133      -999.0000       258.6675       -97.4094 
  660.0800       119.2448      -999.0000         2.6903        42.5024         1.4439      -999.0000      -999.0000        79.3133      -999.0000       373.8980      -118.3047 
  660.2324       117.7225      -999.0000         2.6901        42.5024         1.4440      -999.0000      -999.0000        80.2376      -999.0000       374.1770      -119.2471 
  660.3848       116.2002      -999.0000         2.6898         1.9726         1.4441      -999.0000      -999.0000        81.1620      -999.0000       259.5046       -96.7200 
  660.5372       114.6779      -999.0000         2.6896         1.9725         1.4442      -999.0000      -999.0000        82.0863      -999.0000       259.7835       -95.9046 
  660.6896       113.1556      -999.0000         2.6893         1.9724         1.4443      -999.0000      -999.0000        83.0106      -999.0000       260.0626       -96.1703 
  660.8420       111.6333      -999.0000         2.6891         1.9722         1.4444      -999.0000      -999.0000        83.9350      -999.0000       260.3416       -96.0100 
  660.9944       110.1109      -999.0000         2.6888        49.8678         1.4444      -999.0000      -999.0000        84.8593      -999.0000       373.1668      -118.4753 
  661.1468       110.1109      -999.0000         2.6886        49.8677         1.4445      -999.0000      -999.0000        84.8593      -999.0000       373.4458      -118.3366 
  661.2992       109.8155      -999.0000         2.6884         1.9719         1.4446      -999.0000      -999.0000        83.2290      -999.0000       261.1787       -96.1845 
  661.4516       109.5200      -999.0000         2.6881         1.9717         1.4447      -999.0000      -999.0000        81.5988      -999.0000       261.4577       -97.3354 
  661.6040       109.2245      -999.0000         2.6879         1.9716         1.4448      -999.0000      -999.0000        79.9685      -999.0000       261.7368       -98.0359 
  661.7564       108.9290      -999.0000         2.6876         1.9715         1.4449      -999.0000      -999.0000        78.3383      -999.0000       262.0158       -97.8977 
  661.9088       108.6335      -999.0000         2.6874         1.9714         1.4450      -999.0000      -999.0000        76.7080      -999.0000       262.2948       -96.6559 
  662.0612       108.6335      -999.0000         2.6871        56.1758         1.4451      -999.0000      -999.0000        76.7080      -999.0000       373.1762      -117.9904 
  662.2136       107.5018      -999.0000         2.6869        56.1757         1.4451      -999.0000      -999.0000        77.3951      -999.0000       373.4553      -118.2787 
  662.3660       106.3701      -999.0000         2.6866         1.9710         1.4452      -999.0000      -999.0000        78.0823      -999.0000       263.1319       -96.2594 
  662.5184       105.2384      -999.0000         2.6864         1.9709         1.4453      -999.0000      -999.0000        78.7694      -999.0000       263.4109       -96.5218 
  662.6708       104.1067      -999.0000         2.6861         1.9707         1.4454      -999.0000      -999.0000        79.4565      -999.0000       263.6899       -96.9226 
  662.8232       102.9750      -999.0000         2.6859         1.9706         1.4455      -999.0000      -999.0000        80.1436      -999.0000       263.9690       -96.7829 
  662.9756       101.8433      -999.0000         2.6856        60.7590         1.4456      -999.0000      -999.0000        80.8308      -999.0000       372.9822      -118.4708 
  663.1280       101.8433      -999.0000         2.6854        60.7589         1.4457      -999.0000      -999.0000        80.8308      -999.0000       373.2612      -118.3320 
  663.2804       103.5112      -999.0000         2.6851         1.9702         1.4458      -999.0000      -999.0000        83.0458      -999.0000       264.8061       -96.0934 
  663.4328       105.1790      -999.0000         2.6849         1.9701         1.4459      -999.0000      -999.0000        85.2609      -999.0000       265.0851       -96.0888 
  663.5852       106.8469      -999.0000         2.6847         1.9700         1.4459      -999.0000      -999.0000        87.4759      -999.0000       265.3641       -96.3770 
  663.7376       108.5147      -999.0000         2.6844         1.9698         1.4460      -999.0000      -999.0000        89.6909      -999.0000       265.6432       -96.8979 
  663.8900       110.1826      -999.0000         2.6842         1.9697         1.4461      -999.0000      -999.0000        91.9060      -999.0000       265.9222       -97.6258 
  664.0424       111.8504      -999.0000         2.6839        62.7297         1.4462      -999.0000      -999.0000        94.1210      -999.0000       373.4466      -120.3588 
  664.1948       111.8504      -999.0000         2.6837        62.7297         1.4463      -999.0000      -999.0000        94.1210      -999.0000       373.7257      -120.3553 
  664.3472       115.4287      -999.0000         2.6834         1.9693         1.4464      -999.0000      -999.0000        99.6938      -999.0000       266.7593       -97.5490 
  664.4996       119.0069      -999.0000         2.6832         1.9692         1.4465      -999.0000      -999.0000       105.2665      -999.0000       267.1459       -97.5103 
  664.6520       122.5852      -999.0000         2.6829         1.9691         1.4466      -999.0000      -999.0000       110.8393      -999.0000       267.8962       -97.2169 
  664.8044       126.1634      -999.0000         2.6827         1.9690         1.4466      -999.0000      -999.0000       116.4120      -999.0000       268.6467       -96.9945 
