~VERSION INFORMATION
 VERS.                 2.0:   CWLS LOG ASCII STANDARD - VERSION 2.0
 WRAP.                  NO:   SINGLE LINE PER DEPTH STEP
~WELL INFORMATION
#MNEM.UNIT       DATA           DESCRIPTION MNEMONIC
#---------    -------------   --------------------------
 STRT.M         20.0000                      : START DEPTH
 STOP.M         2909.1992                     : STOP DEPTH
 STEP.M         0.1524                        : STEP VALUE
 NULL.          -999.0000                     : NULL VALUE
 SRVC.          PYPOZO                        : Service Company/Logging company
 DATE.          03/07/2025                    : LAS file Creation Date
 WELL    .      FURBERO-101                    : Well Name
 COMP    .      PYPOZO 2.0                    : Company
 FLD     .      UNKNOWN                       : Field
 LOC     .      UNKNOWN                       : Location
 LATI    .      0                             : Latitude/Northing
 LONG    .      0                             : Longitude/Easting
 APDAT   .      0                             : Elevation Above Permanent Datum
~CURVE INFORMATION
#MNEM          UNIT     API CODE   Curve Type Comments
#---------- ---------- ----------  ---------- --------
 DEPTH     .M                    : Depth      
 GR        .UNIT                       : GR         
 INV       .OHMM                       : INV        
 LAT       .OHMM                       : LAT        
 LIM       .OHMM                       : LIM        
 LN        .OHMM                       : LN         
 MINV      .OHMM                       : MINV       
 MNOR      .OHMM                       : MNOR       
 NEUT      .UNIT                       : NEUT       
 SIM       .OHMM                       : SIM        
 SN        .OHMM                       : SN         
 SP        .MV                         : SP         
~A Log data section
# ...
  980.4248       149.2218      -999.0000         2.1713         1.7098         1.6289      -999.0000      -999.0000        43.8825      -999.0000         3.0662       -65.3271 
  980.5772       145.6427      -999.0000         2.1711         1.7096         1.6290      -999.0000      -999.0000        41.2621      -999.0000         3.0658       -65.3226 
  980.7296       142.0635      -999.0000         2.1708         1.7095         1.6290      -999.0000      -999.0000        38.6417      -999.0000         3.0317       -65.3185 
  980.8820       138.4844      -999.0000         2.1706         1.7094         1.6291      -999.0000      -999.0000        36.0213      -999.0000         3.0314       -65.3140 
  981.0344       134.9053      -999.0000         2.1703         2.5612         1.6292      -999.0000      -999.0000        33.4009      -999.0000         3.2040       -64.4293 
  981.1868       134.9053      -999.0000         2.1701         2.5612         1.6293      -999.0000      -999.0000        33.4009      -999.0000         3.2036       -64.4257 
  981.3392       134.9739      -999.0000         2.1698         1.7090         1.6294      -999.0000      -999.0000        34.7965      -999.0000         2.9629       -65.0301 
  981.4916       135.0425      -999.0000         2.1696         1.7089         1.6295      -999.0000      -999.0000        36.1922      -999.0000         2.9626       -65.0256 
  981.6440       135.1111      -999.0000         2.1693         1.7088         1.6296      -999.0000      -999.0000        37.5878      -999.0000         2.9623       -65.0211 
  981.7964       135.1797      -999.0000         2.1691         1.7086         1.6297      -999.0000      -999.0000        38.9835      -999.0000         2.9795       -65.0166 
  981.9488       135.2483      -999.0000         2.1688         1.7085         1.6297      -999.0000      -999.0000        40.3791      -999.0000         2.9953       -64.8769 
  982.1012       135.2483      -999.0000         2.1686         2.3896         1.6298      -999.0000      -999.0000        40.3791      -999.0000         3.1385       -64.2012 
  982.2536       139.3646      -999.0000         2.1683         2.3896         1.6299      -999.0000      -999.0000        38.7740      -999.0000         3.1382       -64.1972 
  982.4060       143.4810      -999.0000         2.1681         1.7081         1.6300      -999.0000      -999.0000        37.1688      -999.0000         2.9942       -65.1339 
  982.5584       147.5973      -999.0000         2.1679         1.7080         1.6301      -999.0000      -999.0000        35.5636      -999.0000         2.9938       -65.1291 
  982.7108       151.7137      -999.0000         2.1676         1.7079         1.6302      -999.0000      -999.0000        33.9585      -999.0000         3.0272       -65.1246 
  982.8632       155.8300      -999.0000         2.1674         1.7078         1.6303      -999.0000      -999.0000        32.3533      -999.0000         3.0268       -65.2554 
  983.0156       159.9464      -999.0000         2.1671         2.3251         1.6304      -999.0000      -999.0000        30.7482      -999.0000         3.1456       -64.4841 
  983.1680       159.9464      -999.0000         2.1669         2.3250         1.6304      -999.0000      -999.0000        30.7482      -999.0000         3.1452       -64.6158 
  983.3204       155.7996      -999.0000         2.1666         1.7074         1.6305      -999.0000      -999.0000        28.4760      -999.0000         3.0258       -65.5120 
  983.4728       151.6529      -999.0000         2.1664         1.7073         1.6306      -999.0000      -999.0000        26.2039      -999.0000         3.0208       -65.5074 
  983.6252       147.5062      -999.0000         2.1661         1.7071         1.6307      -999.0000      -999.0000        23.9317      -999.0000         2.9913       -65.6380 
  983.7776       143.3595      -999.0000         2.1659         1.7070         1.6308      -999.0000      -999.0000        21.6596      -999.0000         2.9910       -65.6334 
  983.9300       139.2127      -999.0000         2.1656         1.7069         1.6309      -999.0000      -999.0000        19.3874      -999.0000         2.9896       -65.4937 
  984.0824       139.2127      -999.0000         2.1654         2.1451         1.6310      -999.0000      -999.0000        19.3874      -999.0000         3.0524       -64.4953 
  984.2348       139.6272      -999.0000         2.1651         2.1450         1.6311      -999.0000      -999.0000        21.2563      -999.0000         3.0183       -64.3566 
  984.3872       140.0417      -999.0000         2.1649         1.7065         1.6312      -999.0000      -999.0000        23.1252      -999.0000         2.9221       -65.1867 
  984.5396       140.4562      -999.0000         2.1646         1.7064         1.6312      -999.0000      -999.0000        24.9941      -999.0000         2.8881       -65.0763 
  984.6920       140.8707      -999.0000         2.1644         1.7062         1.6313      -999.0000      -999.0000        26.8630      -999.0000         2.8877       -64.9660 
  984.8444       141.2851      -999.0000         2.1642         1.7061         1.6314      -999.0000      -999.0000        28.7319      -999.0000         2.8536       -64.8557 
  984.9968       141.6996      -999.0000         2.1639         2.2684         1.6315      -999.0000      -999.0000        30.6008      -999.0000         2.9657       -63.9007 
  985.1492       141.6996      -999.0000         2.1637         2.2684         1.6316      -999.0000      -999.0000        30.6008      -999.0000         2.9653       -63.7914 
  985.3016       140.3687      -999.0000         2.1634         1.7057         1.6317      -999.0000      -999.0000        30.2010      -999.0000         2.8526       -64.5247 
  985.4540       139.0378      -999.0000         2.1632         1.7056         1.6318      -999.0000      -999.0000        29.8013      -999.0000         2.8522       -64.4660 
  985.6064       137.7069      -999.0000         2.1629         1.7055         1.6319      -999.0000      -999.0000        29.4016      -999.0000         2.8519       -64.5258 
  985.7588       136.3761      -999.0000         2.1627         1.7054         1.6319      -999.0000      -999.0000        29.0018      -999.0000         2.8515       -64.5856 
  985.9112       135.0452      -999.0000         2.1624         1.7052         1.6320      -999.0000      -999.0000        28.6021      -999.0000         2.8512       -64.6454 
  986.0636       135.0452      -999.0000         2.1622         2.3472         1.6321      -999.0000      -999.0000        28.6021      -999.0000         2.9475       -63.9963 
  986.2160       137.1042      -999.0000         2.1619         2.3471         1.6322      -999.0000      -999.0000        29.1777      -999.0000         2.9471       -64.0572 
  986.3684       139.1633      -999.0000         2.1617         1.7049         1.6323      -999.0000      -999.0000        29.7532      -999.0000         2.8501       -64.8249 
  986.5208       141.2223      -999.0000         2.1614         1.7047         1.6324      -999.0000      -999.0000        30.3288      -999.0000         2.8498       -64.8847 
  986.6732       143.2814      -999.0000         2.1612         1.7046         1.6325      -999.0000      -999.0000        30.9044      -999.0000         2.8494       -64.9445 
  986.8256       145.3405      -999.0000         2.1609         1.7045         1.6326      -999.0000      -999.0000        31.4799      -999.0000         2.8828       -65.0043 
  986.9780       147.3995      -999.0000         2.1607         2.0409         1.6326      -999.0000      -999.0000        32.0555      -999.0000         2.9444       -64.2791 
  987.1304       147.3995      -999.0000         2.1604         2.0408         1.6327      -999.0000      -999.0000        32.0555      -999.0000         2.9666       -64.3399 
  987.2828       148.7532      -999.0000         2.1602         1.7041         1.6328      -999.0000      -999.0000        33.0872      -999.0000         2.9491       -65.1512 
