~VERSION INFORMATION
 VERS.                 2.0:   CWLS LOG ASCII STANDARD - VERSION 2.0
 WRAP.                  NO:   SINGLE LINE PER DEPTH STEP
~WELL INFORMATION
#MNEM.UNIT       DATA           DESCRIPTION MNEMONIC
#---------    -------------   --------------------------
 STRT.M         20.0000                      : START DEPTH
 STOP.M         2909.1992                     : STOP DEPTH
 STEP.M         0.1524                        : STEP VALUE
 NULL.          -999.0000                     : NULL VALUE
 SRVC.          PYPOZO                        : Service Company/Logging company
 DATE.          03/07/2025                    : LAS file Creation Date
 WELL    .      FURBERO-101                    : Well Name
 COMP    .      PYPOZO 2.0                    : Company
 FLD     .      UNKNOWN                       : Field
 LOC     .      UNKNOWN                       : Location
 LATI    .      0                             : Latitude/Northing
 LONG    .      0                             : Longitude/Easting
 APDAT   .      0                             : Elevation Above Permanent Datum
~CURVE INFORMATION
#MNEM          UNIT     API CODE   Curve Type Comments
#---------- ---------- ----------  ---------- --------
 DEPTH     .M                    : Depth      
 GR        .UNIT                       : GR         
 INV       .OHMM                       : INV        
 LAT       .OHMM                       : LAT        
 LIM       .OHMM                       : LIM        
 LN        .OHMM                       : LN         
 MINV      .OHMM                       : MINV       
 MNOR      .OHMM                       : MNOR       
 NEUT      .UNIT                       : NEUT       
 SIM       .OHMM                       : SIM        
 SN        .OHMM                       : SN         
 SP        .MV                         : SP         
~A Log data section
# ...
 2578.7960      -999.0000      -999.0000       124.7356        39.2621       147.7900         2.3481         1.7465      -999.0000      -999.0000        83.1249        -6.4523 
 2578.9484      -999.0000      -999.0000       122.3138        40.1243       147.1814         2.3085         1.6588      -999.0000      -999.0000        83.5494        -6.5007 
 2579.1008      -999.0000      -999.0000       119.8920        40.9865       146.5728         2.2689         1.5710      -999.0000      -999.0000        83.9738        -6.5492 
 2579.2532      -999.0000      -999.0000       119.8920        40.9865       146.5728         2.2689         1.5710      -999.0000      -999.0000        83.9738        -6.5492 
 2579.4056      -999.0000      -999.0000       120.4804        40.9710       146.5276         2.3180         1.6527      -999.0000      -999.0000        84.1190        -6.6947 
 2579.5580      -999.0000      -999.0000       121.0688        40.9555       146.4824         2.3671         1.7343      -999.0000      -999.0000        84.2642        -6.8403 
 2579.7104      -999.0000      -999.0000       121.6572        40.9399       146.4372         2.4162         1.8159      -999.0000      -999.0000        84.4094        -6.9859 
 2579.8628      -999.0000      -999.0000       122.2455        40.9244       146.3920         2.4653         1.8975      -999.0000      -999.0000        84.5546        -7.1315 
 2580.0152      -999.0000      -999.0000       122.8339        40.9089       146.3468         2.5144         1.9792      -999.0000      -999.0000        84.6998        -7.2770 
 2580.1676      -999.0000      -999.0000       123.4223        40.8934       146.3016         2.5635         2.0608      -999.0000      -999.0000        84.8449        -7.4226 
 2580.3200      -999.0000      -999.0000       123.4223        40.8934       146.3016         2.5635         2.0608      -999.0000      -999.0000        84.8449        -7.4226 
 2580.4724      -999.0000      -999.0000       121.6242        40.9981       146.6957         2.4834         1.9876      -999.0000      -999.0000        85.0513        -7.3149 
 2580.6248      -999.0000      -999.0000       119.8261        41.1029       147.0899         2.4032         1.9143      -999.0000      -999.0000        85.2576        -7.2071 
 2580.7772      -999.0000      -999.0000       118.0281        41.2077       147.4840         2.3231         1.8411      -999.0000      -999.0000        85.4640        -7.0994 
 2580.9296      -999.0000      -999.0000       116.2300        41.3124       147.8781         2.2430         1.7679      -999.0000      -999.0000        85.6703        -6.9917 
 2581.0820      -999.0000      -999.0000       114.4319        41.4172       148.2722         2.1629         1.6946      -999.0000      -999.0000        85.8767        -6.8839 
 2581.2344      -999.0000      -999.0000       114.4319        41.4172       148.2722         2.1629         1.6946      -999.0000      -999.0000        85.8767        -6.8839 
 2581.3868      -999.0000      -999.0000       114.0669        41.4321       148.3701         2.4419         1.7874      -999.0000      -999.0000        85.9665        -6.7699 
 2581.5392      -999.0000      -999.0000       113.7019        41.4469       148.4679         2.7208         1.8802      -999.0000      -999.0000        86.0563        -6.6559 
 2581.6916      -999.0000      -999.0000       113.3369        41.4618       148.5657         2.9997         1.9731      -999.0000      -999.0000        86.1462        -6.5419 
 2581.8440      -999.0000      -999.0000       112.9719        41.4767       148.6635         3.2787         2.0659      -999.0000      -999.0000        86.2360        -6.4278 
 2581.9964      -999.0000      -999.0000       112.6070        41.4916       148.7613         3.5576         2.1587      -999.0000      -999.0000        86.3258        -6.3138 
 2582.1488      -999.0000      -999.0000       112.2420        41.5065       148.8591         3.8365         2.2515      -999.0000      -999.0000        86.4157        -6.1998 
 2582.3012      -999.0000      -999.0000       112.2420        41.5065       148.8591         3.8365         2.2515      -999.0000      -999.0000        86.4157        -6.1998 
 2582.4536      -999.0000      -999.0000       114.2573        41.7016       148.9758         4.3027         2.4868      -999.0000      -999.0000        86.5041        -6.0433 
 2582.6060      -999.0000      -999.0000       116.2727        41.8967       149.0924         4.7689         2.7222      -999.0000      -999.0000        86.5926        -5.8869 
 2582.7584      -999.0000      -999.0000       118.2880        42.0918       149.2090         5.2351         2.9576      -999.0000      -999.0000        86.6810        -5.7304 
 2582.9108      -999.0000      -999.0000       120.3034        42.2869       149.3257         5.7013         3.1929      -999.0000      -999.0000        86.7695        -5.5739 
 2583.0632      -999.0000      -999.0000       122.3188        42.4820       149.4423         6.1675         3.4283      -999.0000      -999.0000        86.8579        -5.4174 
 2583.2156      -999.0000      -999.0000       122.3188        42.4820       149.4423         6.1675         3.4283      -999.0000      -999.0000        86.8579        -5.4174 
 2583.3680      -999.0000      -999.0000       122.8511        42.5903       149.5374         5.4217         3.0902      -999.0000      -999.0000        86.6896        -5.5635 
 2583.5204      -999.0000      -999.0000       123.3834        42.6985       149.6326         4.6759         2.7522      -999.0000      -999.0000        86.5214        -5.7095 
 2583.6728      -999.0000      -999.0000       123.9157        42.8068       149.7277         3.9301         2.4141      -999.0000      -999.0000        86.3531        -5.8555 
 2583.8252      -999.0000      -999.0000       124.4480        42.9150       149.8229         3.1842         2.0761      -999.0000      -999.0000        86.1848        -6.0015 
 2583.9776      -999.0000      -999.0000       124.9803        43.0233       149.9180         2.4384         1.7380      -999.0000      -999.0000        86.0165        -6.1476 
 2584.1300      -999.0000      -999.0000       125.5126        43.1315       150.0132         1.6926         1.4000      -999.0000      -999.0000        85.8483        -6.2936 
 2584.2824      -999.0000      -999.0000       125.5126        43.1315       150.0132         1.6926         1.4000      -999.0000      -999.0000        85.8483        -6.2936 
 2584.4348      -999.0000      -999.0000       126.1287        43.2356       150.1388         1.7201         1.4294      -999.0000      -999.0000        85.7246        -6.5924 
 2584.5872      -999.0000      -999.0000       126.7447        43.3397       150.2643         1.7476         1.4588      -999.0000      -999.0000        85.6010        -6.8912 
 2584.7396      -999.0000      -999.0000       127.3607        43.4438       150.3899         1.7752         1.4882      -999.0000      -999.0000        85.4773        -7.1900 
 2584.8920      -999.0000      -999.0000       127.9768        43.5479       150.5154         1.8027         1.5176      -999.0000      -999.0000        85.3537        -7.4888 
 2585.0444      -999.0000      -999.0000       128.5928        43.6519       150.6410         1.8303         1.5471      -999.0000      -999.0000        85.2300        -7.7877 
 2585.1968      -999.0000      -999.0000       128.5928        43.6519       150.6410         1.8303         1.5471      -999.0000      -999.0000        85.2300        -7.7877 
 2585.3492      -999.0000      -999.0000       129.6139        43.4683       150.5226         1.9402         1.5415      -999.0000      -999.0000        84.9292        -7.9668 
 2585.5016      -999.0000      -999.0000       130.6351        43.2846       150.4042         2.0501         1.5359      -999.0000      -999.0000        84.6283        -8.1459 
 2585.6540      -999.0000      -999.0000       131.6563        43.1009       150.2858         2.1601         1.5303      -999.0000      -999.0000        84.3274        -8.3250 
