~VERSION INFORMATION
 VERS.                 2.0:   CWLS LOG ASCII STANDARD - VERSION 2.0
 WRAP.                  NO:   SINGLE LINE PER DEPTH STEP
~WELL INFORMATION
#MNEM.UNIT       DATA           DESCRIPTION MNEMONIC
#---------    -------------   --------------------------
 STRT.M         20.0000                      : START DEPTH
 STOP.M         2909.1992                     : STOP DEPTH
 STEP.M         0.1524                        : STEP VALUE
 NULL.          -999.0000                     : NULL VALUE
 SRVC.          PYPOZO                        : Service Company/Logging company
 DATE.          03/07/2025                    : LAS file Creation Date
 WELL    .      FURBERO-101                    : Well Name
 COMP    .      PYPOZO 2.0                    : Company
 FLD     .      UNKNOWN                       : Field
 LOC     .      UNKNOWN                       : Location
 LATI    .      0                             : Latitude/Northing
 LONG    .      0                             : Longitude/Easting
 APDAT   .      0                             : Elevation Above Permanent Datum
~CURVE INFORMATION
#MNEM          UNIT     API CODE   Curve Type Comments
#---------- ---------- ----------  ---------- --------
 DEPTH     .M                    : Depth      
 GR        .UNIT                       : GR         
 INV       .OHMM                       : INV        
 LAT       .OHMM                       : LAT        
 LIM       .OHMM                       : LIM        
 LN        .OHMM                       : LN         
 MINV      .OHMM                       : MINV       
 MNOR      .OHMM                       : MNOR       
 NEUT      .UNIT                       : NEUT       
 SIM       .OHMM                       : SIM        
 SN        .OHMM                       : SN         
 SP        .MV                         : SP         
~A Log data section
# ...
 1295.8928       146.6867      -999.0000         1.6602         1.4507         1.8110      -999.0000      -999.0000        62.5313      -999.0000         3.2445       -78.7350 
 1296.0452       150.7168      -999.0000         1.6599         1.4505         1.8111      -999.0000      -999.0000        61.2422      -999.0000         3.2869       -78.7331 
 1296.1976       150.7168      -999.0000         1.6597         1.4504         1.8112      -999.0000      -999.0000        61.2422      -999.0000         3.2850       -78.7315 
 1296.3500       145.8075      -999.0000         1.6595         1.4503         1.8113      -999.0000      -999.0000        63.0266      -999.0000         3.3512       -78.7298 
 1296.5024       140.8982      -999.0000         1.6592         1.4502         1.8114      -999.0000      -999.0000        64.8110      -999.0000         3.3493       -78.7282 
 1296.6548       135.9889      -999.0000         1.6590         1.4500         1.8114      -999.0000      -999.0000        66.5954      -999.0000         3.3477       -78.7266 
 1296.8072       131.0796      -999.0000         1.6587         1.4499         1.8115      -999.0000      -999.0000        68.3797      -999.0000         3.3417       -78.6973 
 1296.9596       126.1704      -999.0000         1.6585         1.4498         1.8116      -999.0000      -999.0000        70.1641      -999.0000         3.2956       -78.4535 
 1297.1120       126.1704      -999.0000         1.6582         1.4497         1.8117      -999.0000      -999.0000        70.1641      -999.0000         3.2751       -78.1821 
 1297.2644       132.5737      -999.0000         1.6580         1.4495         1.8118      -999.0000      -999.0000        71.7677      -999.0000         3.2360       -77.9107 
 1297.4168       138.9771      -999.0000         1.6577         1.4494         1.8119      -999.0000      -999.0000        73.3712      -999.0000         3.1799       -77.6393 
 1297.5692       145.3805      -999.0000         1.6575         1.4493         1.8120      -999.0000      -999.0000        74.9748      -999.0000         3.1351       -77.6377 
 1297.7216       151.7839      -999.0000         1.6572         1.4492         1.8121      -999.0000      -999.0000        76.5784      -999.0000         3.1325       -77.6360 
 1297.8740       158.1872      -999.0000         1.6570         1.4490         1.8121      -999.0000      -999.0000        78.1819      -999.0000         3.0642       -77.6344 
 1298.0264       164.5906      -999.0000         1.6567         1.4489         1.8122      -999.0000      -999.0000        79.7855      -999.0000         3.0626       -77.6327 
 1298.1788       164.5906      -999.0000         1.6565         1.4488         1.8123      -999.0000      -999.0000        79.7855      -999.0000         3.0289       -77.6310 
 1298.3312       162.2299      -999.0000         1.6562         1.4487         1.8124      -999.0000      -999.0000        78.3817      -999.0000         2.9916       -77.6294 
 1298.4836       159.8691      -999.0000         1.6560         1.4485         1.8125      -999.0000      -999.0000        76.9780      -999.0000         2.9900       -77.6277 
 1298.6360       157.5084      -999.0000         1.6558         1.4484         1.8126      -999.0000      -999.0000        75.5742      -999.0000         2.9883       -77.6260 
 1298.7884       155.1476      -999.0000         1.6555         1.4483         1.8127      -999.0000      -999.0000        74.1705      -999.0000         2.9866       -77.6244 
 1298.9408       152.7868      -999.0000         1.6553         1.4482         1.8128      -999.0000      -999.0000        72.7667      -999.0000         2.9849       -77.6227 
 1299.0932       152.7868      -999.0000         1.6550         1.4480         1.8128      -999.0000      -999.0000        72.7667      -999.0000         2.9833       -77.6212 
 1299.2456       149.1516      -999.0000         1.6548         1.4479         1.8129      -999.0000      -999.0000        70.7984      -999.0000         2.9816       -77.6194 
 1299.3980       145.5163      -999.0000         1.6545         1.4478         1.8130      -999.0000      -999.0000        68.8301      -999.0000         2.9799       -77.8877 
 1299.5504       141.8811      -999.0000         1.6543         1.4477         1.8131      -999.0000      -999.0000        66.8617      -999.0000         2.9783       -78.1556 
 1299.7028       138.2458      -999.0000         1.6540         1.4475         1.8132      -999.0000      -999.0000        64.8934      -999.0000         2.9769       -78.4236 
 1299.8552       134.6105      -999.0000         1.6538         1.4474         1.8133      -999.0000      -999.0000        62.9250      -999.0000         2.9749       -78.4220 
 1300.0076       130.9753      -999.0000         1.6535         1.4473         1.8134      -999.0000      -999.0000        60.9567      -999.0000         2.9736       -78.6904 
 1300.1600       130.9753      -999.0000         1.6533         1.4472         1.8135      -999.0000      -999.0000        60.9567      -999.0000         2.9719       -78.5270 
 1300.3124       133.5728      -999.0000         1.6530         1.4470         1.8136      -999.0000      -999.0000        61.4403      -999.0000         2.9703       -77.8369 
 1300.4648       136.1703      -999.0000         1.6528         1.4469         1.8136      -999.0000      -999.0000        61.9238      -999.0000         2.9686       -77.1873 
 1300.6172       138.7678      -999.0000         1.6525         1.4468         1.8137      -999.0000      -999.0000        62.4074      -999.0000         2.9670       -76.6523 
 1300.7696       141.3653      -999.0000         1.6523         1.4467         1.8138      -999.0000      -999.0000        62.8910      -999.0000         2.9653       -76.2544 
 1300.9220       143.9628      -999.0000         1.6520         1.4465         1.8139      -999.0000      -999.0000        63.3746      -999.0000         2.9637       -76.2528 
 1301.0744       143.9628      -999.0000         1.6518         1.4464         1.8140      -999.0000      -999.0000        63.3746      -999.0000         2.9327       -76.2511 
 1301.2268       142.7766      -999.0000         1.6516         1.4463         1.8141      -999.0000      -999.0000        65.7338      -999.0000         2.8928       -76.2495 
 1301.3792       141.5904      -999.0000         1.6513         1.4462         1.8142      -999.0000      -999.0000        68.0930      -999.0000         2.8912       -76.2478 
 1301.5316       140.4043      -999.0000         1.6511         1.4460         1.8143      -999.0000      -999.0000        70.4521      -999.0000         2.8895       -76.2462 
 1301.6840       139.2181      -999.0000         1.6508         1.4459         1.8143      -999.0000      -999.0000        72.8113      -999.0000         2.8879       -76.2445 
 1301.8364       138.0319      -999.0000         1.6506         1.4458         1.8144      -999.0000      -999.0000        75.1705      -999.0000         2.8862       -76.2218 
 1301.9888       136.8458      -999.0000         1.6503         1.4457         1.8145      -999.0000      -999.0000        77.5296      -999.0000         2.8846       -76.1990 
 1302.1412       136.8458      -999.0000         1.6501         1.4455         1.8146      -999.0000      -999.0000        77.5296      -999.0000         2.8829       -76.1940 
 1302.2936       139.0172      -999.0000         1.6498         1.4454         1.8147      -999.0000      -999.0000        74.5193      -999.0000         2.8813       -76.1889 
 1302.4460       141.1887      -999.0000         1.6496         1.4453         1.8148      -999.0000      -999.0000        71.5089      -999.0000         2.8656       -76.4546 
 1302.5984       143.3602      -999.0000         1.6493         1.4452         1.8149      -999.0000      -999.0000        68.4986      -999.0000         2.8406       -76.6012 
 1302.7508       145.5316      -999.0000         1.6491         1.4450         1.8150      -999.0000      -999.0000        65.4883      -999.0000         2.8157       -76.8548 
