~VERSION INFORMATION
 VERS.                 2.0:   CWLS LOG ASCII STANDARD - VERSION 2.0
 WRAP.                  NO:   SINGLE LINE PER DEPTH STEP
~WELL INFORMATION
#MNEM.UNIT       DATA           DESCRIPTION MNEMONIC
#---------    -------------   --------------------------
 STRT.M         20.0000                      : START DEPTH
 STOP.M         2909.1992                     : STOP DEPTH
 STEP.M         0.1524                        : STEP VALUE
 NULL.          -999.0000                     : NULL VALUE
 SRVC.          PYPOZO                        : Service Company/Logging company
 DATE.          03/07/2025                    : LAS file Creation Date
 WELL    .      FURBERO-101                    : Well Name
 COMP    .      PYPOZO 2.0                    : Company
 FLD     .      UNKNOWN                       : Field
 LOC     .      UNKNOWN                       : Location
 LATI    .      0                             : Latitude/Northing
 LONG    .      0                             : Longitude/Easting
 APDAT   .      0                             : Elevation Above Permanent Datum
~CURVE INFORMATION
#MNEM          UNIT     API CODE   Curve Type Comments
#---------- ---------- ----------  ---------- --------
 DEPTH     .M                    : Depth      
 GR        .UNIT                       : GR         
 INV       .OHMM                       : INV        
 LAT       .OHMM                       : LAT        
 LIM       .OHMM                       : LIM        
 LN        .OHMM                       : LN         
 MINV      .OHMM                       : MINV       
 MNOR      .OHMM                       : MNOR       
 NEUT      .UNIT                       : NEUT       
 SIM       .OHMM                       : SIM        
 SN        .OHMM                       : SN         
 SP        .MV                         : SP         
~A Log data section
# ...
 2263.3280        77.0512         3.9669         0.0928         0.6561         1.6565         9.5252         4.6858       172.6771         8.1790         2.0801       -66.0902 
 2263.4804        73.9417         4.1503         0.0925         0.6560         1.6469         9.1536         4.7124       174.5430         7.3420         2.0747       -66.0378 
 2263.6328        70.8321         4.3336         0.0923         0.6559         1.6372         8.7821         4.7390       176.4089         6.5050         2.0694       -65.9853 
 2263.7852        67.7226         4.5170         0.0920         0.6557         1.6275         8.4105         4.7655       178.2748         5.6680         2.0641       -65.9329 
 2263.9376        64.6131         4.7004         0.0918         0.6556         3.1518         8.0390         4.7921       180.1407         4.8310         3.1374       -30.2041 
 2264.0900        64.6131         4.7004         0.0915         0.6555         3.1470         8.0390         4.7921       180.1407         4.8310         3.1348       -30.1779 
 2264.2424        67.4266         5.8319         0.0913         0.6554         1.5985         8.5303         5.6577       172.2152         6.2013         2.0480       -65.7756 
 2264.3948        70.2401         6.9634         0.0910         0.6552         1.5889         9.0216         6.5233       164.2897         7.5717         2.0427       -65.7231 
 2264.5472        73.0536         8.0949         0.0908         0.6551         1.5792         9.5130         7.3889       156.3642         8.9420         2.0374       -65.6707 
 2264.6996        75.8670         9.2264         0.0906         0.6550         1.5695        10.0043         8.2545       148.4387        10.3124         2.0320       -65.6182 
 2264.8520        78.6805        10.3579         0.0903         0.6549         1.6772        10.4956         9.1202       140.5133        11.6827         5.7758       -30.7671 
 2265.0044        81.4940        10.3579         0.0901         0.6547         1.6724        10.4956         9.1202       132.5878        11.6827         5.7732       -30.7408 
 2265.1568        81.4940         9.9297         0.0898         0.6546         1.5405        11.0078         9.7526       132.5878        12.5245         2.0160       -65.4609 
 2265.3092        80.0760         9.5015         0.0896         0.6545         1.5309        11.5201        10.3851       142.7843        13.3662         2.0107       -65.4084 
 2265.4616        78.6580         9.0733         0.0893         0.6544         1.5212        12.0323        11.0176       152.9809        14.2080         2.0053       -65.3560 
 2265.6140        77.2401         8.6451         0.0891         0.6542         1.5115        12.5445        11.6500       163.1774        15.0498         2.0000       -65.3036 
 2265.7664        75.8221         8.2169         0.0888         0.6541         1.5019        13.0568        12.2825       173.3739        15.8915         1.9947       -65.2511 
 2265.9188        74.4041         7.7888         0.0886         0.6540         4.2436        13.5690        12.9150       183.5705        16.7333         5.3813       -28.3790 
 2266.0712        74.4041         7.7888         0.0883         0.6539         4.2388        13.5690        12.9150       183.5705        16.7333         5.3786       -28.3528 
 2266.2236        78.3439         7.3128         0.0881         0.6537         1.4729        12.0754        11.8356       171.2810        14.6606         1.9786       -65.0938 
 2266.3760        82.2837         6.8368         0.0878         0.6536         1.4632        10.5818        10.7563       158.9915        12.5879         1.9733       -65.0413 
 2266.5284        86.2235         6.3609         0.0876         0.6535         1.4535         9.0882         9.6769       146.7020        10.5152         1.9680       -64.9889 
 2266.6808        90.1632         5.8849         0.0873         0.6534         1.4439         7.5945         8.5976       134.4126         8.4425         1.9626       -64.9364 
 2266.8332        94.1030         5.4089         0.0871         0.6532         1.4342         6.1009         7.5182       122.1231         6.3699         1.9573       -64.8840 
 2266.9856        98.0428         4.9330         0.0868         0.6531         3.8437         4.6073         6.4389       109.8336         4.2972         3.4427       -27.1285 
 2267.1380        98.0428         4.9330         0.0866         0.6530         3.8389         4.6073         6.4389       109.8336         4.2972         3.4401       -27.1023 
 2267.2904        90.2705         4.9462         0.0864         0.6529         1.4052         5.4140         5.6618       126.5612         5.7290         1.9413       -64.7267 
 2267.4428        82.4981         4.9594         0.0861         0.6527         1.3955         6.2206         4.8847       143.2888         7.1609         1.9359       -64.6742 
 2267.5952        74.7257         4.9726         0.0859         0.6526         1.3859         7.0273         4.1076       160.0165         8.5928         1.9306       -64.6218 
 2267.7476        66.9534         4.9858         0.0856         0.6525         1.3762         7.8340         3.3305       176.7441        10.0247         1.9253       -64.5693 
 2267.9000        59.1810         4.9991         0.0854         0.6524         1.2539         8.6407         2.5534       193.4717        11.4565         5.1815       -27.5601 
 2268.0524        51.4086         4.9991         0.0851         0.6522         1.2491         8.6407         2.5534       210.1993        11.4565         5.1789       -27.5339 
 2268.2048        51.4086         5.7986         0.0849         0.6521         1.3472         9.0160         3.8452       210.1993        10.2649         1.9093       -64.4120 
 2268.3572        49.2655         6.5982         0.0846         0.6520         1.3375         9.3914         5.1370       199.9487         9.0733         1.9039       -64.3595 
 2268.5096        47.1223         7.3978         0.0844         0.6519         1.3279         9.7667         6.4288       189.6981         7.8817         1.8986       -64.3071 
 2268.6620        44.9792         8.1973         0.0841         0.6517         1.3182        10.1421         7.7206       179.4476         6.6901         1.8932       -64.2546 
 2268.8144        42.8360         8.9969         0.0839         0.6516         1.3085        10.5175         9.0124       169.1970         5.4985         1.8879       -64.2022 
 2268.9668        40.6929         9.7964         0.0836         0.6515         2.1402        10.8928        10.3042       158.9464         4.3069         3.6848       -26.4072 
 2269.1192        40.6929         9.7964         0.0834         0.6513         2.1353        10.8928        10.3042       158.9464         4.3069         3.6821       -26.3810 
 2269.2716        41.5012         9.7175         0.0831         0.6512         1.2795        10.2998         9.7552       166.0231         7.8216         1.8719       -64.0449 
 2269.4240        42.3096         9.6385         0.0829         0.6511         1.2699         9.7069         9.2062       173.0998        11.3363         1.8666       -63.9924 
 2269.5764        43.1179         9.5595         0.0826         0.6510         1.2602         9.1139         8.6572       180.1765        14.8509         1.8612       -63.9400 
 2269.7288        43.9263         9.4806         0.0824         0.6508         1.2505         8.5209         8.1082       187.2532        18.3656         1.8559       -63.8875 
 2269.8812        44.7347         9.4016         0.0822         0.6507         2.4239         7.9279         7.5593       194.3299        21.8803         8.6852       -27.3020 
 2270.0336        45.5430         9.4016         0.0819         0.6506         2.4190         7.9279         7.5593       201.4066        21.8803         8.6825       -27.2758 
 2270.1860        45.5430         9.0426         0.0817         0.6505         1.2215         7.4756         7.2573       201.4066        22.1930         1.8399       -63.7302 
