~VERSION INFORMATION
 VERS.                 2.0:   CWLS LOG ASCII STANDARD - VERSION 2.0
 WRAP.                  NO:   SINGLE LINE PER DEPTH STEP
~WELL INFORMATION
#MNEM.UNIT       DATA           DESCRIPTION MNEMONIC
#---------    -------------   --------------------------
 STRT.M         20.0000                      : START DEPTH
 STOP.M         2909.1992                     : STOP DEPTH
 STEP.M         0.1524                        : STEP VALUE
 NULL.          -999.0000                     : NULL VALUE
 SRVC.          PYPOZO                        : Service Company/Logging company
 DATE.          03/07/2025                    : LAS file Creation Date
 WELL    .      FURBERO-101                    : Well Name
 COMP    .      PYPOZO 2.0                    : Company
 FLD     .      UNKNOWN                       : Field
 LOC     .      UNKNOWN                       : Location
 LATI    .      0                             : Latitude/Northing
 LONG    .      0                             : Longitude/Easting
 APDAT   .      0                             : Elevation Above Permanent Datum
~CURVE INFORMATION
#MNEM          UNIT     API CODE   Curve Type Comments
#---------- ---------- ----------  ---------- --------
 DEPTH     .M                    : Depth      
 GR        .UNIT                       : GR         
 INV       .OHMM                       : INV        
 LAT       .OHMM                       : LAT        
 LIM       .OHMM                       : LIM        
 LN        .OHMM                       : LN         
 MINV      .OHMM                       : MINV       
 MNOR      .OHMM                       : MNOR       
 NEUT      .UNIT                       : NEUT       
 SIM       .OHMM                       : SIM        
 SN        .OHMM                       : SN         
 SP        .MV                         : SP         
~A Log data section
# ...
 1134.6536       140.9560      -999.0000         1.9214         1.5831         1.7179      -999.0000      -999.0000        35.2558      -999.0000         3.0301       -57.3059 
 1134.8060       138.5844      -999.0000         1.9212         1.5830         1.7180      -999.0000      -999.0000        34.9977      -999.0000         3.0617       -57.3039 
 1134.9584       136.2128      -999.0000         1.9209         1.5828         1.7181      -999.0000      -999.0000        34.7395      -999.0000         3.0960       -57.3018 
 1135.1108       136.2128      -999.0000         1.9207         2.5101         1.7182      -999.0000      -999.0000        34.7395      -999.0000         3.3322       -57.0733 
 1135.2632       137.4413      -999.0000         1.9204         2.5101         1.7183      -999.0000      -999.0000        34.1614      -999.0000         3.3316       -57.0723 
 1135.4156       138.6697      -999.0000         1.9202         1.5825         1.7183      -999.0000      -999.0000        33.5832      -999.0000         3.0923       -57.2956 
 1135.5680       139.8982      -999.0000         1.9200         1.5823         1.7184      -999.0000      -999.0000        33.0050      -999.0000         3.0909       -57.3603 
 1135.7204       141.1266      -999.0000         1.9197         1.5822         1.7185      -999.0000      -999.0000        32.4269      -999.0000         3.0896       -57.4950 
 1135.8728       142.3551      -999.0000         1.9195         1.5821         1.7186      -999.0000      -999.0000        31.8487      -999.0000         3.0882       -57.6932 
 1136.0252       143.5835      -999.0000         1.9192         2.5623         1.7187      -999.0000      -999.0000        31.2706      -999.0000         3.2690       -57.6188 
 1136.1776       143.5835      -999.0000         1.9190         2.5623         1.7188      -999.0000      -999.0000        31.2706      -999.0000         3.2445       -57.7863 
 1136.3300       143.6166      -999.0000         1.9187         1.5817         1.7189      -999.0000      -999.0000        33.5221      -999.0000         2.9495       -58.5676 
 1136.4824       143.6497      -999.0000         1.9185         1.5816         1.7190      -999.0000      -999.0000        35.7737      -999.0000         2.9330       -58.6992 
 1136.6348       143.6828      -999.0000         1.9182         1.5815         1.7191      -999.0000      -999.0000        38.0252      -999.0000         2.8795       -58.9006 
 1136.7872       143.7159      -999.0000         1.9180         1.5813         1.7191      -999.0000      -999.0000        40.2768      -999.0000         2.8659       -59.1019 
 1136.9396       143.7490      -999.0000         1.9177         1.5812         1.7192      -999.0000      -999.0000        42.5284      -999.0000         2.8094       -59.1268 
 1137.0920       143.7490      -999.0000         1.9175         2.2770         1.7193      -999.0000      -999.0000        42.5284      -999.0000         3.1159       -58.7095 
 1137.2444       144.8976      -999.0000         1.9172         2.2770         1.7194      -999.0000      -999.0000        44.1378      -999.0000         3.1152       -58.6178 
 1137.3968       146.0461      -999.0000         1.9170         1.5808         1.7195      -999.0000      -999.0000        45.7472      -999.0000         2.7992       -58.6682 
 1137.5492       147.1947      -999.0000         1.9167         1.5807         1.7196      -999.0000      -999.0000        47.3567      -999.0000         2.7321       -58.6182 
 1137.7016       148.3433      -999.0000         1.9165         1.5806         1.7197      -999.0000      -999.0000        48.9661      -999.0000         2.6680       -58.6161 
 1137.8540       149.4919      -999.0000         1.9162         1.5805         1.7198      -999.0000      -999.0000        50.5755      -999.0000         2.6667       -58.5472 
 1138.0064       150.6405      -999.0000         1.9160         2.2166         1.7198      -999.0000      -999.0000        52.1850      -999.0000         2.9604       -58.4716 
 1138.1588       150.6405      -999.0000         1.9158         2.2165         1.7199      -999.0000      -999.0000        52.1850      -999.0000         2.9261       -58.4038 
 1138.3112       146.1109      -999.0000         1.9155         1.5801         1.7200      -999.0000      -999.0000        51.8503      -999.0000         2.5952       -58.0673 
 1138.4636       141.5813      -999.0000         1.9153         1.5800         1.7201      -999.0000      -999.0000        51.5157      -999.0000         2.5938       -57.8431 
 1138.6160       137.0517      -999.0000         1.9150         1.5798         1.7202      -999.0000      -999.0000        51.1811      -999.0000         2.6598       -57.6878 
 1138.7684       132.5222      -999.0000         1.9148         1.5797         1.7203      -999.0000      -999.0000        50.8464      -999.0000         2.6584       -57.5687 
 1138.9208       127.9926      -999.0000         1.9145         1.5796         1.7204      -999.0000      -999.0000        50.5118      -999.0000         2.6570       -57.4517 
 1139.0732       127.9926      -999.0000         1.9143         2.2297         1.7205      -999.0000      -999.0000        50.5118      -999.0000         2.9798       -57.3550 
 1139.2256       129.3041      -999.0000         1.9140         2.2297         1.7205      -999.0000      -999.0000        51.6945      -999.0000         2.9791       -57.3206 
 1139.3780       130.6156      -999.0000         1.9138         1.5792         1.7206      -999.0000      -999.0000        52.8773      -999.0000         2.7876       -57.3088 
 1139.5304       131.9271      -999.0000         1.9135         1.5791         1.7207      -999.0000      -999.0000        54.0600      -999.0000         2.7860       -57.4435 
 1139.6828       133.2386      -999.0000         1.9133         1.5790         1.7208      -999.0000      -999.0000        55.2427      -999.0000         2.8521       -57.5750 
 1139.8352       134.5501      -999.0000         1.9130         1.5788         1.7209      -999.0000      -999.0000        56.4255      -999.0000         2.8506       -57.7096 
 1139.9876       135.8616      -999.0000         1.9128         2.3137         1.7210      -999.0000      -999.0000        57.6082      -999.0000         3.1421       -57.7049 
 1140.1400       135.8616      -999.0000         1.9125         2.3136         1.7211      -999.0000      -999.0000        57.6082      -999.0000         3.1413       -57.7039 
 1140.2924       134.5531      -999.0000         1.9123         1.5785         1.7212      -999.0000      -999.0000        57.7129      -999.0000         2.9812       -57.7035 
 1140.4448       133.2447      -999.0000         1.9121         1.5783         1.7213      -999.0000      -999.0000        57.8176      -999.0000         3.0469       -57.5646 
 1140.5972       131.9362      -999.0000         1.9118         1.5782         1.7213      -999.0000      -999.0000        57.9222      -999.0000         3.0455       -57.5625 
 1140.7496       130.6277      -999.0000         1.9116         1.5781         1.7214      -999.0000      -999.0000        58.0269      -999.0000         3.0444       -57.6971 
 1140.9020       129.3193      -999.0000         1.9113         1.5780         1.7215      -999.0000      -999.0000        58.1316      -999.0000         3.0431       -57.8286 
 1141.0544       128.0108      -999.0000         1.9111         2.5010         1.7216      -999.0000      -999.0000        58.2363      -999.0000         3.3174       -58.0368 
 1141.2068       128.0108      -999.0000         1.9108         2.5009         1.7217      -999.0000      -999.0000        58.2363      -999.0000         3.3167       -58.0691 
 1141.3592       132.2905      -999.0000         1.9106         1.5776         1.7218      -999.0000      -999.0000        59.6672      -999.0000         3.1063       -58.0258 
 1141.5116       136.5702      -999.0000         1.9103         1.5775         1.7219      -999.0000      -999.0000        61.0981      -999.0000         3.1049       -58.0237 
