~VERSION INFORMATION
 VERS.                 2.0:   CWLS LOG ASCII STANDARD - VERSION 2.0
 WRAP.                  NO:   SINGLE LINE PER DEPTH STEP
~WELL INFORMATION
#MNEM.UNIT       DATA           DESCRIPTION MNEMONIC
#---------    -------------   --------------------------
 STRT.M         20.0000                      : START DEPTH
 STOP.M         2909.1992                     : STOP DEPTH
 STEP.M         0.1524                        : STEP VALUE
 NULL.          -999.0000                     : NULL VALUE
 SRVC.          PYPOZO                        : Service Company/Logging company
 DATE.          03/07/2025                    : LAS file Creation Date
 WELL    .      FURBERO-101                    : Well Name
 COMP    .      PYPOZO 2.0                    : Company
 FLD     .      UNKNOWN                       : Field
 LOC     .      UNKNOWN                       : Location
 LATI    .      0                             : Latitude/Northing
 LONG    .      0                             : Longitude/Easting
 APDAT   .      0                             : Elevation Above Permanent Datum
~CURVE INFORMATION
#MNEM          UNIT     API CODE   Curve Type Comments
#---------- ---------- ----------  ---------- --------
 DEPTH     .M                    : Depth      
 GR        .UNIT                       : GR         
 INV       .OHMM                       : INV        
 LAT       .OHMM                       : LAT        
 LIM       .OHMM                       : LIM        
 LN        .OHMM                       : LN         
 MINV      .OHMM                       : MINV       
 MNOR      .OHMM                       : MNOR       
 NEUT      .UNIT                       : NEUT       
 SIM       .OHMM                       : SIM        
 SN        .OHMM                       : SN         
 SP        .MV                         : SP         
~A Log data section
# ...
 1457.1320       133.1053      -999.0000         1.3990         1.3182         1.9041      -999.0000      -999.0000        87.6686      -999.0000         2.7995       -75.1709 
 1457.2844       137.3438      -999.0000         1.3987         1.3181         1.9042      -999.0000      -999.0000        87.2242      -999.0000         2.7987       -75.4178 
 1457.4368       141.5823      -999.0000         1.3985         1.3180         1.9043      -999.0000      -999.0000        86.7798      -999.0000         2.8655       -75.6645 
 1457.5892       145.8207      -999.0000         1.3982         1.3179         1.9044      -999.0000      -999.0000        86.3353      -999.0000         2.8646       -75.9114 
 1457.7416       150.0592      -999.0000         1.3980         1.3177         1.9044      -999.0000      -999.0000        85.8909      -999.0000         2.9315       -76.1581 
 1457.8940       154.2977      -999.0000         1.3977         1.3176         1.9045      -999.0000      -999.0000        85.4465      -999.0000         2.9305       -76.4048 
 1458.0464       158.5362      -999.0000         1.3975         1.3175         1.9046      -999.0000      -999.0000        85.0021      -999.0000         2.9297       -76.5800 
 1458.1988       158.5362      -999.0000         1.3972         1.3174         1.9047      -999.0000      -999.0000        85.0021      -999.0000         2.9964       -76.5800 
 1458.3512       159.7098      -999.0000         1.3970         1.3172         1.9048      -999.0000      -999.0000        83.8765      -999.0000         2.9956       -76.5800 
 1458.5036       160.8835      -999.0000         1.3967         1.3171         1.9049      -999.0000      -999.0000        82.7509      -999.0000         3.0623       -76.5800 
 1458.6560       162.0571      -999.0000         1.3965         1.3170         1.9050      -999.0000      -999.0000        81.6253      -999.0000         3.0615       -76.5800 
 1458.8084       163.2308      -999.0000         1.3962         1.3169         1.9051      -999.0000      -999.0000        80.4997      -999.0000         3.1012       -76.5800 
 1458.9608       164.4044      -999.0000         1.3960         1.3167         1.9051      -999.0000      -999.0000        79.3742      -999.0000         3.1276       -76.5800 
 1459.1132       164.4044      -999.0000         1.3957         1.3166         1.9052      -999.0000      -999.0000        79.3742      -999.0000         3.1943       -76.6587 
 1459.2656       163.0734      -999.0000         1.3955         1.3165         1.9053      -999.0000      -999.0000        79.1711      -999.0000         3.1935       -76.3868 
 1459.4180       161.7425      -999.0000         1.3953         1.3164         1.9054      -999.0000      -999.0000        78.9680      -999.0000         3.1927       -76.3851 
 1459.5704       160.4115      -999.0000         1.3950         1.3162         1.9055      -999.0000      -999.0000        78.7649      -999.0000         3.1918       -76.1132 
 1459.7228       159.0806      -999.0000         1.3948         1.3161         1.9056      -999.0000      -999.0000        78.5617      -999.0000         3.1910       -76.1115 
 1459.8752       157.7496      -999.0000         1.3945         1.3160         1.9057      -999.0000      -999.0000        78.3586      -999.0000         3.1902       -76.1099 
 1460.0276       156.4186      -999.0000         1.3943         1.3159         1.9058      -999.0000      -999.0000        78.1555      -999.0000         3.1218       -76.1082 
 1460.1800       156.4186      -999.0000         1.3940         1.3157         1.9058      -999.0000      -999.0000        78.1555      -999.0000         3.0534       -76.1066 
 1460.3324       158.5898      -999.0000         1.3938         1.3156         1.9059      -999.0000      -999.0000        75.9109      -999.0000         3.0222       -76.1049 
 1460.4848       160.7610      -999.0000         1.3935         1.3155         1.9060      -999.0000      -999.0000        73.6662      -999.0000         2.9842       -76.1032 
 1460.6372       162.9322      -999.0000         1.3933         1.3154         1.9061      -999.0000      -999.0000        71.4216      -999.0000         2.9550       -76.1016 
 1460.7896       165.1033      -999.0000         1.3930         1.3152         1.9062      -999.0000      -999.0000        69.1769      -999.0000         2.9150       -76.1003 
 1460.9420       167.2745      -999.0000         1.3928         1.3151         1.9063      -999.0000      -999.0000        66.9323      -999.0000         2.9142       -76.0986 
 1461.0944       167.2745      -999.0000         1.3925         1.3150         1.9064      -999.0000      -999.0000        66.9323      -999.0000         2.9133       -76.0970 
 1461.2468       164.1002      -999.0000         1.3923         1.3149         1.9065      -999.0000      -999.0000        64.9736      -999.0000         2.8880       -76.0953 
 1461.3992       160.9260      -999.0000         1.3920         1.3147         1.9066      -999.0000      -999.0000        63.0149      -999.0000         2.8441       -76.0937 
 1461.5516       157.7517      -999.0000         1.3918         1.3146         1.9066      -999.0000      -999.0000        61.0562      -999.0000         2.8208       -75.8217 
 1461.7040       154.5774      -999.0000         1.3916         1.3145         1.9067      -999.0000      -999.0000        59.0975      -999.0000         2.7749       -75.8201 
 1461.8564       151.4032      -999.0000         1.3913         1.3144         1.9068      -999.0000      -999.0000        57.1388      -999.0000         2.7741       -75.8184 
 1462.0088       148.2289      -999.0000         1.3911         1.3142         1.9069      -999.0000      -999.0000        55.1802      -999.0000         2.7057       -75.6919 
 1462.1612       148.2289      -999.0000         1.3908         1.3141         1.9070      -999.0000      -999.0000        55.1802      -999.0000         2.7049       -75.5449 
 1462.3136       147.1975      -999.0000         1.3906         1.3140         1.9071      -999.0000      -999.0000        59.4564      -999.0000         2.6365       -75.2730 
 1462.4660       146.1661      -999.0000         1.3903         1.3139         1.9072      -999.0000      -999.0000        63.7327      -999.0000         2.6192       -74.8895 
 1462.6184       145.1347      -999.0000         1.3901         1.3137         1.9073      -999.0000      -999.0000        68.0090      -999.0000         2.5673       -74.6221 
 1462.7708       144.1034      -999.0000         1.3898         1.3136         1.9073      -999.0000      -999.0000        72.2852      -999.0000         2.4989       -74.3546 
 1462.9232       143.0720      -999.0000         1.3896         1.3135         1.9074      -999.0000      -999.0000        76.5615      -999.0000         2.4980       -73.8171 
 1463.0756       143.0720      -999.0000         1.3893         1.3134         1.9075      -999.0000      -999.0000        76.5615      -999.0000         2.4297       -73.6431 
 1463.2280       145.6003      -999.0000         1.3891         1.3132         1.9076      -999.0000      -999.0000        75.4315      -999.0000         2.4288       -73.5529 
 1463.3804       148.1286      -999.0000         1.3888         1.3131         1.9077      -999.0000      -999.0000        74.3014      -999.0000         2.3604       -73.3695 
 1463.5328       150.6569      -999.0000         1.3886         1.3130         1.9078      -999.0000      -999.0000        73.1714      -999.0000         2.3596       -73.3679 
 1463.6852       153.1852      -999.0000         1.3883         1.3129         1.9079      -999.0000      -999.0000        72.0414      -999.0000         2.3588       -73.3662 
 1463.8376       155.7135      -999.0000         1.3881         1.3127         1.9080      -999.0000      -999.0000        70.9113      -999.0000         2.2904       -73.6351 
 1463.9900       158.2418      -999.0000         1.3878         1.3126         1.9080      -999.0000      -999.0000        69.7813      -999.0000         2.2896       -73.9696 
