~VERSION INFORMATION
 VERS.                 2.0:   CWLS LOG ASCII STANDARD - VERSION 2.0
 WRAP.                  NO:   SINGLE LINE PER DEPTH STEP
~WELL INFORMATION
#MNEM.UNIT       DATA           DESCRIPTION MNEMONIC
#---------    -------------   --------------------------
 STRT.M         20.0000                      : START DEPTH
 STOP.M         2909.1992                     : STOP DEPTH
 STEP.M         0.1524                        : STEP VALUE
 NULL.          -999.0000                     : NULL VALUE
 SRVC.          PYPOZO                        : Service Company/Logging company
 DATE.          03/07/2025                    : LAS file Creation Date
 WELL    .      FURBERO-101                    : Well Name
 COMP    .      PYPOZO 2.0                    : Company
 FLD     .      UNKNOWN                       : Field
 LOC     .      UNKNOWN                       : Location
 LATI    .      0                             : Latitude/Northing
 LONG    .      0                             : Longitude/Easting
 APDAT   .      0                             : Elevation Above Permanent Datum
~CURVE INFORMATION
#MNEM          UNIT     API CODE   Curve Type Comments
#---------- ---------- ----------  ---------- --------
 DEPTH     .M                    : Depth      
 GR        .UNIT                       : GR         
 INV       .OHMM                       : INV        
 LAT       .OHMM                       : LAT        
 LIM       .OHMM                       : LIM        
 LN        .OHMM                       : LN         
 MINV      .OHMM                       : MINV       
 MNOR      .OHMM                       : MNOR       
 NEUT      .UNIT                       : NEUT       
 SIM       .OHMM                       : SIM        
 SN        .OHMM                       : SN         
 SP        .MV                         : SP         
~A Log data section
# ...
 2102.0888        27.6746        36.2872         0.3540         0.7885        21.8709         6.7910         8.6344       191.3234        26.7961        17.0978       -81.9349 
 2102.2412        27.5206        37.1115         0.3538         0.7884        22.2007         7.5910         9.7852       188.0335        26.7961        17.3841       -82.0012 
 2102.3936        27.3665        41.0274         0.3535         0.7883        20.6453         8.3909        10.9360       184.7437        27.3501        17.8493       -82.6599 
 2102.5460        27.2124        43.3945         0.3533         0.7882        21.3051         9.1909        12.0868       181.4538        27.9040        18.2168       -83.0807 
 2102.6984        27.0583        44.7166         0.3530         0.7880        21.9627         9.9909        13.2377       178.1640        28.4580        18.3570       -83.2514 
 2102.8508        26.9043        45.7967         0.3528         0.7879        21.9502        10.7908        14.3885       174.8741        29.0119        18.3558       -83.3242 
 2103.0032        26.7502        46.4380         0.3525         0.7878        24.3295        10.7908        14.3885       171.5843        29.5659        17.0602       -83.7000 
 2103.1556        26.7502        46.2074         0.3523         0.7877        24.3233        10.0289        13.1596       171.5843        29.5659        16.3489       -83.7994 
 2103.3080        28.4640        44.2402         0.3520         0.7875        21.7303         9.2670        11.9307       176.9567        27.8488        15.0764       -84.0458 
 2103.4604        30.1778        42.9016         0.3518         0.7874        21.0084         8.5050        10.7018       182.3291        26.1316        14.2882       -83.7340 
 2103.6128        31.8917        41.4259         0.3515         0.7873        20.2865         7.7431         9.4729       187.7014        24.4145        13.8222       -83.2011 
 2103.7652        33.6055        38.7565         0.3513         0.7872        19.7631         6.9812         8.2440       193.0738        22.6974        13.4533       -82.4001 
 2103.9176        35.3193        36.1821         0.3510         0.7870        19.0747         6.2193         7.0151       198.4462        20.9802        13.1857       -82.1262 
 2104.0700        35.3193        35.2469         0.3508         0.7869        19.6293         6.2193         7.0151       198.4462        19.2631        12.9354       -81.1435 
 2104.2224        44.8710        34.8779         0.3506         0.7868        19.1167         6.1478         6.9055       180.3772        19.2631        12.8355       -80.8735 
 2104.3748        54.4226        32.8750         0.3503         0.7867        16.3374         6.0762         6.7959       162.3081        19.7638        12.5253       -80.5224 
 2104.5272        63.9742        32.8668         0.3501         0.7865        16.0440         6.0047         6.6863       144.2390        20.2646        12.4638       -79.9806 
 2104.6796        73.5259        32.8585         0.3498         0.7864        15.6326         5.9332         6.5767       126.1699        20.7653        12.4626       -79.4388 
 2104.8320        83.0775        32.8501         0.3496         0.7863        14.9441         5.8617         6.4671       108.1008        21.2661        12.4613       -78.8970 
 2104.9844        92.6292        32.1823         0.3493         0.7862        16.3617         5.7902         6.3575        90.0317        21.7669        12.5275       -78.5496 
 2105.1368        92.6292        32.5160         0.3491         0.7860        16.3536         5.7902         6.3575        90.0317        21.7669        12.5268       -78.2787 
 2105.2892        88.5280        33.5007         0.3488         0.7859        14.8950         5.8045         6.9262       103.9751        21.6113        12.4576       -77.8100 
 2105.4416        84.4268        34.1687         0.3486         0.7858        15.0401         5.8188         7.4949       117.9186        21.4558        12.4563       -77.5375 
 2105.5940        80.3256        34.8361         0.3483         0.7857        15.5360         5.8331         8.0636       131.8620        21.3002        12.3199       -76.9957 
 2105.7464        76.2244        36.8540         0.3481         0.7855        15.5179         5.8474         8.6323       145.8054        21.1447        11.9808       -75.9154 
 2105.8988        72.1232        38.8726         0.3478         0.7854        15.5015         5.8617         9.2010       159.7488        20.9892        11.3039       -74.9024 
 2106.0512        68.0220        40.3681         0.3476         0.7853        16.8797         5.8617         9.2010       173.6922        20.8336         9.8962       -73.0607 
 2106.2036        68.0220        40.7019         0.3473         0.7852        16.8403         5.4075         8.2420       173.6922        20.8336         9.1523       -72.2570 
 2106.3560        63.5688        40.1989         0.3471         0.7850        14.0664         4.9534         7.2831       166.4118        18.2604         7.7191       -69.4736 
 2106.5084        59.1155        38.8391         0.3468         0.7849        12.6974         4.4993         6.3242       159.1314        15.6872         6.5692       -66.1498 
 2106.6608        54.6623        37.7623         0.3466         0.7848        10.7109         4.0451         5.3652       151.8510        13.1139         4.8787       -64.7479 
 2106.8132        50.2091        34.6986         0.3464         0.7847         8.6825         3.5910         4.4063       144.5705        10.5407         4.4721       -64.2152 
 2106.9656        45.7559        28.9761         0.3461         0.7845         8.9386         3.1369         3.4474       137.2901         7.9674         5.0821       -63.7192 
 2107.1180        45.7559        27.3125         0.3459         0.7844         8.2582         3.1369         3.4474       137.2901         7.9674         5.1876       -63.7175 
 2107.2704        45.0950        27.3131         0.3456         0.7843         5.2724         3.4927         3.7913       133.1484        10.1815         5.2348       -63.4986 
 2107.4228        44.4342        27.3048         0.3454         0.7842         5.2558         3.8486         4.1353       129.0066        12.3955         6.7584       -63.4953 
 2107.5752        43.7733        27.0269         0.3451         0.7840         5.2392         4.2045         4.4793       124.8648        14.6096         7.7425       -63.4920 
 2107.7276        43.1124        26.6127         0.3449         0.7839         5.2225         4.5603         4.8232       120.7230        16.8237         8.2764       -63.5326 
 2107.8800        42.4516        25.0253         0.3446         0.7838         5.2059         4.9162         5.1672       116.5813        19.0377         8.5098       -64.3606 
 2108.0324        41.7907        24.1896         0.3444         0.7837         7.4211         4.9162         5.1672       112.4395        21.2518         8.7755       -65.4950 
 2108.1848        41.7907        23.6617         0.3441         0.7835         8.0860         4.7160         4.7501       112.4395        21.2518         8.8286       -65.8849 
 2108.3372        42.4090        21.6850         0.3439         0.7834         8.5162         4.5158         4.3330       114.1757        20.0474         8.7366       -66.1735 
 2108.4896        43.0272        20.2006         0.3436         0.7833         8.4996         4.3156         3.9159       115.9120        18.8431         8.4246       -66.7031 
 2108.6420        43.6454        18.4552         0.3434         0.7831         9.1550         4.1153         3.4988       117.6482        17.6387         7.8706       -66.9690 
 2108.7944        44.2637        16.9926         0.3431         0.7830         8.7380         3.9151         3.0817       119.3845        16.4344         7.3931       -67.2349 
 2108.9468        44.8819        15.5719         0.3429         0.7829         8.0694         3.7149         2.6646       121.1207        15.2300         7.1256       -67.5010 
