~VERSION INFORMATION
 VERS.                 2.0:   CWLS LOG ASCII STANDARD - VERSION 2.0
 WRAP.                  NO:   SINGLE LINE PER DEPTH STEP
~WELL INFORMATION
#MNEM.UNIT       DATA           DESCRIPTION MNEMONIC
#---------    -------------   --------------------------
 STRT.M         20.0000                      : START DEPTH
 STOP.M         2909.1992                     : STOP DEPTH
 STEP.M         0.1524                        : STEP VALUE
 NULL.          -999.0000                     : NULL VALUE
 SRVC.          PYPOZO                        : Service Company/Logging company
 DATE.          03/07/2025                    : LAS file Creation Date
 WELL    .      FURBERO-101                    : Well Name
 COMP    .      PYPOZO 2.0                    : Company
 FLD     .      UNKNOWN                       : Field
 LOC     .      UNKNOWN                       : Location
 LATI    .      0                             : Latitude/Northing
 LONG    .      0                             : Longitude/Easting
 APDAT   .      0                             : Elevation Above Permanent Datum
~CURVE INFORMATION
#MNEM          UNIT     API CODE   Curve Type Comments
#---------- ---------- ----------  ---------- --------
 DEPTH     .M                    : Depth      
 GR        .UNIT                       : GR         
 INV       .OHMM                       : INV        
 LAT       .OHMM                       : LAT        
 LIM       .OHMM                       : LIM        
 LN        .OHMM                       : LN         
 MINV      .OHMM                       : MINV       
 MNOR      .OHMM                       : MNOR       
 NEUT      .UNIT                       : NEUT       
 SIM       .OHMM                       : SIM        
 SN        .OHMM                       : SN         
 SP        .MV                         : SP         
~A Log data section
# ...
 2901.2744      -999.0000      -999.0000         0.1690         3.2565         0.4701         0.2747         0.2014      -999.0000      -999.0000         2.3187        -7.8029 
 2901.4268      -999.0000      -999.0000         0.1786         3.1882         0.4701         0.2875         0.2146      -999.0000      -999.0000         2.2595        -7.7894 
 2901.5792      -999.0000      -999.0000         0.1882         3.1198         0.4701         0.3002         0.2278      -999.0000      -999.0000         2.2002        -7.7759 
 2901.7316      -999.0000      -999.0000         0.1978         3.0515         0.4701         0.3130         0.2410      -999.0000      -999.0000         2.1409        -7.7624 
 2901.8840      -999.0000      -999.0000         0.2073         2.9832         0.4701         0.3257         0.2543      -999.0000      -999.0000         2.0817        -7.7489 
 2902.0364      -999.0000      -999.0000         0.2169         2.9149         0.4702         0.3385         0.2675      -999.0000      -999.0000         2.0224        -7.7354 
 2902.1888      -999.0000      -999.0000         0.2265         2.8466         0.4702         0.3512         0.2807      -999.0000      -999.0000         1.9632        -7.7219 
 2902.3412      -999.0000      -999.0000         0.2265         2.8466         0.4702         0.3512         0.2807      -999.0000      -999.0000         1.9632        -7.7219 
 2902.4936      -999.0000      -999.0000         0.2380         2.6513         0.5849         0.3511         0.2747      -999.0000      -999.0000         1.8260        -7.7104 
 2902.6460      -999.0000      -999.0000         0.2494         2.4560         0.6997         0.3510         0.2688      -999.0000      -999.0000         1.6887        -7.6989 
 2902.7984      -999.0000      -999.0000         0.2609         2.2607         0.8144         0.3510         0.2628      -999.0000      -999.0000         1.5515        -7.6875 
 2902.9508      -999.0000      -999.0000         0.2724         2.0654         0.9292         0.3509         0.2569      -999.0000      -999.0000         1.4143        -7.6760 
 2903.1032      -999.0000      -999.0000         0.2838         1.8702         1.0439         0.3508         0.2509      -999.0000      -999.0000         1.2771        -7.6645 
 2903.2556      -999.0000      -999.0000         0.2838         1.8702         1.0439         0.3508         0.2509      -999.0000      -999.0000         1.2771        -7.6645 
 2903.4080      -999.0000      -999.0000         0.2842         1.7762         1.1967         0.3510         0.2509      -999.0000      -999.0000         1.2268        -7.6645 
 2903.5604      -999.0000      -999.0000         0.2847         1.6823         1.3495         0.3512         0.2509      -999.0000      -999.0000         1.1766        -7.6645 
 2903.7128      -999.0000      -999.0000         0.2851         1.5884         1.5023         0.3515         0.2509      -999.0000      -999.0000         1.1263        -7.6645 
 2903.8652      -999.0000      -999.0000         0.2855         1.4944         1.6551         0.3517         0.2509      -999.0000      -999.0000         1.0761        -7.6645 
 2904.0176      -999.0000      -999.0000         0.2859         1.4005         1.8079         0.3519         0.2510      -999.0000      -999.0000         1.0258        -7.6645 
 2904.1700      -999.0000      -999.0000         0.2863         1.3066         1.9607         0.3521         0.2510      -999.0000      -999.0000         0.9756        -7.6645 
 2904.3224      -999.0000      -999.0000         0.2863         1.3066         1.9607         0.3521         0.2510      -999.0000      -999.0000         0.9756        -7.6645 
 2904.4748      -999.0000      -999.0000         0.2863         1.2193         2.1414         0.3510         0.2415      -999.0000      -999.0000         3.1459        -7.6632 
 2904.6272      -999.0000      -999.0000         0.2863         1.1319         2.3220         0.3498         0.2320      -999.0000      -999.0000         5.3163        -7.6618 
 2904.7796      -999.0000      -999.0000         0.2863         1.0446         2.5026         0.3487         0.2226      -999.0000      -999.0000         7.4866        -7.6605 
 2904.9320      -999.0000      -999.0000         0.2863         0.9572         2.6832         0.3475         0.2131      -999.0000      -999.0000         9.6570        -7.6591 
 2905.0844      -999.0000      -999.0000         0.2863         0.8699         2.8639         0.3464         0.2036      -999.0000      -999.0000        11.8273        -7.6578 
 2905.2368      -999.0000      -999.0000         0.2863         0.8699         2.8639         0.3464         0.2036      -999.0000      -999.0000        11.8273        -7.6578 
 2905.3892      -999.0000      -999.0000         0.2863         0.8476         2.8638         0.3265         0.2035      -999.0000      -999.0000        11.8092        -7.5747 
 2905.5416      -999.0000      -999.0000         0.2863         0.8252         2.8636         0.3066         0.2034      -999.0000      -999.0000        11.7910        -7.4917 
 2905.6940      -999.0000      -999.0000         0.2863         0.8028         2.8635         0.2867         0.2034      -999.0000      -999.0000        11.7729        -7.4086 
 2905.8464      -999.0000      -999.0000         0.2863         0.7805         2.8634         0.2668         0.2033      -999.0000      -999.0000        11.7547        -7.3255 
 2905.9988      -999.0000      -999.0000         0.2863         0.7581         2.8633         0.2469         0.2032      -999.0000      -999.0000        11.7366        -7.2424 
 2906.1512      -999.0000      -999.0000         0.2863         0.7358         2.8632         0.2270         0.2031      -999.0000      -999.0000        11.7184        -7.1594 
 2906.3036      -999.0000      -999.0000         0.2863         0.7358         2.8632         0.2270         0.2031      -999.0000      -999.0000        11.7184        -7.1594 
 2906.4560      -999.0000      -999.0000         0.2863         0.6968         2.8892         0.2652         0.2127      -999.0000      -999.0000        11.1575        -7.0611 
 2906.6084      -999.0000      -999.0000         0.2862         0.6578         2.9152         0.3034         0.2222      -999.0000      -999.0000        10.5965        -6.9628 
 2906.7608      -999.0000      -999.0000         0.2862         0.6188         2.9413         0.3417         0.2318      -999.0000      -999.0000        10.0356        -6.8645 
 2906.9132      -999.0000      -999.0000         0.2862         0.5799         2.9673         0.3799         0.2413      -999.0000      -999.0000         9.4746        -6.7662 
 2907.0656      -999.0000      -999.0000         0.2861         0.5409         2.9933         0.4181         0.2509      -999.0000      -999.0000         8.9137        -6.6680 
 2907.2180      -999.0000      -999.0000         0.2861         0.5409         2.9933         0.4181         0.2509      -999.0000      -999.0000         8.9137        -6.6680 
 2907.3704      -999.0000      -999.0000         0.3258         0.5155         3.1182         0.4132         0.2509      -999.0000      -999.0000         8.4566        -6.5951 
 2907.5228      -999.0000      -999.0000         0.3655         0.4901         3.2432         0.4084         0.2509      -999.0000      -999.0000         7.9996        -6.5222 
 2907.6752      -999.0000      -999.0000         0.4053         0.4647         3.3681         0.4035         0.2509      -999.0000      -999.0000         7.5425        -6.4493 
 2907.8276      -999.0000      -999.0000         0.4450         0.4393         3.4931         0.3987         0.2509      -999.0000      -999.0000         7.0854        -6.3764 
 2907.9800      -999.0000      -999.0000         0.4847         0.4139         3.6180         0.3938         0.2509      -999.0000      -999.0000         6.6283        -6.3036 
 2908.1324      -999.0000      -999.0000         0.5244         0.3885         3.7430         0.3889         0.2509      -999.0000      -999.0000         6.1713        -6.2307 
