~VERSION INFORMATION
 VERS.                 2.0:   CWLS LOG ASCII STANDARD - VERSION 2.0
 WRAP.                  NO:   SINGLE LINE PER DEPTH STEP
~WELL INFORMATION
#MNEM.UNIT       DATA           DESCRIPTION MNEMONIC
#---------    -------------   --------------------------
 STRT.M         20.0000                      : START DEPTH
 STOP.M         2909.1992                     : STOP DEPTH
 STEP.M         0.1524                        : STEP VALUE
 NULL.          -999.0000                     : NULL VALUE
 SRVC.          PYPOZO                        : Service Company/Logging company
 DATE.          03/07/2025                    : LAS file Creation Date
 WELL    .      FURBERO-101                    : Well Name
 COMP    .      PYPOZO 2.0                    : Company
 FLD     .      UNKNOWN                       : Field
 LOC     .      UNKNOWN                       : Location
 LATI    .      0                             : Latitude/Northing
 LONG    .      0                             : Longitude/Easting
 APDAT   .      0                             : Elevation Above Permanent Datum
~CURVE INFORMATION
#MNEM          UNIT     API CODE   Curve Type Comments
#---------- ---------- ----------  ---------- --------
 DEPTH     .M                    : Depth      
 GR        .UNIT                       : GR         
 INV       .OHMM                       : INV        
 LAT       .OHMM                       : LAT        
 LIM       .OHMM                       : LIM        
 LN        .OHMM                       : LN         
 MINV      .OHMM                       : MINV       
 MNOR      .OHMM                       : MNOR       
 NEUT      .UNIT                       : NEUT       
 SIM       .OHMM                       : SIM        
 SN        .OHMM                       : SN         
 SP        .MV                         : SP         
~A Log data section
# ...
  496.7072      -999.0000      -999.0000         3.0933         1.7432         1.1726      -999.0000      -999.0000      -999.0000      -999.0000         2.2726       -75.6813 
  496.8596      -999.0000      -999.0000         3.1526         1.7333         1.2111      -999.0000      -999.0000      -999.0000      -999.0000         2.2342       -74.0336 
  497.0120      -999.0000      -999.0000         3.2315         1.8423         1.2496      -999.0000      -999.0000      -999.0000      -999.0000         2.2258       -72.7301 
  497.1644      -999.0000      -999.0000         3.3067         1.8553         1.2882      -999.0000      -999.0000      -999.0000      -999.0000         2.2167       -76.9938 
  497.3168      -999.0000      -999.0000         3.3869         1.7721         1.3269      -999.0000      -999.0000      -999.0000      -999.0000         2.2240       -77.6240 
  497.4692      -999.0000      -999.0000         3.3605         1.7040         1.3650      -999.0000      -999.0000      -999.0000      -999.0000         2.2015       -78.8277 
  497.6216      -999.0000      -999.0000         3.2562         1.7056         1.4007      -999.0000      -999.0000      -999.0000      -999.0000         2.1820       -76.7467 
  497.7740      -999.0000      -999.0000         3.2255         1.7690         1.3972      -999.0000      -999.0000      -999.0000      -999.0000         2.1684       -73.1017 
  497.9264      -999.0000      -999.0000         3.3139         1.8057         1.3355      -999.0000      -999.0000      -999.0000      -999.0000         2.1742       -75.6572 
  498.0788      -999.0000      -999.0000         3.4452         1.7797         1.2970      -999.0000      -999.0000      -999.0000      -999.0000         2.2046       -77.3384 
  498.2312      -999.0000      -999.0000         3.5367         1.7634         1.2549      -999.0000      -999.0000      -999.0000      -999.0000         2.2130       -77.0064 
  498.3836      -999.0000      -999.0000         3.5852         1.7285         1.2103      -999.0000      -999.0000      -999.0000      -999.0000         2.1760       -74.9733 
  498.5360      -999.0000      -999.0000         3.5761         1.6489         1.2129      -999.0000      -999.0000      -999.0000      -999.0000         2.1332       -73.9846 
  498.6884      -999.0000      -999.0000         3.4860         1.5978         1.2233      -999.0000      -999.0000      -999.0000      -999.0000         2.1078       -71.6291 
  498.8408      -999.0000      -999.0000         3.3983         1.5473         1.2336      -999.0000      -999.0000      -999.0000      -999.0000         2.0905       -73.7327 
  498.9932       170.6250      -999.0000         3.3109         1.6147         1.2436      -999.0000      -999.0000        40.4250      -999.0000         2.1098       -75.7230 
  499.1456       170.6250      -999.0000         3.2238         1.6610         1.2416      -999.0000      -999.0000        40.4250      -999.0000         2.1085       -77.5986 
  499.2980       170.6250      -999.0000         3.1369         1.6587         1.1530      -999.0000      -999.0000        40.4250      -999.0000         2.1082       -79.0861 
  499.4504       170.6250      -999.0000         3.0500         1.6435         1.0624      -999.0000      -999.0000        40.4250      -999.0000         2.1094       -80.6335 
  499.6028       170.6250      -999.0000         2.9879         1.6264         1.0297      -999.0000      -999.0000        40.4250      -999.0000         2.1256       -84.0159 
  499.7552       170.6250      -999.0000         2.9343         1.6231         1.0300      -999.0000      -999.0000        40.4250      -999.0000         2.1192       -86.9397 
  499.9076       170.6250      -999.0000         2.8806         1.6902         1.0283      -999.0000      -999.0000        40.4250      -999.0000         1.2060       -81.5080 
  500.0600       170.6250      -999.0000         2.8281         1.7606         0.9849      -999.0000      -999.0000        40.4250      -999.0000         1.2125       -81.5361 
  500.2124       170.6250      -999.0000         2.7779         1.8051         0.9849      -999.0000      -999.0000        40.4250      -999.0000         1.2276       -80.8466 
  500.3648       169.6143      -999.0000         2.9109         1.8497         0.9885      -999.0000      -999.0000        40.3088      -999.0000         1.2572       -80.4847 
  500.5172       168.6037      -999.0000         3.0540         1.7674         1.0165      -999.0000      -999.0000        40.1926      -999.0000         1.2772       -80.6681 
  500.6696       167.5930      -999.0000         3.2640         1.7971         1.0448      -999.0000      -999.0000        40.0764      -999.0000         1.2897       -80.3783 
  500.8220       166.5824      -999.0000         3.4744         1.8469         1.0730      -999.0000      -999.0000        39.9602      -999.0000         1.2990       -79.9203 
  500.9744       165.5717      -999.0000         3.5701         1.8454         1.1011      -999.0000      -999.0000        39.8439      -999.0000         1.3080       -78.9124 
  501.1268       165.5717      -999.0000         3.3831         1.8457         1.1293      -999.0000      -999.0000        39.8439      -999.0000         1.3105       -77.9522 
  501.2792       164.8786      -999.0000         3.1990         1.8468         1.1575      -999.0000      -999.0000        37.3372      -999.0000         1.3686       -77.3328 
  501.4316       164.1856      -999.0000         3.0155         1.8719         1.1856      -999.0000      -999.0000        34.8305      -999.0000         1.3938       -74.9108 
  501.5840       163.4925      -999.0000         2.8150         1.9213         1.2122      -999.0000      -999.0000        32.3238      -999.0000         1.4512       -72.2743 
  501.7364       162.7994      -999.0000         2.5897         1.9189         1.2294      -999.0000      -999.0000        29.8171      -999.0000         1.4530       -68.0320 
  501.8888       162.1063      -999.0000         2.3633         1.9698         1.2471      -999.0000      -999.0000        27.3104      -999.0000         1.5184       -66.0495 
  502.0412       161.4133      -999.0000         2.2845         2.0389         1.2648      -999.0000      -999.0000        24.8037      -999.0000         1.5925       -64.5783 
  502.1936       161.4133      -999.0000         2.3635         2.1080         1.2825      -999.0000      -999.0000        24.8037      -999.0000         1.7451       -66.0558 
  502.3460       166.8663      -999.0000         2.4573         2.1775         1.3001      -999.0000      -999.0000        28.1272      -999.0000         1.9827       -70.8594 
  502.4984       172.3193      -999.0000         2.7233         2.2196         1.3178      -999.0000      -999.0000        31.4508      -999.0000         2.2628       -73.9196 
  502.6508       177.7723      -999.0000         2.9381         2.1517         1.3355      -999.0000      -999.0000        34.7744      -999.0000         2.5056       -74.3183 
  502.8032       183.2253      -999.0000         2.9449         2.1019         1.3532      -999.0000      -999.0000        38.0980      -999.0000         2.6226       -74.0083 
  502.9556       188.6783      -999.0000         2.9449         2.1019         1.3532      -999.0000      -999.0000        41.4216      -999.0000         2.7061       -74.2786 
  503.1080       188.6783      -999.0000         2.9447         2.1018         1.3533      -999.0000      -999.0000        41.4216      -999.0000         2.7397       -74.6820 
  503.2604       187.5425      -999.0000         2.9444         2.1016         1.3534      -999.0000      -999.0000        40.7685      -999.0000         2.7732       -74.9502 
  503.4128       186.4066      -999.0000         2.9442         2.1015         1.3535      -999.0000      -999.0000        40.1154      -999.0000         2.8068       -75.0833 
  503.5652       185.2708      -999.0000         2.9439         2.1014         1.3536      -999.0000      -999.0000        39.4622      -999.0000         2.8194       -75.0812 
