~VERSION INFORMATION
 VERS.                 2.0:   CWLS LOG ASCII STANDARD - VERSION 2.0
 WRAP.                  NO:   SINGLE LINE PER DEPTH STEP
~WELL INFORMATION
#MNEM.UNIT       DATA           DESCRIPTION MNEMONIC
#---------    -------------   --------------------------
 STRT.M         20.0000                      : START DEPTH
 STOP.M         2909.1992                     : STOP DEPTH
 STEP.M         0.1524                        : STEP VALUE
 NULL.          -999.0000                     : NULL VALUE
 SRVC.          PYPOZO                        : Service Company/Logging company
 DATE.          03/07/2025                    : LAS file Creation Date
 WELL    .      FURBERO-101                    : Well Name
 COMP    .      PYPOZO 2.0                    : Company
 FLD     .      UNKNOWN                       : Field
 LOC     .      UNKNOWN                       : Location
 LATI    .      0                             : Latitude/Northing
 LONG    .      0                             : Longitude/Easting
 APDAT   .      0                             : Elevation Above Permanent Datum
~CURVE INFORMATION
#MNEM          UNIT     API CODE   Curve Type Comments
#---------- ---------- ----------  ---------- --------
 DEPTH     .M                    : Depth      
 GR        .UNIT                       : GR         
 INV       .OHMM                       : INV        
 LAT       .OHMM                       : LAT        
 LIM       .OHMM                       : LIM        
 LN        .OHMM                       : LN         
 MINV      .OHMM                       : MINV       
 MNOR      .OHMM                       : MNOR       
 NEUT      .UNIT                       : NEUT       
 SIM       .OHMM                       : SIM        
 SN        .OHMM                       : SN         
 SP        .MV                         : SP         
~A Log data section
# ...
 1940.8496        56.1307         7.9980         0.6152         0.9210         6.6129        13.5684         9.4251        91.3450        12.4102         7.1096       -79.6375 
 1941.0020        57.5795         8.4142         0.6150         0.9208         8.4113        13.5684         9.4251        93.2697        12.0008         7.2082       -80.4633 
 1941.1544        57.5795         8.1777         0.6148         0.9207         8.4008        13.0599         9.8997        93.2697        12.0008         7.5024       -80.4625 
 1941.3068        57.3041         7.5040         0.6145         0.9206         6.5500        12.5514        10.3743        86.4225        13.8231         8.7254       -80.7097 
 1941.4592        57.0288         7.6124         0.6143         0.9205         6.5290        12.0430        10.8489        79.5753        15.6454         9.1879       -80.7080 
 1941.6116        56.7534         8.1292         0.6140         0.9203         6.5122        11.5345        11.3235        72.7281        17.4677         9.5722       -80.7064 
 1941.7640        56.4781         8.7796         0.6138         0.9202         6.8674        11.0261        11.7981        65.8809        19.2900         9.7597       -80.7048 
 1941.9164        56.2027         8.7534         0.6135         0.9201         7.1433        10.5176        12.2727        59.0337        21.1123         9.8854       -80.7031 
 1942.0688        56.2027         8.9600         0.6133         0.9200         9.8504        10.5176        12.2727        59.0337        22.9346         9.3809       -80.4316 
 1942.2212        56.7832         9.2853         0.6130         0.9198         9.8402         9.5512        10.9834        61.7671        22.9346         9.2140       -80.4308 
 1942.3736        57.3636         9.3542         0.6128         0.9197         7.0818         8.5848         9.6940        64.5005        20.3131         8.7317       -80.4290 
 1942.5260        57.9440         9.3289         0.6125         0.9196         7.7369         7.6184         8.4047        67.2339        17.6917         8.0544       -80.4273 
 1942.6784        58.5245         9.3037         0.6123         0.9195         7.5190         6.6520         7.1153        69.9673        15.0703         7.4446       -80.1155 
 1942.8308        59.1049         8.6028         0.6120         0.9193         7.0204         5.6855         5.8259        72.7007        12.4488         6.9023       -79.3196 
 1942.9832        59.6854         7.3009         0.6118         0.9192         9.2507         4.7191         4.5366        75.4340         9.8274         5.6064       -78.6643 
 1943.1356        59.6854         6.9504         0.6115         0.9191         8.9044         4.7191         4.5366        75.4340         9.8274         5.2001       -78.5359 
 1943.2880        60.7369         6.5000         0.6113         0.9190         5.6148         5.2739         4.0868        78.5986         9.2156         4.4649       -78.5345 
 1943.4404        61.7884         6.4747         0.6110         0.9188         4.8810         5.8286         3.6370        81.7632         8.6037         4.3280       -78.2635 
 1943.5928        62.8398         5.7789         0.6108         0.9187         3.5474         6.3833         3.1872        84.9277         7.9918         4.4345       -77.9926 
 1943.7452        63.8913         6.4298         0.6106         0.9186         2.8649         6.9380         2.7375        88.0923         7.3800         4.5652       -77.4525 
 1943.8976        64.9428         6.4051         0.6103         0.9185         2.1719         7.4927         2.2877        91.2569         6.7681         4.7633       -77.4508 
 1944.0500        65.9943         5.6496         0.6101         0.9183         4.4092         7.4927         2.2877        94.4214         6.1563         4.6781       -77.1792 
 1944.2024        65.9943         5.6373         0.6098         0.9182         4.3987         7.1672         3.7885        94.4214         6.1563         4.8096       -77.1783 
 1944.3548        72.1730         6.3310         0.6096         0.9181         0.0929         6.8416         5.2893        89.3190         7.5718         5.4511       -77.1768 
 1944.5072        78.3517         6.3063         0.6093         0.9180         0.0720         6.5160         6.7901        84.2166         8.9873         5.7138       -77.1752 
 1944.6596        84.5304         6.2815         0.6091         0.9178         0.0510         6.1904         8.2909        79.1143        10.4027         5.9965       -77.3111 
 1944.8120        90.7091         6.2568         0.6088         0.9177         0.7021         5.8648         9.7917        74.0119        11.8182         6.3915       -77.8348 
 1944.9644        96.8878         6.2321         0.6086         0.9176         0.6811         5.5393        11.2925        68.9095        13.2337         6.7332       -78.2472 
 1945.1168        96.8878         7.2259         0.6083         0.9175         4.1723         5.5393        11.2925        68.9095        14.6492         7.1212       -78.6634 
 1945.2692        98.1647         7.2135         0.6081         0.9173         4.4830         6.5785        10.7741        71.4538        14.6492         7.3089       -78.7904 
 1945.4216        99.4417         6.1580         0.6078         0.9172         2.6399         7.6177        10.2557        73.9981        14.1504         7.8205       -79.0502 
 1945.5740       100.7186         6.1333         0.6076         0.9171         2.9077         8.6570         9.7372        76.5425        13.6516         7.5388       -79.0483 
 1945.7264       101.9955         6.1084         0.6073         0.9170         3.2750         9.6962         9.2188        79.0868        13.1528         7.0739       -79.0019 
 1945.8788       103.2725         6.7595         0.6071         0.9168         4.1500        10.7354         8.7004        81.6311        12.6540         6.6668       -78.7758 
 1946.0312       104.5494         7.4187         0.6069         0.9167         7.1161        10.7354         8.7004        84.1754        12.1552         6.2263       -78.3650 
 1946.1836       104.5494         7.4060         0.6066         0.9166         7.3445        11.4396         9.4543        84.1754        12.1552         6.1241       -78.2387 
 1946.3360       103.4291         6.6831         0.6064         0.9165         5.2052        12.1438        10.2082        81.4677        12.2572         6.0536       -78.2324 
 1946.4884       102.3089         6.6578         0.6061         0.9163         5.1847        12.8480        10.9621        78.7599        12.3592         5.9844       -78.5000 
 1946.6408       101.1886         6.6326         0.6059         0.9162         5.1642        13.5523        11.7160        76.0521        12.4612         5.9827       -79.0367 
 1946.7932       100.0684         6.6073         0.6056         0.9161         5.1437        14.2565        12.4699        73.3444        12.5632         6.2513       -79.3044 
 1946.9456        98.9481         6.5820         0.6054         0.9160         5.1232        14.9607        13.2238        70.6366        12.6652         6.6550       -79.8411 
 1947.0980        98.9481         6.9040         0.6051         0.9158         6.6389        14.9607        13.2238        70.6366        12.7673         6.7099       -79.9096 
 1947.2504        97.3124         6.8916         0.6049         0.9157         6.9644        14.1261        11.5028        70.1298        12.7673         6.9601       -80.0435 
 1947.4028        95.6767         7.1880         0.6046         0.9156         5.7326        13.2916         9.7817        69.6231        13.1303         7.8691       -80.1052 
 1947.5552        94.0410         7.1633         0.6044         0.9155         5.7117        12.4570         8.0607        69.1164        13.4933         7.7333       -80.1039 
 1947.7076        92.4053         7.8143         0.6041         0.9153         5.6907        11.6224         6.3396        68.6096        13.8563         7.3032       -80.1023 
