~VERSION INFORMATION
 VERS.                 2.0:   CWLS LOG ASCII STANDARD - VERSION 2.0
 WRAP.                  NO:   SINGLE LINE PER DEPTH STEP
~WELL INFORMATION
#MNEM.UNIT       DATA           DESCRIPTION MNEMONIC
#---------    -------------   --------------------------
 STRT.M         20.0000                      : START DEPTH
 STOP.M         2909.1992                     : STOP DEPTH
 STEP.M         0.1524                        : STEP VALUE
 NULL.          -999.0000                     : NULL VALUE
 SRVC.          PYPOZO                        : Service Company/Logging company
 DATE.          03/07/2025                    : LAS file Creation Date
 WELL    .      FURBERO-101                    : Well Name
 COMP    .      PYPOZO 2.0                    : Company
 FLD     .      UNKNOWN                       : Field
 LOC     .      UNKNOWN                       : Location
 LATI    .      0                             : Latitude/Northing
 LONG    .      0                             : Longitude/Easting
 APDAT   .      0                             : Elevation Above Permanent Datum
~CURVE INFORMATION
#MNEM          UNIT     API CODE   Curve Type Comments
#---------- ---------- ----------  ---------- --------
 DEPTH     .M                    : Depth      
 GR        .UNIT                       : GR         
 INV       .OHMM                       : INV        
 LAT       .OHMM                       : LAT        
 LIM       .OHMM                       : LIM        
 LN        .OHMM                       : LN         
 MINV      .OHMM                       : MINV       
 MNOR      .OHMM                       : MNOR       
 NEUT      .UNIT                       : NEUT       
 SIM       .OHMM                       : SIM        
 SN        .OHMM                       : SN         
 SP        .MV                         : SP         
~A Log data section
# ...
 2417.5568      -999.0000      -999.0000        14.3992        35.6836        41.9943        12.8936         4.2311      -999.0000      -999.0000        32.3035       -17.6033 
 2417.7092      -999.0000      -999.0000        13.9801        36.4060        41.8286        11.9566         3.9952      -999.0000      -999.0000        32.7076       -17.7413 
 2417.8616      -999.0000      -999.0000        13.5611        37.1284        41.6630        11.0196         3.7593      -999.0000      -999.0000        33.1117       -17.8793 
 2418.0140      -999.0000      -999.0000        13.1420        37.8507        41.4974        10.0825         3.5235      -999.0000      -999.0000        33.5158       -18.0173 
 2418.1664      -999.0000      -999.0000        12.7230        38.5731        41.3317         9.1455         3.2876      -999.0000      -999.0000        33.9200       -18.1552 
 2418.3188      -999.0000      -999.0000        12.7230        38.5731        41.3317         9.1455         3.2876      -999.0000      -999.0000        33.9200       -18.1552 
 2418.4712      -999.0000      -999.0000        13.0085        37.7235        42.4272         9.5513         3.0832      -999.0000      -999.0000        33.9198       -18.1905 
 2418.6236      -999.0000      -999.0000        13.2939        36.8738        43.5228         9.9571         2.8788      -999.0000      -999.0000        33.9196       -18.2258 
 2418.7760      -999.0000      -999.0000        13.5794        36.0242        44.6183        10.3629         2.6745      -999.0000      -999.0000        33.9194       -18.2610 
 2418.9284      -999.0000      -999.0000        13.8649        35.1746        45.7138        10.7688         2.4701      -999.0000      -999.0000        33.9192       -18.2963 
 2419.0808      -999.0000      -999.0000        14.1504        34.3250        46.8093        11.1746         2.2657      -999.0000      -999.0000        33.9190       -18.3315 
 2419.2332      -999.0000      -999.0000        14.1504        34.3250        46.8093        11.1746         2.2657      -999.0000      -999.0000        33.9190       -18.3315 
 2419.3856      -999.0000      -999.0000        14.1788        34.1021        47.3961        10.5589         2.2016      -999.0000      -999.0000        34.1682       -18.1564 
 2419.5380      -999.0000      -999.0000        14.2072        33.8793        47.9829         9.9432         2.1376      -999.0000      -999.0000        34.4174       -17.9813 
 2419.6904      -999.0000      -999.0000        14.2356        33.6564        48.5697         9.3275         2.0735      -999.0000      -999.0000        34.6665       -17.8061 
 2419.8428      -999.0000      -999.0000        14.2640        33.4336        49.1565         8.7118         2.0094      -999.0000      -999.0000        34.9157       -17.6310 
 2419.9952      -999.0000      -999.0000        14.2924        33.2108        49.7434         8.0961         1.9453      -999.0000      -999.0000        35.1649       -17.4558 
 2420.1476      -999.0000      -999.0000        14.3208        32.9879        50.3302         7.4805         1.8813      -999.0000      -999.0000        35.4141       -17.2807 
 2420.3000      -999.0000      -999.0000        14.3208        32.9879        50.3302         7.4805         1.8813      -999.0000      -999.0000        35.4141       -17.2807 
 2420.4524      -999.0000      -999.0000        15.5862        35.9357        50.5204         7.5964         2.1925      -999.0000      -999.0000        36.3757       -17.5290 
 2420.6048      -999.0000      -999.0000        16.8515        38.8836        50.7105         7.7124         2.5038      -999.0000      -999.0000        37.3374       -17.7774 
 2420.7572      -999.0000      -999.0000        18.1169        41.8314        50.9007         7.8283         2.8150      -999.0000      -999.0000        38.2990       -18.0257 
 2420.9096      -999.0000      -999.0000        19.3822        44.7792        51.0908         7.9443         3.1263      -999.0000      -999.0000        39.2606       -18.2740 
 2421.0620      -999.0000      -999.0000        20.6476        47.7270        51.2810         8.0602         3.4376      -999.0000      -999.0000        40.2222       -18.5224 
 2421.2144      -999.0000      -999.0000        20.6476        47.7270        51.2810         8.0602         3.4376      -999.0000      -999.0000        40.2222       -18.5224 
 2421.3668      -999.0000      -999.0000        22.5734        45.6492        52.3654         7.7535         3.2431      -999.0000      -999.0000        38.6346       -18.4598 
 2421.5192      -999.0000      -999.0000        24.4993        43.5714        53.4497         7.4467         3.0486      -999.0000      -999.0000        37.0469       -18.3973 
 2421.6716      -999.0000      -999.0000        26.4252        41.4936        54.5340         7.1400         2.8542      -999.0000      -999.0000        35.4592       -18.3347 
 2421.8240      -999.0000      -999.0000        28.3510        39.4158        55.6184         6.8332         2.6597      -999.0000      -999.0000        33.8715       -18.2722 
 2421.9764      -999.0000      -999.0000        30.2769        37.3380        56.7027         6.5265         2.4652      -999.0000      -999.0000        32.2838       -18.2096 
 2422.1288      -999.0000      -999.0000        32.2027        35.2602        57.7871         6.2198         2.2707      -999.0000      -999.0000        30.6962       -18.1471 
 2422.2812      -999.0000      -999.0000        32.2027        35.2602        57.7871         6.2198         2.2707      -999.0000      -999.0000        30.6962       -18.1471 
 2422.4336      -999.0000      -999.0000        32.1714        34.0418        56.1354         6.1883         2.0518      -999.0000      -999.0000        29.2249       -18.4919 
 2422.5860      -999.0000      -999.0000        32.1401        32.8233        54.4837         6.1568         1.8329      -999.0000      -999.0000        27.7536       -18.8367 
 2422.7384      -999.0000      -999.0000        32.1088        31.6048        52.8320         6.1253         1.6140      -999.0000      -999.0000        26.2823       -19.1816 
 2422.8908      -999.0000      -999.0000        32.0775        30.3864        51.1804         6.0939         1.3951      -999.0000      -999.0000        24.8110       -19.5264 
 2423.0432      -999.0000      -999.0000        32.0461        29.1679        49.5287         6.0624         1.1762      -999.0000      -999.0000        23.3397       -19.8712 
 2423.1956      -999.0000      -999.0000        32.0461        29.1679        49.5287         6.0624         1.1762      -999.0000      -999.0000        23.3397       -19.8712 
 2423.3480      -999.0000      -999.0000        29.7440        26.6322        46.6923         6.9686         1.7001      -999.0000      -999.0000        21.9154       -19.6680 
 2423.5004      -999.0000      -999.0000        27.4419        24.0965        43.8560         7.8749         2.2239      -999.0000      -999.0000        20.4911       -19.4648 
 2423.6528      -999.0000      -999.0000        25.1397        21.5608        41.0196         8.7811         2.7478      -999.0000      -999.0000        19.0668       -19.2616 
 2423.8052      -999.0000      -999.0000        22.8376        19.0251        38.1833         9.6874         3.2717      -999.0000      -999.0000        17.6425       -19.0585 
 2423.9576      -999.0000      -999.0000        20.5354        16.4893        35.3470        10.5936         3.7956      -999.0000      -999.0000        16.2182       -18.8553 
 2424.1100      -999.0000      -999.0000        18.2333        13.9536        32.5106        11.4999         4.3195      -999.0000      -999.0000        14.7939       -18.6521 
 2424.2624      -999.0000      -999.0000        18.2333        13.9536        32.5106        11.4999         4.3195      -999.0000      -999.0000        14.7939       -18.6521 
 2424.4148      -999.0000      -999.0000        17.1505        17.0622        30.6265        10.5266         3.8846      -999.0000      -999.0000        15.8714       -18.6734 
