~VERSION INFORMATION
 VERS.                 2.0:   CWLS LOG ASCII STANDARD - VERSION 2.0
 WRAP.                  NO:   SINGLE LINE PER DEPTH STEP
~WELL INFORMATION
#MNEM.UNIT       DATA           DESCRIPTION MNEMONIC
#---------    -------------   --------------------------
 STRT.M         20.0000                      : START DEPTH
 STOP.M         2909.1992                     : STOP DEPTH
 STEP.M         0.1524                        : STEP VALUE
 NULL.          -999.0000                     : NULL VALUE
 SRVC.          PYPOZO                        : Service Company/Logging company
 DATE.          03/07/2025                    : LAS file Creation Date
 WELL    .      FURBERO-101                    : Well Name
 COMP    .      PYPOZO 2.0                    : Company
 FLD     .      UNKNOWN                       : Field
 LOC     .      UNKNOWN                       : Location
 LATI    .      0                             : Latitude/Northing
 LONG    .      0                             : Longitude/Easting
 APDAT   .      0                             : Elevation Above Permanent Datum
~CURVE INFORMATION
#MNEM          UNIT     API CODE   Curve Type Comments
#---------- ---------- ----------  ---------- --------
 DEPTH     .M                    : Depth      
 GR        .UNIT                       : GR         
 INV       .OHMM                       : INV        
 LAT       .OHMM                       : LAT        
 LIM       .OHMM                       : LIM        
 LN        .OHMM                       : LN         
 MINV      .OHMM                       : MINV       
 MNOR      .OHMM                       : MNOR       
 NEUT      .UNIT                       : NEUT       
 SIM       .OHMM                       : SIM        
 SN        .OHMM                       : SN         
 SP        .MV                         : SP         
~A Log data section
# ...
 1618.3712       134.9714      -999.0000         1.1377         1.1858         1.9972      -999.0000      -999.0000        64.7576      -999.0000         2.7931       -75.4777 
 1618.5236       134.7103      -999.0000         1.1375         1.1857         1.9973      -999.0000      -999.0000        69.3789      -999.0000         2.8584       -75.3832 
 1618.6760       134.4491      -999.0000         1.1372         1.1856         1.9974      -999.0000      -999.0000        74.0001      -999.0000         2.9239       -75.2042 
 1618.8284       134.1880      -999.0000         1.1370         1.1854         1.9974      -999.0000      -999.0000        78.6214      -999.0000         2.9219       -75.1244 
 1618.9808       133.9268      -999.0000         1.1367         1.1853         1.9975      -999.0000      -999.0000        83.2427      -999.0000         2.9876       -74.9306 
 1619.1332       133.9268      -999.0000         1.1365         1.1852         1.9976      -999.0000      -999.0000        83.2427      -999.0000         2.9177       -74.6587 
 1619.2856       133.3101      -999.0000         1.1362         1.1851         1.9977      -999.0000      -999.0000        80.6919      -999.0000         2.8481       -74.6571 
 1619.4380       132.6933      -999.0000         1.1360         1.1849         1.9978      -999.0000      -999.0000        78.1410      -999.0000         2.7784       -74.6554 
 1619.5904       132.0766      -999.0000         1.1357         1.1848         1.9979      -999.0000      -999.0000        75.5902      -999.0000         2.6412       -74.6538 
 1619.7428       131.4599      -999.0000         1.1355         1.1847         1.9980      -999.0000      -999.0000        73.0393      -999.0000         2.5040       -74.3818 
 1619.8952       130.8431      -999.0000         1.1353         1.1846         1.9981      -999.0000      -999.0000        70.4885      -999.0000         2.4344       -74.3802 
 1620.0476       130.2264      -999.0000         1.1350         1.1844         1.9981      -999.0000      -999.0000        67.9377      -999.0000         2.4323       -74.1083 
 1620.2000       130.2264      -999.0000         1.1348         1.1843         1.9982      -999.0000      -999.0000        67.9377      -999.0000         2.4302       -73.8363 
 1620.3524       130.1970      -999.0000         1.1345         1.1842         1.9983      -999.0000      -999.0000        68.3140      -999.0000         2.4957       -73.8294 
 1620.5048       130.1676      -999.0000         1.1343         1.1841         1.9984      -999.0000      -999.0000        68.6904      -999.0000         2.5612       -73.5628 
 1620.6572       130.1381      -999.0000         1.1340         1.1839         1.9985      -999.0000      -999.0000        69.0667      -999.0000         2.6943       -73.8314 
 1620.8096       130.1087      -999.0000         1.1338         1.1838         1.9986      -999.0000      -999.0000        69.4431      -999.0000         2.7332       -73.8297 
 1620.9620       130.0793      -999.0000         1.1335         1.1837         1.9987      -999.0000      -999.0000        69.8194      -999.0000         2.7581       -74.0984 
 1621.1144       130.0793      -999.0000         1.1333         1.1836         1.9988      -999.0000      -999.0000        69.8194      -999.0000         2.8236       -74.3669 
 1621.2668       130.9207      -999.0000         1.1330         1.1834         1.9989      -999.0000      -999.0000        69.0840      -999.0000         2.8591       -74.3652 
 1621.4192       131.7620      -999.0000         1.1328         1.1833         1.9989      -999.0000      -999.0000        68.3486      -999.0000         2.8871       -74.6340 
 1621.5716       132.6034      -999.0000         1.1325         1.1832         1.9990      -999.0000      -999.0000        67.6132      -999.0000         2.8174       -74.6322 
 1621.7240       133.4448      -999.0000         1.1323         1.1831         1.9991      -999.0000      -999.0000        66.8778      -999.0000         2.7808       -74.6305 
 1621.8764       134.2861      -999.0000         1.1320         1.1829         1.9992      -999.0000      -999.0000        66.1424      -999.0000         2.7458       -74.6288 
 1622.0288       135.1275      -999.0000         1.1318         1.1828         1.9993      -999.0000      -999.0000        65.4070      -999.0000         2.6761       -74.6272 
 1622.1812       135.1275      -999.0000         1.1315         1.1827         1.9994      -999.0000      -999.0000        65.4070      -999.0000         2.6065       -74.3552 
 1622.3336       133.9658      -999.0000         1.1313         1.1826         1.9995      -999.0000      -999.0000        65.6818      -999.0000         2.6044       -74.3536 
 1622.4860       132.8042      -999.0000         1.1311         1.1824         1.9996      -999.0000      -999.0000        65.9566      -999.0000         2.6024       -74.3519 
 1622.6384       131.6425      -999.0000         1.1308         1.1823         1.9996      -999.0000      -999.0000        66.2314      -999.0000         2.6003       -74.3502 
 1622.7908       130.4808      -999.0000         1.1306         1.1822         1.9997      -999.0000      -999.0000        66.5062      -999.0000         2.5983       -74.3489 
 1622.9432       129.3192      -999.0000         1.1303         1.1821         1.9998      -999.0000      -999.0000        66.7811      -999.0000         2.5286       -74.3472 
 1623.0956       129.3192      -999.0000         1.1301         1.1819         1.9999      -999.0000      -999.0000        66.7811      -999.0000         2.5266       -74.3456 
 1623.2480       128.8368      -999.0000         1.1298         1.1818         2.0000      -999.0000      -999.0000        69.5546      -999.0000         2.5245       -74.3439 
 1623.4004       128.3545      -999.0000         1.1296         1.1817         2.0001      -999.0000      -999.0000        72.3282      -999.0000         2.5225       -74.0720 
 1623.5528       127.8721      -999.0000         1.1293         1.1816         2.0002      -999.0000      -999.0000        75.1018      -999.0000         2.4528       -74.0704 
 1623.7052       127.3898      -999.0000         1.1291         1.1814         2.0003      -999.0000      -999.0000        77.8754      -999.0000         2.4508       -74.0687 
 1623.8576       126.9075      -999.0000         1.1288         1.1813         2.0003      -999.0000      -999.0000        80.6489      -999.0000         2.4694       -74.0671 
 1624.0100       126.4251      -999.0000         1.1286         1.1812         2.0004      -999.0000      -999.0000        83.4225      -999.0000         2.5145       -74.1670 
 1624.1624       126.4251      -999.0000         1.1283         1.1811         2.0005      -999.0000      -999.0000        83.4225      -999.0000         2.5122       -74.3344 
 1624.3148       124.4493      -999.0000         1.1281         1.1809         2.0006      -999.0000      -999.0000        82.1248      -999.0000         2.5101       -74.3324 
 1624.4672       122.4735      -999.0000         1.1278         1.1808         2.0007      -999.0000      -999.0000        80.8271      -999.0000         2.5759       -74.3308 
 1624.6196       120.4977      -999.0000         1.1276         1.1807         2.0008      -999.0000      -999.0000        79.5293      -999.0000         2.6568       -74.3291 
 1624.7720       118.5219      -999.0000         1.1274         1.1806         2.0009      -999.0000      -999.0000        78.2316      -999.0000         2.7213       -74.3275 
 1624.9244       116.5461      -999.0000         1.1271         1.1804         2.0010      -999.0000      -999.0000        76.9339      -999.0000         2.8533       -74.3833 
 1625.0768       116.5461      -999.0000         1.1269         1.1803         2.0011      -999.0000      -999.0000        76.9339      -999.0000         2.9821       -74.5946 
 1625.2292       118.4926      -999.0000         1.1266         1.1802         2.0011      -999.0000      -999.0000        78.2385      -999.0000         3.0790       -74.3225 
