~VERSION INFORMATION
 VERS.                 2.0:   CWLS LOG ASCII STANDARD - VERSION 2.0
 WRAP.                  NO:   SINGLE LINE PER DEPTH STEP
~WELL INFORMATION
#MNEM.UNIT       DATA           DESCRIPTION MNEMONIC
#---------    -------------   --------------------------
 STRT.M         20.0000                      : START DEPTH
 STOP.M         2909.1992                     : STOP DEPTH
 STEP.M         0.1524                        : STEP VALUE
 NULL.          -999.0000                     : NULL VALUE
 SRVC.          PYPOZO                        : Service Company/Logging company
 DATE.          03/07/2025                    : LAS file Creation Date
 WELL    .      FURBERO-101                    : Well Name
 COMP    .      PYPOZO 2.0                    : Company
 FLD     .      UNKNOWN                       : Field
 LOC     .      UNKNOWN                       : Location
 LATI    .      0                             : Latitude/Northing
 LONG    .      0                             : Longitude/Easting
 APDAT   .      0                             : Elevation Above Permanent Datum
~CURVE INFORMATION
#MNEM          UNIT     API CODE   Curve Type Comments
#---------- ---------- ----------  ---------- --------
 DEPTH     .M                    : Depth      
 GR        .UNIT                       : GR         
 INV       .OHMM                       : INV        
 LAT       .OHMM                       : LAT        
 LIM       .OHMM                       : LIM        
 LN        .OHMM                       : LN         
 MINV      .OHMM                       : MINV       
 MNOR      .OHMM                       : MNOR       
 NEUT      .UNIT                       : NEUT       
 SIM       .OHMM                       : SIM        
 SN        .OHMM                       : SN         
 SP        .MV                         : SP         
~A Log data section
# ...
 1779.6104       119.7162      -999.0000         0.8765         1.0534         2.0903      -999.0000      -999.0000        87.4139      -999.0000         3.1818       -74.2752 
 1779.7628       120.8478      -999.0000         0.8762         1.0533         2.0904      -999.0000      -999.0000        91.2664      -999.0000         3.2163       -74.2712 
 1779.9152       121.9794      -999.0000         0.8760         1.0531         2.0904      -999.0000      -999.0000        95.1190      -999.0000         3.2452       -74.2663 
 1780.0676       121.9794      -999.0000         0.8757         1.0530         2.0905      -999.0000      -999.0000        95.1190      -999.0000         3.2432       -74.2614 
 1780.2200       123.8042      -999.0000         0.8755         1.0529         2.0906      -999.0000      -999.0000        92.4646      -999.0000         3.2702       -74.2565 
 1780.3724       125.6290      -999.0000         0.8753         1.0528         2.0907      -999.0000      -999.0000        89.8102      -999.0000         3.3066       -74.2515 
 1780.5248       127.4537      -999.0000         0.8750         1.0526         2.0908      -999.0000      -999.0000        87.1558      -999.0000         3.3725       -74.2466 
 1780.6772       129.2785      -999.0000         0.8748         1.0525         2.0909      -999.0000      -999.0000        84.5014      -999.0000         3.4380       -74.2417 
 1780.8296       131.1033      -999.0000         0.8745         1.0524         2.0910      -999.0000      -999.0000        81.8470      -999.0000         3.5034       -74.2368 
 1780.9820       132.9281      -999.0000         0.8743         1.0523         2.0911      -999.0000      -999.0000        79.1926      -999.0000         3.5011       -74.2318 
 1781.1344       132.9281      -999.0000         0.8740         1.0521         2.0912      -999.0000      -999.0000        79.1926      -999.0000         3.5668       -74.4969 
 1781.2868       132.0852      -999.0000         0.8738         1.0520         2.0912      -999.0000      -999.0000        77.1398      -999.0000         3.6323       -74.4912 
 1781.4392       131.2423      -999.0000         0.8735         1.0519         2.0913      -999.0000      -999.0000        75.0871      -999.0000         3.6390       -74.4863 
 1781.5916       130.3994      -999.0000         0.8733         1.0518         2.0914      -999.0000      -999.0000        73.0344      -999.0000         3.7632       -74.4814 
 1781.7440       129.5566      -999.0000         0.8730         1.0516         2.0915      -999.0000      -999.0000        70.9816      -999.0000         3.7611       -74.7460 
 1781.8964       128.7137      -999.0000         0.8728         1.0515         2.0916      -999.0000      -999.0000        68.9289      -999.0000         3.8266       -74.7408 
 1782.0488       127.8708      -999.0000         0.8725         1.0514         2.0917      -999.0000      -999.0000        66.8761      -999.0000         3.8921       -74.7358 
 1782.2012       127.8708      -999.0000         0.8723         1.0513         2.0918      -999.0000      -999.0000        66.8761      -999.0000         3.8224       -74.7309 
 1782.3536       127.3397      -999.0000         0.8720         1.0511         2.0919      -999.0000      -999.0000        66.9046      -999.0000         4.1992       -74.7260 
 1782.5060       126.8085      -999.0000         0.8718         1.0510         2.0919      -999.0000      -999.0000        66.9332      -999.0000         4.1126       -74.7210 
 1782.6584       126.2774      -999.0000         0.8715         1.0509         2.0920      -999.0000      -999.0000        66.9617      -999.0000         4.0260       -74.7160 
 1782.8108       125.7462      -999.0000         0.8713         1.0508         2.0921      -999.0000      -999.0000        66.9902      -999.0000         3.9393       -74.7110 
 1782.9632       125.2151      -999.0000         0.8711         1.0506         2.0922      -999.0000      -999.0000        67.0187      -999.0000         3.8528       -74.7060 
 1783.1156       125.2151      -999.0000         0.8708         1.0505         2.0923      -999.0000      -999.0000        67.0187      -999.0000         3.8095       -74.7009 
 1783.2680       124.6726      -999.0000         0.8706         1.0504         2.0924      -999.0000      -999.0000        70.2337      -999.0000         3.7817       -74.6959 
 1783.4204       124.1302      -999.0000         0.8703         1.0503         2.0925      -999.0000      -999.0000        73.4486      -999.0000         3.7539       -74.6909 
 1783.5728       123.5878      -999.0000         0.8701         1.0501         2.0926      -999.0000      -999.0000        76.6635      -999.0000         3.7261       -74.6859 
 1783.7252       123.0453      -999.0000         0.8698         1.0500         2.0926      -999.0000      -999.0000        79.8785      -999.0000         3.6983       -74.6809 
 1783.8776       122.5029      -999.0000         0.8696         1.0499         2.0927      -999.0000      -999.0000        83.0934      -999.0000         3.6705       -74.4067 
 1784.0300       121.9605      -999.0000         0.8693         1.0498         2.0928      -999.0000      -999.0000        86.3083      -999.0000         3.6427       -74.4016 
 1784.1824       121.9605      -999.0000         0.8691         1.0496         2.0929      -999.0000      -999.0000        86.3083      -999.0000         3.7269       -74.3977 
 1784.3348       124.2452      -999.0000         0.8688         1.0495         2.0930      -999.0000      -999.0000        84.2987      -999.0000         3.8232       -74.3927 
 1784.4872       126.5300      -999.0000         0.8686         1.0494         2.0931      -999.0000      -999.0000        82.2890      -999.0000         3.9194       -74.3878 
 1784.6396       128.8148      -999.0000         0.8683         1.0493         2.0932      -999.0000      -999.0000        80.2793      -999.0000         4.0156       -74.3829 
 1784.7920       131.0996      -999.0000         0.8681         1.0491         2.0933      -999.0000      -999.0000        78.2697      -999.0000         4.1119       -74.2576 
 1784.9444       133.3843      -999.0000         0.8678         1.0490         2.0934      -999.0000      -999.0000        76.2600      -999.0000         4.2081       -74.2146 
 1785.0968       133.3843      -999.0000         0.8676         1.0489         2.0934      -999.0000      -999.0000        76.2600      -999.0000         4.3044       -74.3691 
 1785.2492       133.0067      -999.0000         0.8673         1.0488         2.0935      -999.0000      -999.0000        76.4653      -999.0000         4.3491       -74.3632 
 1785.4016       132.6291      -999.0000         0.8671         1.0486         2.0936      -999.0000      -999.0000        76.6705      -999.0000         4.2047       -74.4409 
 1785.5540       132.2515      -999.0000         0.8669         1.0485         2.0937      -999.0000      -999.0000        76.8758      -999.0000         4.0604       -74.6233 
 1785.7064       131.8739      -999.0000         0.8666         1.0484         2.0938      -999.0000      -999.0000        77.0811      -999.0000         3.9160       -74.6816 
 1785.8588       131.4963      -999.0000         0.8664         1.0483         2.0939      -999.0000      -999.0000        77.2863      -999.0000         3.7717       -74.8825 
 1786.0112       131.1186      -999.0000         0.8661         1.0481         2.0940      -999.0000      -999.0000        77.4916      -999.0000         3.6400       -74.8770 
 1786.1636       131.1186      -999.0000         0.8659         1.0480         2.0941      -999.0000      -999.0000        77.4916      -999.0000         3.6400       -74.8721 
 1786.3160       131.5192      -999.0000         0.8656         1.0479         2.0941      -999.0000      -999.0000        78.0418      -999.0000         3.6400       -74.8672 
 1786.4684       131.9198      -999.0000         0.8654         1.0478         2.0942      -999.0000      -999.0000        78.5919      -999.0000         3.6400       -74.8623 
