~VERSION INFORMATION
 VERS.                 2.0:   CWLS LOG ASCII STANDARD - VERSION 2.0
 WRAP.                  NO:   SINGLE LINE PER DEPTH STEP
~WELL INFORMATION
#MNEM.UNIT       DATA           DESCRIPTION MNEMONIC
#---------    -------------   --------------------------
 STRT.M         0.0000                      : START DEPTH
 STOP.M         3199.9428                     : STOP DEPTH
 STEP.M         0.1524                        : STEP VALUE
 NULL.          -999.0000                     : NULL VALUE
 SRVC.          PYPOZO                        : Service Company/Logging company
 DATE.          05/07/2025                    : LAS file Creation Date
 WELL    .      GASPAR-1                       : Well Name
 COMP    .      PYPOZO 2.0                    : Company
 FLD     .      UNKNOWN                       : Field
 LOC     .      UNKNOWN                       : Location
 LATI    .      0                             : Latitude/Northing
 LONG    .      0                             : Longitude/Easting
 APDAT   .      0                             : Elevation Above Permanent Datum
~CURVE INFORMATION
#MNEM          UNIT     API CODE   Curve Type Comments
#---------- ---------- ----------  ---------- --------
 DEPTH     .M                    : Depth      
 CILD      .MM/M                       : CILD       
 DT        .US/F                       : DT         
 GR        .GAPI                       : GR         
 ILD       .OHMM                       : ILD        
 NEUT      .GAPI                       : NEUT       
 SN        .OHMM                       : SN         
 SP        .MV                         : SP         
 SPHI      .V/V                        : SPHI       
~A Log data section
# ...
 2974.8480       222.5569      -999.0000      -999.0000         4.5858      -999.0000         5.3547       -89.2259      -999.0000 
 2975.0004       221.2747      -999.0000      -999.0000         4.5878      -999.0000         5.2815       -91.0226      -999.0000 
 2975.1528       219.9203      -999.0000      -999.0000         4.5972      -999.0000         5.2550       -92.8231      -999.0000 
 2975.3052       218.5408      -999.0000      -999.0000         4.6498      -999.0000         5.2551       -94.6839      -999.0000 
 2975.4576       217.2021      -999.0000      -999.0000         4.6452      -999.0000         5.2565       -95.5852      -999.0000 
 2975.6100       215.1941      -999.0000      -999.0000         4.7271      -999.0000         5.2656       -95.8443      -999.0000 
 2975.7624       211.1780      -999.0000      -999.0000         4.7335      -999.0000         5.3821       -95.2282      -999.0000 
 2975.9148       207.1620      -999.0000      -999.0000         4.9481      -999.0000         5.5067       -93.4130      -999.0000 
 2976.0672       199.7430      -999.0000      -999.0000         5.0310      -999.0000         5.6287       -90.7207      -999.0000 
 2976.2196       193.1058      -999.0000      -999.0000         5.2597      -999.0000         5.7276       -87.5507      -999.0000 
 2976.3720       189.7590      -999.0000      -999.0000         5.3206      -999.0000         5.7240       -85.8070      -999.0000 
 2976.5244       190.4284      -999.0000      -999.0000         5.3216      -999.0000         5.7022       -85.0960      -999.0000 
 2976.6768       192.4364      -999.0000      -999.0000         5.2659      -999.0000         5.6785       -84.5457      -999.0000 
 2976.8292       194.4444      -999.0000      -999.0000         5.2009      -999.0000         5.6549       -84.3358      -999.0000 
 2976.9816       196.4525      -999.0000      -999.0000         5.1805      -999.0000         5.6314       -84.0365      -999.0000 
 2977.1340       200.3413      -999.0000      -999.0000         5.0768      -999.0000         5.6078       -83.7457      -999.0000 
 2977.2864       203.1459      -999.0000      -999.0000         4.9934      -999.0000         5.5843       -83.4977      -999.0000 
 2977.4388       207.8313      -999.0000      -999.0000         4.8270      -999.0000         5.5608       -83.5527      -999.0000 
 2977.5912       208.5007      -999.0000      -999.0000         4.7892      -999.0000         5.5372       -83.7056      -999.0000 
 2977.7436       204.4846      -999.0000      -999.0000         4.8686      -999.0000         5.5137       -83.8004      -999.0000 
 2977.8960       198.4605      -999.0000      -999.0000         5.0544      -999.0000         5.4902       -84.0271      -999.0000 
 2978.0484       196.0664      -999.0000      -999.0000         5.1346      -999.0000         5.4667       -84.1740      -999.0000 
 2978.2008       193.7751      -999.0000      -999.0000         5.2078      -999.0000         5.4655       -84.3159      -999.0000 
 2978.3532       196.4525      -999.0000      -999.0000         5.1882      -999.0000         5.5129       -84.5617      -999.0000 
 2978.5056       199.7992      -999.0000      -999.0000         5.1190      -999.0000         5.5602       -84.9970      -999.0000 
 2978.6580       198.4605      -999.0000      -999.0000         5.1009      -999.0000         5.6075       -85.7225      -999.0000 
 2978.8104       192.4364      -999.0000      -999.0000         5.2274      -999.0000         5.6549       -86.3139      -999.0000 
 2978.9628       179.7189      -999.0000      -999.0000         5.4703      -999.0000         5.7038       -86.9729      -999.0000 
 2979.1152       177.5904      -999.0000      -999.0000         5.6613      -999.0000         5.7225       -87.8699      -999.0000 
 2979.2676       177.7108      -999.0000      -999.0000         5.7237      -999.0000         5.7224       -88.5630      -999.0000 
 2979.4200       182.3898      -999.0000      -999.0000         5.6245      -999.0000         5.7209       -89.3672      -999.0000 
 2979.5724       185.0736      -999.0000      -999.0000         5.4644      -999.0000         5.7151       -90.1548      -999.0000 
 2979.7248       181.0576      -999.0000      -999.0000         5.5453      -999.0000         5.7953       -91.3026      -999.0000 
 2979.8772       174.3641      -999.0000      -999.0000         5.7592      -999.0000         5.8389       -91.7780      -999.0000 
 2980.0296       167.4751      -999.0000      -999.0000         5.9872      -999.0000         5.9285       -92.6622      -999.0000 
 2980.1820       162.3159      -999.0000      -999.0000         6.2000      -999.0000         5.9072       -93.4646      -999.0000 
 2980.3344       162.3159      -999.0000      -999.0000         6.2674      -999.0000         5.8712       -94.0542      -999.0000 
 2980.4868       165.6627      -999.0000      -999.0000         6.1400      -999.0000         5.8359       -95.0230      -999.0000 
 2980.6392       169.6787      -999.0000      -999.0000         6.0082      -999.0000         5.8006       -96.0890      -999.0000 
 2980.7916       171.6867      -999.0000      -999.0000         5.9310      -999.0000         5.7654       -97.1435      -999.0000 
 2980.9440       173.6948      -999.0000      -999.0000         5.8662      -999.0000         5.7301       -98.2089      -999.0000 
 2981.0964       179.2494      -999.0000      -999.0000         5.6615      -999.0000         5.6949       -99.2803      -999.0000 
 2981.2488       183.7349      -999.0000      -999.0000         5.5320      -999.0000         5.6565      -100.3549      -999.0000 
 2981.4012       192.4364      -999.0000      -999.0000         5.3796      -999.0000         5.5781      -101.4317      -999.0000 
 2981.5536       199.1299      -999.0000      -999.0000         5.1334      -999.0000         5.4918      -102.5116      -999.0000 
 2981.7060       209.1700      -999.0000      -999.0000         4.8775      -999.0000         5.4056      -103.6109      -999.0000 
 2981.8584       217.8715      -999.0000      -999.0000         4.7114      -999.0000         5.3204      -104.5953      -999.0000 
 2982.0108       223.6474      -999.0000      -999.0000         4.5668      -999.0000         5.2392      -105.3092      -999.0000 
 2982.1632       227.9116      -999.0000      -999.0000         4.4629      -999.0000         5.1140      -106.1192      -999.0000 
 2982.3156       228.5810      -999.0000      -999.0000         4.4543      -999.0000         5.1253      -106.7869      -999.0000 
 2982.4680       224.5649      -999.0000      -999.0000         4.4596      -999.0000         5.0461      -107.5461      -999.0000 
 2982.6204       219.8795      -999.0000      -999.0000         4.6051      -999.0000         5.0520      -108.1240      -999.0000 
 2982.7728       214.5248      -999.0000      -999.0000         4.7096      -999.0000         5.0580      -108.6830      -999.0000 
 2982.9252       211.8474      -999.0000      -999.0000         4.7204      -999.0000         5.0910      -109.0836      -999.0000 
 2983.0776       210.4456      -999.0000      -999.0000         4.7310      -999.0000         5.1240      -109.3654      -999.0000 
 2983.2300       209.8394      -999.0000      -999.0000         4.7853      -999.0000         5.1566      -109.6761      -999.0000 
 2983.3824       209.1700      -999.0000      -999.0000         4.7856      -999.0000         5.1864      -109.6647      -999.0000 
 2983.5348       208.5007      -999.0000      -999.0000         4.7842      -999.0000         5.1691      -109.6623      -999.0000 
 2983.6872       209.8394      -999.0000      -999.0000         4.7741      -999.0000         5.0927      -109.6472      -999.0000 
 2983.8396       213.1861      -999.0000      -999.0000         4.7184      -999.0000         5.0164      -109.3245      -999.0000 
 2983.9920       218.2757      -999.0000      -999.0000         4.6611      -999.0000         4.9388      -109.1794      -999.0000 
