~VERSION INFORMATION
 VERS.                 2.0:   CWLS LOG ASCII STANDARD - VERSION 2.0
 WRAP.                  NO:   SINGLE LINE PER DEPTH STEP
~WELL INFORMATION
#MNEM.UNIT       DATA           DESCRIPTION MNEMONIC
#---------    -------------   --------------------------
 STRT.M         0.0000                      : START DEPTH
 STOP.M         3199.9428                     : STOP DEPTH
 STEP.M         0.1524                        : STEP VALUE
 NULL.          -999.0000                     : NULL VALUE
 SRVC.          PYPOZO                        : Service Company/Logging company
 DATE.          05/07/2025                    : LAS file Creation Date
 WELL    .      GASPAR-1                       : Well Name
 COMP    .      PYPOZO 2.0                    : Company
 FLD     .      UNKNOWN                       : Field
 LOC     .      UNKNOWN                       : Location
 LATI    .      0                             : Latitude/Northing
 LONG    .      0                             : Longitude/Easting
 APDAT   .      0                             : Elevation Above Permanent Datum
~CURVE INFORMATION
#MNEM          UNIT     API CODE   Curve Type Comments
#---------- ---------- ----------  ---------- --------
 DEPTH     .M                    : Depth      
 CILD      .MM/M                       : CILD       
 DT        .US/F                       : DT         
 GR        .GAPI                       : GR         
 ILD       .OHMM                       : ILD        
 NEUT      .GAPI                       : NEUT       
 SN        .OHMM                       : SN         
 SP        .MV                         : SP         
 SPHI      .V/V                        : SPHI       
~A Log data section
# ...
 1915.0584       145.9235        70.4013        50.5802         6.8237      1497.4210         5.8363       -84.6095         0.1854 
 1915.2108       146.5287        71.1896        50.5860         6.8207      1479.1123         5.8365       -84.5566         0.1909 
 1915.3632       148.0288        71.9482        51.3667         6.7747      1412.1869         5.8469       -84.3527         0.1961 
 1915.5156       149.4079        72.7654        52.0553         6.6996      1397.4349         5.8467       -84.2937         0.2017 
 1915.6680       150.5340        74.1833        53.0289         6.6258      1387.0405         5.8462       -84.2882         0.2114 
 1915.8204       151.2039        82.2604        53.6052         6.6367      1388.3044         5.8438       -84.4057         0.2669 
 1915.9728       151.7293        91.7925        53.7663         6.5528      1391.4412         5.8314       -84.5767         0.3324 
 1916.1252       151.1962        73.3317        54.0236         6.6388      1397.3763         5.8669       -84.5712         0.2056 
 1916.2776       151.2059        76.7703        54.1656         6.6347      1405.8909         5.9261       -84.5657         0.2292 
 1916.4300       151.2024        83.3361        54.0254         6.6336      1413.6084         5.9395       -84.5603         0.2743 
 1916.5824       151.1382        78.7277        53.7046         6.6333      1416.3351         5.9397       -84.5548         0.2426 
 1916.7348       151.0200        71.9739        53.3244         6.6333      1420.9060         5.9294       -84.5493         0.1962 
 1916.8872       150.9018        70.3385        53.1711         6.6336      1428.2815         5.9377       -84.5438         0.1850 
 1917.0396       150.7836        70.5615        54.2044         6.6338      1445.6755         5.9028       -84.4883         0.1865 
 1917.1920       150.6654        70.8340        55.0903         6.6340      1472.7828         5.8654       -84.2335         0.1884 
 1917.3444       150.5525        70.7558        54.6080         6.6337      1499.7826         5.8362       -84.2280         0.1879 
 1917.4968       151.8443        70.7192        54.2610         6.5810      1537.2931         5.8371       -84.3123         0.1876 
 1917.6492       152.5606        70.9971        53.6757         6.5764      1568.9805         5.8497       -84.5172         0.1895 
 1917.8016       153.1839        70.6407        53.7465         6.4945      1600.7766         5.8630       -84.5110         0.1871 
 1917.9540       153.8961        70.2935        53.5574         6.4989      1614.8041         5.9181       -84.5055         0.1847 
 1918.1064       153.8561        70.0558        52.6191         6.4997      1610.8817         5.9664       -84.5000         0.1831 
 1918.2588       153.8746        70.1732        51.5032         6.4989      1601.1837         6.0159       -84.4945         0.1839 
 1918.4112       153.2359        70.3840        50.0236         6.4936      1595.2973         6.0241       -84.4891         0.1853 
 1918.5636       152.4710        70.7262        48.4887         6.5727      1586.4624         6.0034       -84.4836         0.1877 
 1918.7160       151.9513        71.1731        48.3449         6.5614      1575.1408         5.9769       -84.4781         0.1907 
 1918.8684       151.7893        71.2367        48.6298         6.5869      1571.7484         5.9573       -84.4726         0.1912 
 1919.0208       152.2017        71.5255        49.4017         6.5728      1571.8655         5.9408       -84.4672         0.1932 
 1919.1732       152.5367        72.1724        50.2760         6.5747      1578.4536         5.9530       -84.4617         0.1976 
 1919.3256       153.2043        71.7332        50.7818         6.4894      1591.2301         5.9643       -84.4562         0.1946 
 1919.4780       151.8692        71.6019        51.1590         6.5837      1596.6703         5.9753       -84.4507         0.1937 
 1919.6304       150.6124        71.3156        51.6188         6.6291      1600.8028         6.0078       -84.4453         0.1917 
 1919.7828       149.6859        70.8392        51.8481         6.7106      1607.1998         6.0205       -84.4398         0.1885 
 1919.9352       148.7593        70.2655        52.1788         6.7143      1615.8341         5.9822       -84.4343         0.1845 
 1920.0876       147.8328        69.6950        52.2832         6.7660      1622.7657         5.9656       -84.4288         0.1806 
 1920.2400       147.1963        69.1425        51.9704         6.7661      1626.5293         5.9786       -84.4234         0.1768 
 1920.3924       147.1963        69.3943        50.8846         6.8181      1618.8675         5.9405       -84.4179         0.1785 
 1920.5448       146.5287        70.5621        49.4783         6.8178      1599.2387         5.9383       -84.4124         0.1866 
 1920.6972       147.1963        71.6883        48.9077         6.7654      1578.9432         5.9094       -84.4069         0.1943 
 1920.8496       147.1963        71.2788        49.0420         6.7655      1553.9061         5.8986       -84.4015         0.1915 
 1921.0020       147.8040        70.7214        49.8900         6.7660      1539.9074         5.9161       -84.3960         0.1876 
 1921.1544       147.6514        70.4625        51.0775         6.7662      1522.4713         5.9539       -84.3142         0.1859 
 1921.3068       147.4988        70.2952        52.6065         6.7661      1518.3786         5.9798       -84.1599         0.1847 
 1921.4592       147.3462        69.5747        53.6827         6.7660      1515.9021         5.9175       -84.0802         0.1798 
 1921.6116       147.1963        69.3941        53.9254         6.7662      1520.8784         5.8593       -84.0746         0.1785 
 1921.7640       146.5287        69.7678        52.3705         6.8185      1531.9690         5.8627       -84.0692         0.1811 
 1921.9164       146.5287        70.3746        50.7771         6.8223      1535.0294         5.9041       -84.0636         0.1853 
 1922.0688       145.4558        71.5888        50.1685         6.9038      1520.8705         5.9103       -84.0581         0.1936 
 1922.2212       145.1936        72.2423        49.8871         6.9012      1506.4406         5.9058       -84.0526         0.1981 
 1922.3736       144.5260        72.0705        50.7690         7.0104      1500.2631         5.9004       -83.7477         0.1969 
 1922.5260       141.1883        75.3394        52.0388         7.0942      1509.1665         5.8511       -83.7422         0.2194 
 1922.6784       139.8531        75.0891        52.7668         7.1654      1525.2334         5.8079       -83.7367         0.2176 
 1922.8308       140.5207        73.9346        52.5851         7.0826      1528.1849         5.7642       -83.7312         0.2097 
 1922.9832       143.8277        72.0712        52.8157         6.9438      1514.2791         5.7330       -83.7257         0.1969 
 1923.1356       145.0841        70.3029        53.2916         6.8855      1483.9608         5.7198       -83.7202         0.1848 
 1923.2880       146.5374        70.5767        54.3695         6.7782      1465.1108         5.7511       -83.7147         0.1867 
 1923.4404       148.3553        70.7964        56.7786         6.7158      1456.9673         5.7518       -83.7091         0.1882 
 1923.5928       149.4191        70.7976        57.7145         6.7107      1457.9759         5.7150       -83.7036         0.1882 
 1923.7452       150.2576        70.9569        56.5858         6.6302      1464.1271         5.6761       -83.6981         0.1893 
 1923.8976       151.3126        72.0804        54.3211         6.6428      1477.8917         5.6809       -83.6926         0.1970 
 1924.0500       153.6140        82.8335        52.1326         6.4758      1497.5182         5.7117       -83.6871         0.2708 
 1924.2024       152.8161        94.3641        50.1245         6.5567      1518.6461         5.7579       -83.6816         0.3500 
