~VERSION INFORMATION
 VERS.                 2.0:   CWLS LOG ASCII STANDARD - VERSION 2.0
 WRAP.                  NO:   SINGLE LINE PER DEPTH STEP
~WELL INFORMATION
#MNEM.UNIT       DATA           DESCRIPTION MNEMONIC
#---------    -------------   --------------------------
 STRT.M         0.0000                      : START DEPTH
 STOP.M         3199.9428                     : STOP DEPTH
 STEP.M         0.1524                        : STEP VALUE
 NULL.          -999.0000                     : NULL VALUE
 SRVC.          PYPOZO                        : Service Company/Logging company
 DATE.          05/07/2025                    : LAS file Creation Date
 WELL    .      GASPAR-1                       : Well Name
 COMP    .      PYPOZO 2.0                    : Company
 FLD     .      UNKNOWN                       : Field
 LOC     .      UNKNOWN                       : Location
 LATI    .      0                             : Latitude/Northing
 LONG    .      0                             : Longitude/Easting
 APDAT   .      0                             : Elevation Above Permanent Datum
~CURVE INFORMATION
#MNEM          UNIT     API CODE   Curve Type Comments
#---------- ---------- ----------  ---------- --------
 DEPTH     .M                    : Depth      
 CILD      .MM/M                       : CILD       
 DT        .US/F                       : DT         
 GR        .GAPI                       : GR         
 ILD       .OHMM                       : ILD        
 NEUT      .GAPI                       : NEUT       
 SN        .OHMM                       : SN         
 SP        .MV                         : SP         
 SPHI      .V/V                        : SPHI       
~A Log data section
# ...
 3188.6652       207.8313      -999.0000      -999.0000         4.6534      -999.0000         5.0517       -61.1403      -999.0000 
 3188.8176       209.1700      -999.0000      -999.0000         4.5861      -999.0000         5.1245       -60.7215      -999.0000 
 3188.9700       207.8108      -999.0000      -999.0000         4.5782      -999.0000         5.2039       -60.5443      -999.0000 
 3189.1224       205.3956      -999.0000      -999.0000         4.6593      -999.0000         5.3450       -60.3065      -999.0000 
 3189.2748       203.8432      -999.0000      -999.0000         4.7613      -999.0000         5.3980       -60.0097      -999.0000 
 3189.4272       203.1335      -999.0000      -999.0000         4.7778      -999.0000         5.5045       -60.0042      -999.0000 
 3189.5796       205.8247      -999.0000      -999.0000         4.7181      -999.0000         5.4729       -60.0025      -999.0000 
 3189.7320       210.6721      -999.0000      -999.0000         4.5613      -999.0000         5.3893       -59.9983      -999.0000 
 3189.8844       210.5087      -999.0000      -999.0000         4.4892      -999.0000         5.3901       -59.1255      -999.0000 
 3190.0368       197.4968      -999.0000      -999.0000         4.8681      -999.0000         5.4942       -57.3724      -999.0000 
 3190.1892       188.4203      -999.0000      -999.0000         5.0938      -999.0000         5.8250       -56.8284      -999.0000 
 3190.3416       172.6941      -999.0000      -999.0000         5.6897      -999.0000         5.9960       -56.8028      -999.0000 
 3190.4940       173.6948      -999.0000      -999.0000         5.6784      -999.0000         5.9992       -56.5795      -999.0000 
 3190.6464       179.7189      -999.0000      -999.0000         5.4597      -999.0000         5.9183       -56.5305      -999.0000 
 3190.7988       185.0736      -999.0000      -999.0000         5.3146      -999.0000         5.9295       -56.2609      -999.0000 
 3190.9512       187.0817      -999.0000      -999.0000         5.2082      -999.0000         6.1296       -55.5613      -999.0000 
 3191.1036       188.5149      -999.0000      -999.0000         5.1685      -999.0000         6.2921       -55.4428      -999.0000 
 3191.2560       187.7510      -999.0000      -999.0000         5.1743      -999.0000         6.3748       -55.9261      -999.0000 
 3191.4084       185.0602      -999.0000      -999.0000         5.2514      -999.0000         6.3237       -56.7986      -999.0000 
 3191.5608       181.7429      -999.0000      -999.0000         5.3778      -999.0000         6.3250       -56.7966      -999.0000 
 3191.7132       175.0286      -999.0000      -999.0000         5.5216      -999.0000         6.3287       -56.7462      -999.0000 
 3191.8656       171.6738      -999.0000      -999.0000         5.7139      -999.0000         6.5555       -56.6929      -999.0000 
 3192.0180       172.4398      -999.0000      -999.0000         5.6636      -999.0000         6.7344       -56.6403      -999.0000 
 3192.1704       172.2145      -999.0000      -999.0000         5.6471      -999.0000         6.9159       -56.5890      -999.0000 
 3192.3228       167.2312      -999.0000      -999.0000         5.8563      -999.0000         7.1177       -56.5557      -999.0000 
 3192.4752       155.5066      -999.0000      -999.0000         6.2312      -999.0000         7.4090       -56.0310      -999.0000 
 3192.6276       150.4027      -999.0000      -999.0000         6.4639      -999.0000         7.7026       -55.6363      -999.0000 
 3192.7800       138.8499      -999.0000      -999.0000         6.8233      -999.0000         7.9785       -54.9087      -999.0000 
 3192.9324       128.1794      -999.0000      -999.0000         7.4969      -999.0000         7.9948       -54.9680      -999.0000 
 3193.0848       124.8327      -999.0000      -999.0000         7.9029      -999.0000         7.9973       -55.1936      -999.0000 
 3193.2372       132.9921      -999.0000      -999.0000         7.5616      -999.0000         7.9990       -55.2039      -999.0000 
 3193.3896       140.6520      -999.0000      -999.0000         7.0871      -999.0000         7.9796       -55.0351      -999.0000 
 3193.5420       148.2597      -999.0000      -999.0000         6.5867      -999.0000         7.9486       -55.4614      -999.0000 
 3193.6944       152.2374      -999.0000      -999.0000         6.4042      -999.0000         7.8499       -56.5132      -999.0000 
 3193.8468       153.6508      -999.0000      -999.0000         6.3245      -999.0000         7.6549       -56.8319      -999.0000 
 3193.9992       156.3890      -999.0000      -999.0000         6.2426      -999.0000         7.5346       -57.3432      -999.0000 
 3194.1516       159.7551      -999.0000      -999.0000         6.1031      -999.0000         7.4794       -57.9214      -999.0000 
 3194.3040       160.8737      -999.0000      -999.0000         6.0004      -999.0000         7.3803       -57.7240      -999.0000 
 3194.4564       161.5012      -999.0000      -999.0000         5.9908      -999.0000         7.2339       -57.3265      -999.0000 
 3194.6088       162.1970      -999.0000      -999.0000         5.9883      -999.0000         7.0453       -57.3350      -999.0000 
 3194.7612       162.9649      -999.0000      -999.0000         5.9780      -999.0000         7.1441       -57.3345      -999.0000 
 3194.9136       162.9978      -999.0000      -999.0000         5.9234      -999.0000         7.2066       -57.3356      -999.0000 
 3195.0660       162.9957      -999.0000      -999.0000         5.9214      -999.0000         7.2716       -57.3621      -999.0000 
 3195.2184       162.9638      -999.0000      -999.0000         5.9163      -999.0000         7.3758       -58.1581      -999.0000 
 3195.3708       162.3159      -999.0000      -999.0000         5.9973      -999.0000         7.5226       -58.6093      -999.0000 
 3195.5232       162.3159      -999.0000      -999.0000         5.9922      -999.0000         7.8086       -58.6442      -999.0000 
 3195.6756       162.3159      -999.0000      -999.0000         5.9910      -999.0000         7.9501       -58.6291      -999.0000 
 3195.8280       162.3159      -999.0000      -999.0000         5.9906      -999.0000         8.2162       -58.5360      -999.0000 
 3195.9804       162.3159      -999.0000      -999.0000         5.9906      -999.0000         8.9374       -59.5332      -999.0000 
 3196.1328       162.3159      -999.0000      -999.0000         5.9906      -999.0000         9.2229       -60.3131      -999.0000 
 3196.2852       162.3159      -999.0000      -999.0000         5.9906      -999.0000         9.4066       -60.8127      -999.0000 
 3196.4376       162.3159      -999.0000      -999.0000         5.9906      -999.0000         9.4928       -61.5497      -999.0000 
 3196.5900       162.3159      -999.0000      -999.0000         5.9906      -999.0000         9.5407       -61.8950      -999.0000 
 3196.7424       162.3159      -999.0000      -999.0000         5.9906      -999.0000         9.5398       -62.1302      -999.0000 
 3196.8948       162.3159      -999.0000      -999.0000         5.9906      -999.0000         9.5397       -62.1386      -999.0000 
 3197.0472       162.3159      -999.0000      -999.0000         5.9906      -999.0000         9.5209       -62.1214      -999.0000 
 3197.1996       162.3159      -999.0000      -999.0000         5.9906      -999.0000         9.3974       -62.0998      -999.0000 
 3197.3520       162.3159      -999.0000      -999.0000         5.9906      -999.0000         9.4134       -62.0787      -999.0000 
 3197.5044       162.2605      -999.0000      -999.0000         5.9906      -999.0000         9.4262       -62.0581      -999.0000 
 3197.6568       162.1614      -999.0000      -999.0000         5.9906      -999.0000         9.4382       -62.0380      -999.0000 
 3197.8092       162.0623      -999.0000      -999.0000         5.9906      -999.0000         9.4498       -62.0178      -999.0000 
