~VERSION INFORMATION
 VERS.                 2.0:   CWLS LOG ASCII STANDARD - VERSION 2.0
 WRAP.                  NO:   SINGLE LINE PER DEPTH STEP
~WELL INFORMATION
#MNEM.UNIT       DATA           DESCRIPTION MNEMONIC
#---------    -------------   --------------------------
 STRT.M         0.0000                      : START DEPTH
 STOP.M         3199.9428                     : STOP DEPTH
 STEP.M         0.1524                        : STEP VALUE
 NULL.          -999.0000                     : NULL VALUE
 SRVC.          PYPOZO                        : Service Company/Logging company
 DATE.          05/07/2025                    : LAS file Creation Date
 WELL    .      GASPAR-1                       : Well Name
 COMP    .      PYPOZO 2.0                    : Company
 FLD     .      UNKNOWN                       : Field
 LOC     .      UNKNOWN                       : Location
 LATI    .      0                             : Latitude/Northing
 LONG    .      0                             : Longitude/Easting
 APDAT   .      0                             : Elevation Above Permanent Datum
~CURVE INFORMATION
#MNEM          UNIT     API CODE   Curve Type Comments
#---------- ---------- ----------  ---------- --------
 DEPTH     .M                    : Depth      
 CILD      .MM/M                       : CILD       
 DT        .US/F                       : DT         
 GR        .GAPI                       : GR         
 ILD       .OHMM                       : ILD        
 NEUT      .GAPI                       : NEUT       
 SN        .OHMM                       : SN         
 SP        .MV                         : SP         
 SPHI      .V/V                        : SPHI       
~A Log data section
# ...
 1273.6068       303.4045        90.0617        57.4341         3.3005      1414.6207         3.4050       -89.6576         0.3205 
 1273.7592       302.7370        89.6177        58.1359         3.3002      1388.2228         3.4213       -89.6558         0.3174 
 1273.9116       302.1505        89.4062        58.6236         3.3001      1368.6301         3.4189       -89.6540         0.3160 
 1274.0640       302.6510        89.7867        59.0261         3.3000      1354.9792         3.4100       -89.5817         0.3186 
 1274.2164       302.7370        90.2153        59.4442         3.3000      1341.7413         3.4067       -89.4306         0.3215 
 1274.3688       303.4045        90.5394        59.5002         3.3000      1335.0680         3.4066       -89.3491         0.3238 
 1274.5212       303.4045        90.1428        59.3807         3.3000      1338.4274         3.4067       -89.3473         0.3210 
 1274.6736       303.4045        89.4973        58.4816         3.3000      1347.1115         3.4067       -89.3454         0.3166 
 1274.8260       303.4391        89.0399        57.7877         3.3000      1358.4267         3.4069       -89.3436         0.3135 
 1274.9784       303.6248        89.7406        57.5892         3.3000      1365.4971         3.4031       -89.3418         0.3183 
 1275.1308       303.1256        90.9890        57.3304         3.3000      1376.7669         3.3990       -89.3399         0.3268 
 1275.2832       303.4230        92.1904        57.0465         3.3000      1387.1614         3.3978       -89.3382         0.3351 
 1275.4356       302.6937        92.7598        56.8601         3.3000      1391.1364         3.3937       -89.3364         0.3390 
 1275.5880       302.1058        93.3097        56.1377         3.3000      1396.4506         3.3798       -89.3346         0.3428 
 1275.7404       302.7370        93.6973        55.1552         3.3001      1405.4662         3.3647       -89.3326         0.3454 
 1275.8928       303.4045        93.4003        54.5431         3.3003      1417.7497         3.3541       -89.3308         0.3434 
 1276.0452       304.0084        93.0421        55.7253         3.3009      1426.5960         3.3142       -89.3290         0.3409 
 1276.1976       305.4072        92.4814        55.7307         3.3016      1435.0143         3.2852       -89.3271         0.3371 
 1276.3500       305.4072        92.3642        56.6939         3.3013      1437.9779         3.2309       -89.3253         0.3363 
 1276.5024       306.7423        92.7217        57.5452         3.2465      1440.3837         3.1912       -89.3235         0.3387 
 1276.6548       312.7503        93.1359        58.3116         3.1811      1441.5377         3.1446       -89.3216         0.3416 
 1276.8072       318.0908        93.1814        58.7016         3.1141      1438.7391         3.0692       -89.3198         0.3419 
 1276.9596       324.7664        93.0210        59.1633         3.0946      1441.9197         3.0433       -89.3180         0.3408 
 1277.1120       340.1202        92.1446        58.9903         2.9461      1437.9063         3.0041       -89.3161         0.3348 
 1277.2644       346.1282        91.2607        58.9484         2.8856      1435.7739         2.9659       -89.3143         0.3287 
 1277.4168       354.1389        90.7590        59.0278         2.8306      1445.1328         2.9432       -89.3125         0.3253 
 1277.5692       358.1442        91.4494        59.5090         2.7751      1450.0464         2.9302       -89.6102         0.3300 
 1277.7216       364.8198        91.5992        59.6060         2.7560      1455.4871         2.9180       -89.6058         0.3310 
 1277.8740       369.4927        92.0299        59.6042         2.7008      1461.8624         2.8994       -89.5976         0.3340 
 1278.0264       371.3329        92.5995        59.3657         2.6993      1470.8024         2.8998       -89.5894         0.3379 
 1278.1788       372.1293        92.8535        58.9664         2.6989      1485.2377         2.8997       -89.5811         0.3397 
 1278.3312       370.2117        92.6307        58.7280         2.6991      1488.6133         2.8997       -89.5729         0.3381 
 1278.4836       368.1757        92.2405        58.6656         2.7002      1487.4318         2.9103       -89.5647         0.3354 
 1278.6360       364.1069        91.8782        58.3799         2.7551      1481.1324         2.9229       -89.5565         0.3330 
 1278.7884       359.5252        91.4992        57.5773         2.7667      1474.1862         2.9341       -89.5482         0.3304 
 1278.9408       357.1264        91.0021        56.9543         2.7783      1473.3444         2.9306       -89.5400         0.3269 
 1279.0932       356.1617        90.4094        57.1502         2.8331      1469.1081         2.9417       -89.5318         0.3229 
 1279.2456       355.4286        90.3834        57.2199         2.8341      1465.2156         2.9533       -89.5236         0.3227 
 1279.3980       354.1897        90.7847        56.9576         2.8339      1461.2316         2.9537       -89.5154         0.3254 
 1279.5504       353.4713        91.3118        56.4180         2.8336      1455.6170         2.9433       -89.5071         0.3291 
 1279.7028       353.4713        91.7203        55.9206         2.8338      1442.0622         2.9432       -89.4989         0.3319 
 1279.8552       353.4713        92.1113        55.9353         2.8346      1428.2287         2.9537       -89.4907         0.3346 
 1280.0076       351.7330        92.4032        55.9895         2.8363      1436.7518         2.9599       -89.4825         0.3366 
 1280.1600       349.4660        93.2042        55.9424         2.8462      1413.8605         2.9649       -89.4742         0.3421 
 1280.3124       346.7957        93.9354        56.0003         2.9002      1407.8076         2.9907       -89.4660         0.3471 
 1280.4648       344.7931        94.2284        56.2628         2.9010      1409.8221         3.0074       -89.4578         0.3491 
 1280.6172       342.1228        94.0636        57.0060         2.9011      1410.0809         3.0044       -89.4496         0.3480 
 1280.7696       342.1228        93.5402        57.9639         2.9009      1411.3251         2.9836       -89.4414         0.3444 
 1280.9220       345.4606        92.6572        59.1115         2.9003      1415.3102         2.9609       -89.4331         0.3383 
 1281.0744       349.7843        92.8711        60.5883         2.8473      1423.4799         2.9370       -89.4249         0.3398 
 1281.2268       354.1389        92.9163        61.6815         2.8419      1427.4695         2.9096       -89.4167         0.3401 
 1281.3792       358.1442        92.3965        62.3649         2.7581      1427.0481         2.8892       -89.4085         0.3365 
 1281.5316       365.4873        91.8676        62.3175         2.7527      1422.9231         2.8887       -89.4002         0.3329 
 1281.6840       368.1575        93.1261        61.9542         2.6997      1423.1838         2.8739       -89.3920         0.3415 
 1281.8364       371.4953        94.1458        61.3542         2.6993      1425.6707         2.8601       -89.3838         0.3485 
 1281.9888       371.7382        93.9393        61.7089         2.6995      1425.4078         2.8492       -89.3756         0.3471 
 1282.1412       372.8304        93.6862        60.2531         2.6998      1418.9975         2.8612       -89.3673         0.3454 
 1282.2936       372.1629        92.7678        59.9976         2.6999      1413.6173         2.8801       -89.3591         0.3391 
 1282.4460       371.4953        92.4954        59.6253         2.7000      1404.3569         2.8884       -89.3509         0.3372 
 1282.5984       371.4953        92.7993        58.9517         2.7000      1407.7736         2.8897       -89.3427         0.3393 
 1282.7508       370.2330        93.1225        58.6540         2.7001      1421.1926         2.8990       -89.3345         0.3415 
