~VERSION INFORMATION
 VERS.                 2.0:   CWLS LOG ASCII STANDARD - VERSION 2.0
 WRAP.                  NO:   SINGLE LINE PER DEPTH STEP
~WELL INFORMATION
#MNEM.UNIT       DATA           DESCRIPTION MNEMONIC
#---------    -------------   --------------------------
 STRT.M         0.0000                      : START DEPTH
 STOP.M         3199.9428                     : STOP DEPTH
 STEP.M         0.1524                        : STEP VALUE
 NULL.          -999.0000                     : NULL VALUE
 SRVC.          PYPOZO                        : Service Company/Logging company
 DATE.          05/07/2025                    : LAS file Creation Date
 WELL    .      GASPAR-1                       : Well Name
 COMP    .      PYPOZO 2.0                    : Company
 FLD     .      UNKNOWN                       : Field
 LOC     .      UNKNOWN                       : Location
 LATI    .      0                             : Latitude/Northing
 LONG    .      0                             : Longitude/Easting
 APDAT   .      0                             : Elevation Above Permanent Datum
~CURVE INFORMATION
#MNEM          UNIT     API CODE   Curve Type Comments
#---------- ---------- ----------  ---------- --------
 DEPTH     .M                    : Depth      
 CILD      .MM/M                       : CILD       
 DT        .US/F                       : DT         
 GR        .GAPI                       : GR         
 ILD       .OHMM                       : ILD        
 NEUT      .GAPI                       : NEUT       
 SN        .OHMM                       : SN         
 SP        .MV                         : SP         
 SPHI      .V/V                        : SPHI       
~A Log data section
# ...
  213.8172       604.6123      -999.0000        66.0386         1.6408       311.1631         1.7878       -17.3930      -999.0000 
  213.9696       607.0703      -999.0000        65.7322         1.6421       308.6918         1.7760       -16.9527      -999.0000 
  214.1220       610.0287      -999.0000        65.9705         1.6423       306.3445         1.7654       -17.2877      -999.0000 
  214.2744       611.9652      -999.0000        66.7777         1.6420       304.2116         1.7691       -17.6005      -999.0000 
  214.4268       607.9545      -999.0000        67.9533         1.6415       299.2590         1.7852       -17.5822      -999.0000 
  214.5792       605.2807      -999.0000        67.8679         1.6411       295.7428         1.8012       -17.4447      -999.0000 
  214.7316       600.6016      -999.0000        67.0087         1.6416       290.7533         1.8171       -17.5917      -999.0000 
  214.8840       597.2594      -999.0000        66.6560         1.6958       282.1816         1.8331       -18.1560      -999.0000 
  215.0364       591.4325      -999.0000        67.2751         1.7058       276.5439         1.8436       -18.1815      -999.0000 
  215.1888       585.8957      -999.0000        67.9693         1.7073       271.3735         1.8435       -17.9081      -999.0000 
  215.3412       581.8850      -999.0000        69.6864         1.7078       267.9803         1.8438       -17.2816      -999.0000 
  215.4936       578.5428      -999.0000        70.9411         1.7086       266.5932         1.8458       -16.4061      -999.0000 
  215.6460       574.5321      -999.0000        72.1858         1.7629       265.8385         1.8568       -16.1550      -999.0000 
  215.7984       571.8583      -999.0000        73.3727         1.7730       263.2604         1.8570       -16.0627      -999.0000 
  215.9508       570.5214      -999.0000        74.2224         1.7749       261.8615         1.8568       -15.9715      -999.0000 
  216.1032       569.1845      -999.0000        74.0718         1.7758       261.2881         1.8458       -16.3496      -999.0000 
  216.2556       569.1845      -999.0000        74.0378         1.7761       260.5659         1.8435       -16.5254      -999.0000 
  216.4080       567.8476      -999.0000        74.0204         1.7761       261.0792         1.8424       -16.3957      -999.0000 
  216.5604       565.8573      -999.0000        73.6825         1.7761       262.9022         1.8715       -16.2192      -999.0000 
  216.7128       564.5069      -999.0000        72.7043         1.7761       263.9502         1.9116       -15.6394      -999.0000 
  216.8652       563.7877      -999.0000        71.9684         1.7761       261.2184         1.9518       -14.7935      -999.0000 
  217.0176       564.0599      -999.0000        71.3851         1.7761       258.9511         1.9911       -15.0337      -999.0000 
  217.1700       564.4374      -999.0000        70.9762         1.7761       253.6850         1.9894       -15.4800      -999.0000 
  217.3224       565.1738      -999.0000        70.9792         1.7758       252.6644         1.9251       -15.9082      -999.0000 
  217.4748       566.3102      -999.0000        70.7671         1.7749       253.4747         1.8608       -16.2107      -999.0000 
  217.6272       568.5160      -999.0000        69.4751         1.7730       254.8952         1.8371       -16.3647      -999.0000 
  217.7796       571.8583      -999.0000        67.8364         1.7629       259.0479         1.8307       -16.0324      -999.0000 
  217.9320       574.5321      -999.0000        66.8287         1.7087       261.3708         1.8326       -15.5001      -999.0000 
  218.0844       581.6715      -999.0000        65.0145         1.7083       269.2549         1.8550       -14.9705      -999.0000 
  218.2368       589.9064      -999.0000        63.5742         1.7091       274.6507         1.8743       -14.4342      -999.0000 
  218.3892       593.2487      -999.0000        62.7347         1.7099       280.2525         1.8305       -14.2394      -999.0000 
  218.5416       595.2540      -999.0000        62.0270         1.7096       283.6778         1.7869       -13.3259      -999.0000 
  218.6940       596.5909      -999.0000        62.1631         1.6552       285.9403         1.7665       -13.5889      -999.0000 
  218.8464       597.9278      -999.0000        62.4365         1.6450       287.8467         1.7472       -13.9506      -999.0000 
  218.9988       603.0634      -999.0000        63.6724         1.6433       285.3284         1.7748       -14.5614      -999.0000 
  219.1512       610.6283      -999.0000        64.8852         1.6436       281.0593         1.7759       -14.6722      -999.0000 
  219.3036       618.6497      -999.0000        66.2166         1.6488       275.0740         1.7765       -15.5005      -999.0000 
  219.4560       622.6604      -999.0000        67.4260         1.5684       273.1237         1.7475       -16.2956      -999.0000 
  219.6084       623.9973      -999.0000        68.4087         1.5738       270.5261         1.7347       -16.3579      -999.0000 
  219.7608       626.0027      -999.0000        70.0096         1.5751       270.1744         1.7072       -15.9351      -999.0000 
  219.9132       626.0027      -999.0000        70.1412         1.5753       272.3624         1.7061       -15.2809      -999.0000 
  220.0656       624.4430      -999.0000        69.3372         1.5752       285.0651         1.6951       -14.3648      -999.0000 
  220.2180       622.6604      -999.0000        68.3519         1.5751       292.3485         1.7135       -14.6770      -999.0000 
  220.3704       621.9920      -999.0000        67.6202         1.5750       297.9009         1.7251       -15.0865      -999.0000 
  220.5228       625.2552      -999.0000        67.0003         1.5749       301.4035         1.7347       -14.9725      -999.0000 
  220.6752       630.0569      -999.0000        65.9398         1.5744       304.1509         1.7460       -14.7583      -999.0000 
  220.8276       632.7225      -999.0000        65.1774         1.5741       304.9570         1.7220       -14.5668      -999.0000 
  220.9800       632.6626      -999.0000        65.1383         1.5746       304.5552         1.6990       -14.4840      -999.0000 
  221.1324       622.4051      -999.0000        66.1686         1.6288       303.9403         1.6757       -14.3656      -999.0000 
  221.2848       613.9706      -999.0000        67.3672         1.6390       302.6212         1.6482       -14.3803      -999.0000 
  221.4372       611.2968      -999.0000        68.5512         1.6409       301.5942         1.6465       -14.7614      -999.0000 
  221.5896       612.6337      -999.0000        69.6348         1.6418       303.3160         1.7028       -15.1270      -999.0000 
  221.7420       611.9652      -999.0000        69.9702         1.6421       306.8358         1.7590       -15.4956      -999.0000 
  221.8944       607.2861      -999.0000        70.1347         1.6424       307.6687         1.7789       -15.7375      -999.0000 
  222.0468       604.6820      -999.0000        67.5629         1.6433       308.4288         1.7911       -16.1986      -999.0000 
  222.1992       599.2647      -999.0000        65.6814         1.6452       306.7199         1.7751       -16.3430      -999.0000 
  222.3516       597.9278      -999.0000        63.3944         1.6554       302.5865         1.7756       -17.1296      -999.0000 
  222.5040       593.2487      -999.0000        61.8814         1.7096       296.5129         1.7733       -17.8916      -999.0000 
  222.6564       590.5749      -999.0000        61.4547         1.7101       284.7448         1.8045       -17.9176      -999.0000 
  222.8088       589.9064      -999.0000        61.3241         1.7097       276.7947         1.8189       -17.6244      -999.0000 
  222.9612       593.8378      -999.0000        62.0571         1.7093       266.5354         1.8279       -17.3631      -999.0000 
