~VERSION INFORMATION
 VERS.                 2.0:   CWLS LOG ASCII STANDARD - VERSION 2.0
 WRAP.                  NO:   SINGLE LINE PER DEPTH STEP
~WELL INFORMATION
#MNEM.UNIT       DATA           DESCRIPTION MNEMONIC
#---------    -------------   --------------------------
 STRT.M         0.0000                      : START DEPTH
 STOP.M         3199.9428                     : STOP DEPTH
 STEP.M         0.1524                        : STEP VALUE
 NULL.          -999.0000                     : NULL VALUE
 SRVC.          PYPOZO                        : Service Company/Logging company
 DATE.          05/07/2025                    : LAS file Creation Date
 WELL    .      GASPAR-1                       : Well Name
 COMP    .      PYPOZO 2.0                    : Company
 FLD     .      UNKNOWN                       : Field
 LOC     .      UNKNOWN                       : Location
 LATI    .      0                             : Latitude/Northing
 LONG    .      0                             : Longitude/Easting
 APDAT   .      0                             : Elevation Above Permanent Datum
~CURVE INFORMATION
#MNEM          UNIT     API CODE   Curve Type Comments
#---------- ---------- ----------  ---------- --------
 DEPTH     .M                    : Depth      
 CILD      .MM/M                       : CILD       
 DT        .US/F                       : DT         
 GR        .GAPI                       : GR         
 ILD       .OHMM                       : ILD        
 NEUT      .GAPI                       : NEUT       
 SN        .OHMM                       : SN         
 SP        .MV                         : SP         
 SPHI      .V/V                        : SPHI       
~A Log data section
# ...
 1701.2412       153.8219        76.6298        48.0342         6.5060      1756.6036         7.3764       -85.1789         0.2282 
 1701.3936       155.9365        80.4484        48.2591         6.4125      1731.8728         7.2446       -85.1826         0.2545 
 1701.5460       160.4529        69.9633        48.3274         6.2489      1694.3046         7.2516       -85.1862         0.1824 
 1701.6984       163.8852        70.0096        48.4704         6.0840      1653.4981         7.2351       -84.8904         0.1828 
 1701.8508       167.2230        71.7711        49.2344         5.9782      1612.7399         7.2340       -84.8941         0.1949 
 1702.0032       166.4775        74.8242        49.8772         6.0222      1558.8726         7.2217       -84.5984         0.2158 
 1702.1556       164.5527        76.3874        50.5714         6.0846      1546.0868         7.1963       -84.6020         0.2266 
 1702.3080       163.2176        75.8201        50.8672         6.0962      1578.9984         7.1792       -84.6057         0.2227 
 1702.4604       164.1941        75.0277        50.5387         6.1020      1594.8574         7.2243       -84.3099         0.2172 
 1702.6128       166.5554        73.0429        48.5963         6.0125      1605.4208         7.2600       -84.3136         0.2036 
 1702.7652       167.8905        71.7121        47.2145         5.9637      1588.3348         7.2575       -84.3172         0.1945 
 1702.9176       167.8905        71.5531        46.5082         5.9645      1567.7535         7.1702       -84.3209         0.1934 
 1703.0700       166.4174        73.1770        46.6336         6.0187      1551.5503         7.1275       -84.3245         0.2045 
 1703.2224       164.5527        75.8987        46.5597         6.0792      1535.6783         7.0870       -84.3282         0.2232 
 1703.3748       162.5501        76.7967        46.2156         6.1771      1531.8227         7.0747       -84.3318         0.2294 
 1703.5272       163.8852        77.2917        46.2293         6.0938      1530.4304         7.1295       -84.3355         0.2328 
 1703.6796       164.5527        76.8727        46.6644         6.0947      1527.8684         7.1392       -84.3391         0.2299 
 1703.8320       165.2203        74.7343        47.4843         6.0253      1516.0572         7.2019       -84.3428         0.2152 
 1703.9844       161.4303        73.0040        47.9964         6.2011      1501.2566         7.1660       -84.3464         0.2033 
 1704.1368       162.4151        73.1208        47.7654         6.1670      1481.5931         7.2602       -84.3501         0.2041 
 1704.2892       160.5474        73.6357        47.4896         6.2358      1472.1783         7.2657       -84.3537         0.2077 
 1704.4416       159.2123        74.2148        47.4849         6.3098      1476.0649         7.2212       -84.3574         0.2116 
 1704.5940       159.2123        73.9289        47.5475         6.3078      1485.9924         7.1151       -84.3610         0.2097 
 1704.7464       159.8798        73.4580        47.6095         6.2254      1487.4800         7.0599       -84.3647         0.2064 
 1704.8988       161.2150        73.4383        48.1954         6.2243      1491.9187         6.9789       -84.3683         0.2063 
 1705.0512       165.2263        73.7421        49.6176         6.0285      1514.0536         6.8679       -84.3720         0.2084 
 1705.2036       168.5581        74.2963        51.2564         5.9227      1540.0259         6.7478       -84.3756         0.2122 
 1705.3560       175.2336        74.0836        51.5663         5.6848      1552.5767         6.6688       -84.3793         0.2107 
 1705.5084       181.9092        72.2237        51.5657         5.5624      1562.1914         6.6183       -84.5267         0.1980 
 1705.6608       185.9146        69.9495        50.8676         5.3685      1559.0643         6.6048       -84.6860         0.1823 
 1705.8132       189.2523        69.9487        49.4821         5.2893      1542.9381         6.6191       -84.6896         0.1823 
 1705.9656       187.1276        71.0603        48.3667         5.3438      1525.4191         6.6675       -84.6933         0.1900 
 1706.1180       183.9119        72.8423        48.1335         5.4342      1506.2663         6.7375       -84.6969         0.2022 
 1706.2704       179.2390        74.0050        47.8020         5.5780      1491.5491         6.7521       -84.7006         0.2102 
 1706.4228       175.9557        74.8815        47.6875         5.6478      1482.5668         6.8397       -84.7042         0.2162 
 1706.5752       174.5313        74.6137        47.4521         5.7123      1476.7162         6.9694       -84.7079         0.2144 
 1706.7276       171.2388        73.8244        47.0361         5.7924      1475.6043         7.0043       -84.7115         0.2090 
 1706.8800       168.5364        74.5354        46.7759         5.8984      1478.0995         7.0210       -84.7152         0.2138 
 1707.0324       167.3024        75.3729        46.0496         5.9691      1491.3701         7.0451       -84.7188         0.2196 
 1707.1848       166.5554        75.6383        45.0480         6.0438      1519.6082         7.0607       -84.7225         0.2214 
 1707.3372       166.5554        75.3166        44.5228         6.0417      1541.8821         7.0610       -84.7262         0.2192 
 1707.4896       167.2230        72.4116        44.2701         5.9588      1569.3816         7.0845       -84.7298         0.1993 
 1707.6420       167.8905        71.5202        44.4392         5.9603      1572.4517         7.1122       -84.7335         0.1931 
 1707.7944       165.8879        71.4566        45.2089         6.0538      1567.5761         7.2450       -84.7371         0.1927 
 1707.9468       161.4425        71.9788        46.2568         6.2159      1562.2315         7.4169       -84.7408         0.1963 
 1708.0992       155.2069        72.6432        47.9962         6.4276      1555.9343         7.4844       -84.7444         0.2008 
 1708.2516       152.5367        72.4651        49.7315         6.6193      1549.1581         7.4018       -84.7481         0.1996 
 1708.4040       149.1989        72.6741        50.0972         6.7073      1544.4049         7.0964       -84.7517         0.2011 
 1708.5564       150.5340        73.4994        49.9994         6.6542      1540.8544         6.8750       -84.7554         0.2067 
 1708.7088       152.5367        74.0223        49.1438         6.5133      1537.6908         6.7144       -84.7590         0.2103 
 1708.8612       155.8745        73.8217        48.6282         6.4201      1539.9174         6.6350       -84.7627         0.2089 
 1709.0136       159.3429        73.0697        48.2039         6.2791      1547.5097         6.5135       -84.7663         0.2038 
 1709.1660       161.8825        73.5375        47.6961         6.1718      1558.0835         6.3585       -85.0694         0.2070 
 1709.3184       167.2230        73.1539        47.0359         5.9737      1563.8886         6.2782       -85.0730         0.2044 
 1709.4708       175.9012        72.4640        46.5622         5.6919      1573.4179         6.1179       -85.0767         0.1996 
 1709.6232       181.9092        70.7759        47.2849         5.4916      1575.5550         6.0698       -85.0803         0.1880 
 1709.7756       185.2470        69.0028        48.0580         5.3775      1567.8261         6.0075       -85.0840         0.1758 
 1709.9280       187.1370        67.6083        48.5775         5.3566      1551.9166         5.9457       -85.0876         0.1663 
 1710.0804       188.3621        70.7973        48.9640         5.3003      1543.9615         5.9111       -85.0913         0.1882 
 1710.2328       189.2523        73.8456        49.3767         5.2985      1551.9211         5.8842       -85.0949         0.2091 
 1710.3852       189.2523        74.4993        49.4580         5.2994      1553.5618         5.8766       -85.0986         0.2136 
