~VERSION INFORMATION
 VERS.                 2.0:   CWLS LOG ASCII STANDARD - VERSION 2.0
 WRAP.                  NO:   SINGLE LINE PER DEPTH STEP
~WELL INFORMATION
#MNEM.UNIT       DATA           DESCRIPTION MNEMONIC
#---------    -------------   --------------------------
 STRT.M         0.0000                      : START DEPTH
 STOP.M         3199.9428                     : STOP DEPTH
 STEP.M         0.1524                        : STEP VALUE
 NULL.          -999.0000                     : NULL VALUE
 SRVC.          PYPOZO                        : Service Company/Logging company
 DATE.          05/07/2025                    : LAS file Creation Date
 WELL    .      GASPAR-1                       : Well Name
 COMP    .      PYPOZO 2.0                    : Company
 FLD     .      UNKNOWN                       : Field
 LOC     .      UNKNOWN                       : Location
 LATI    .      0                             : Latitude/Northing
 LONG    .      0                             : Longitude/Easting
 APDAT   .      0                             : Elevation Above Permanent Datum
~CURVE INFORMATION
#MNEM          UNIT     API CODE   Curve Type Comments
#---------- ---------- ----------  ---------- --------
 DEPTH     .M                    : Depth      
 CILD      .MM/M                       : CILD       
 DT        .US/F                       : DT         
 GR        .GAPI                       : GR         
 ILD       .OHMM                       : ILD        
 NEUT      .GAPI                       : NEUT       
 SN        .OHMM                       : SN         
 SP        .MV                         : SP         
 SPHI      .V/V                        : SPHI       
~A Log data section
# ...
 2128.8756        75.7958        89.7061        25.3322        14.2333      1050.0439        16.1657      -109.2625         0.3180 
 2129.0280        99.2017        76.7456        26.3749        10.3667      1016.2783        15.0130      -106.2629         0.2290 
 2129.1804       122.6077        63.3688        27.2902         8.4375       982.4077        13.8602      -101.4670         0.1371 
 2129.3328       146.0137        57.1091        27.6990         7.0789       948.5006        13.2333       -95.7728         0.0942 
 2129.4852       158.5447        66.5444        28.2220         6.3687       914.7924        13.7000       -95.1685         0.1590 
 2129.6376       165.8879        80.4888        28.0230         6.1018       891.4281        14.5667       -94.8636         0.2547 
 2129.7900       168.5581        83.5131        27.6479         5.9778       862.3299        15.7427       -99.0497         0.2755 
 2129.9424       163.6085        65.6591        26.5382         6.0919       832.8614        16.7924      -103.8345         0.1529 
 2130.0948       151.3607        63.9536        25.4477         6.7096       803.3795        17.8420      -106.2242         0.1412 
 2130.2472       127.8285        62.4030        24.7931         7.7525       773.9180        18.8916      -108.6139         0.1305 
 2130.3996       105.4732        60.8190        24.1657        10.2656       746.0074        19.9413      -110.1054         0.1196 
 2130.5520        82.3805        59.8575        23.2554        12.4538       731.8432        20.9909      -112.1957         0.1130 
 2130.7044        62.4319        61.3020        22.5495        16.3112       724.3300        22.0406      -113.6871         0.1230 
 2130.8568        52.9693        62.4654        21.6513        19.0677       733.8549        23.0902      -115.4780         0.1309 
 2131.0092        47.1047        61.1376        20.9631        21.1913       754.8028        24.1399      -116.6701         0.1218 
 2131.1616        42.9273        65.9598        20.4696        23.1978       781.3093        25.0333      -117.7399         0.1549 
 2131.3140        40.4415        65.4421        20.2930        24.6248       813.3942        25.5667      -118.9258         0.1514 
 2131.4664        41.6888        68.3469        20.5540        23.9980       849.7393        25.8333      -119.9761         0.1713 
 2131.6188        44.3580        69.4094        20.5448        23.1391       885.9010        26.0333      -121.1563         0.1786 
 2131.7712        45.1078        67.4319        20.5690        22.1513       921.9140        26.2333      -122.0365         0.1651 
 2131.9236        45.0193        64.7003        20.5500        22.1821       957.3232        26.3667      -122.9180         0.1463 
 2132.0760        43.7415        61.9687        20.0796        22.9451       995.1444        26.4333      -123.7994         0.1275 
 2132.2284        43.7239        59.2980        19.7018        22.9798      1031.4983        26.7000      -124.5462         0.1092 
 2132.3808        43.7098        58.9153        18.9290        23.2902      1067.2126        26.8423      -125.2621         0.1066 
 2132.5332        47.0838        60.1032        18.1304        21.0257      1125.9031        26.9736      -126.0197         0.1147 
 2132.6856        49.0449        60.7253        17.3552        20.1101      1173.3315        27.2388      -126.7234         0.1190 
 2132.8380        49.7652        59.9975        16.8880        19.8383      1221.7492        27.5847      -127.4941         0.1140 
 2132.9904        50.0069        59.2621        16.3310        20.6665      1270.5886        28.2455      -128.3810         0.1089 
 2133.1428        48.3979        58.5382        15.7095        21.8763      1308.4614        28.9525      -128.8709         0.1040 
 2133.2952        47.0628        60.9180        15.2493        23.0938      1347.8293        29.6657      -129.2566         0.1203 
 2133.4476        45.0601        66.1860        14.7770        24.3136      1391.5987        30.3790      -129.4586         0.1565 
 2133.6000        42.3899        70.3152        14.3027        25.5294      1423.3672        31.0922      -129.7525         0.1849 
 2133.7524        40.3872        69.0617        13.8292        26.7272      1426.7123        31.6990      -130.0464         0.1762 
 2133.9048        37.7170        66.2426        13.4570        27.9782      1431.4216        32.8379      -130.0402         0.1569 
 2134.0572        34.8643        63.4233        13.3324        29.0559      1439.8209        33.0332      -130.0347         0.1375 
 2134.2096        30.3738        60.6042        13.3008        32.7998      1442.2682        33.2452      -130.3292         0.1182 
 2134.3620        29.0387        58.4094        13.3966        39.3248      1442.3879        33.1878      -130.0238         0.1031 
 2134.5144        31.0414        60.3147        13.7277        38.8213      1436.5270        32.9427      -129.9732         0.1162 
 2134.6668        33.0637        60.5549        14.0527        31.1212      1433.5528        32.7677      -129.7134         0.1178 
 2134.8192        34.9811        63.3418        14.3661        30.6397      1421.1229        32.7022      -129.6749         0.1370 
 2134.9716        36.4611        62.6008        15.0531        30.1238      1407.5425        32.6985      -129.4031         0.1319 
 2135.1240        36.9986        61.1474        15.5329        30.0906      1394.0509        32.6934      -129.3976         0.1219 
 2135.2764        37.0706        61.7997        15.8649        30.1606      1380.5607        32.7805      -129.3921         0.1264 
 2135.4288        36.3871        62.1019        15.8457        30.4037      1367.0622        33.0232      -129.3866         0.1284 
 2135.5812        37.7315        73.7311        15.8244        30.1721      1351.5438        33.2436      -129.3812         0.2083 
 2135.7336        37.6725        75.4846        15.3757        28.4073      1337.4788        33.7751      -129.3757         0.2204 
 2135.8860        37.1353        66.8294        14.7571        27.9983      1320.8020        34.1678      -129.6696         0.1609 
 2136.0384        35.6178        56.6521        13.9325        29.8882      1289.2125        34.5000      -129.9634         0.0910 
 2136.1908        34.4698        59.4251        13.1726        33.7544      1254.7746        34.8341      -129.9579         0.1101 
 2136.3432        32.9703        63.8254        12.8619        35.0684      1220.3070        35.1693      -130.2520         0.1403 
 2136.4956        31.0982        61.5145        12.8712        34.5744      1185.8245        35.5029      -130.5459         0.1244 
 2136.6480        31.6686        57.2483        13.0379        33.9101      1151.3967        35.8358      -130.8395         0.0951 
 2136.8004        31.7292        57.6556        13.3449        33.6163      1128.0015        36.1729      -130.8340         0.0979 
 2136.9528        31.7317        59.1334        13.8446        36.9160      1112.4985        36.4993      -130.8284         0.1081 
 2137.1052        28.9640        61.2856        14.3430        41.0256      1078.1611        36.8070      -130.8229         0.1228 
 2137.2576        26.3685        63.3084        14.8424        49.3821      1042.6573        37.1138      -130.8174         0.1367 
 2137.4100        24.3658        62.8268        15.4377        51.5146      1006.9304        37.2470      -130.8118         0.1334 
 2137.5624        21.6956        62.0393        15.9976        51.3648       970.5007        36.9784      -130.5069         0.1280 
 2137.7148        19.6929        60.7917        16.2873        64.1245       946.6220        36.8105      -130.5014         0.1194 
 2137.8672        17.1514        61.2890        16.2537        70.3333       935.1759        36.5367      -130.4958         0.1229 
 2138.0196        17.0815        61.5887        15.6983        73.6667       925.8713        36.2260      -130.4903         0.1249 
