~VERSION INFORMATION
 VERS.                 2.0:   CWLS LOG ASCII STANDARD - VERSION 2.0
 WRAP.                  NO:   SINGLE LINE PER DEPTH STEP
~WELL INFORMATION
#MNEM.UNIT       DATA           DESCRIPTION MNEMONIC
#---------    -------------   --------------------------
 STRT.M         0.0000                      : START DEPTH
 STOP.M         3199.9428                     : STOP DEPTH
 STEP.M         0.1524                        : STEP VALUE
 NULL.          -999.0000                     : NULL VALUE
 SRVC.          PYPOZO                        : Service Company/Logging company
 DATE.          05/07/2025                    : LAS file Creation Date
 WELL    .      GASPAR-1                       : Well Name
 COMP    .      PYPOZO 2.0                    : Company
 FLD     .      UNKNOWN                       : Field
 LOC     .      UNKNOWN                       : Location
 LATI    .      0                             : Latitude/Northing
 LONG    .      0                             : Longitude/Easting
 APDAT   .      0                             : Elevation Above Permanent Datum
~CURVE INFORMATION
#MNEM          UNIT     API CODE   Curve Type Comments
#---------- ---------- ----------  ---------- --------
 DEPTH     .M                    : Depth      
 CILD      .MM/M                       : CILD       
 DT        .US/F                       : DT         
 GR        .GAPI                       : GR         
 ILD       .OHMM                       : ILD        
 NEUT      .GAPI                       : NEUT       
 SN        .OHMM                       : SN         
 SP        .MV                         : SP         
 SPHI      .V/V                        : SPHI       
~A Log data section
# ...
 2342.6928        24.1358      -999.0000        12.4377       382.2222      3283.5355        47.9017      -102.3375      -999.0000 
 2342.8452        24.1540      -999.0000        12.6852       382.0990      3193.3403        47.8890      -102.3301      -999.0000 
 2342.9976        24.1722      -999.0000        12.4150       381.9759      3103.1391        47.8762      -102.3228      -999.0000 
 2343.1500        24.1903      -999.0000        11.9633       381.8527      3012.8878        47.8634      -102.3154      -999.0000 
 2343.3024        24.2085      -999.0000        11.0288       381.7295      2924.1140        47.8507      -102.3081      -999.0000 
 2343.4548        24.2267      -999.0000        10.3421       381.6063      2835.6862        47.8379      -102.3007      -999.0000 
 2343.6072        24.2449      -999.0000        10.2656       381.4831      2739.1926        47.8251      -102.2934      -999.0000 
 2343.7596        24.2630      -999.0000        10.3520       381.3600      2722.5618        47.8124      -102.2860      -999.0000 
 2343.9120        24.2812      -999.0000        10.6008       381.2368      2707.7833        47.7996      -102.2787      -999.0000 
 2344.0644        24.2994      -999.0000        10.8868       381.1136      2685.9985        47.7868      -102.2713      -999.0000 
 2344.2168        24.3175      -999.0000        11.0227       380.9904      2690.5320        47.7741      -102.2640      -999.0000 
 2344.3692        24.3357      -999.0000        11.1172       380.8672      2749.5774        47.7613      -102.2566      -999.0000 
 2344.5216        24.3539      -999.0000        11.1999       380.7441      2798.1687        47.7486      -102.2493      -999.0000 
 2344.6740        24.3720      -999.0000        11.5376       380.6209      2850.2728        47.7358      -102.2420      -999.0000 
 2344.8264        24.3902      -999.0000        11.8578       380.4977      2901.0276        47.7230      -102.2346      -999.0000 
 2344.9788        24.4084      -999.0000        12.8218       380.3745      2961.0773        47.7103      -102.2273      -999.0000 
 2345.1312        24.4266      -999.0000        13.8604       380.2514      3018.0298        47.6975      -102.2199      -999.0000 
 2345.2836        24.4447      -999.0000        14.5042       380.1282      3071.1887        47.6847      -102.2126      -999.0000 
 2345.4360        24.4629      -999.0000        15.8899       380.0050      3082.2114        47.6720      -102.2052      -999.0000 
 2345.5884        24.4811      -999.0000        17.4306       379.8818      3060.4463        47.6592      -102.1979      -999.0000 
 2345.7408        24.4992      -999.0000        20.0443       379.7586      3042.0137        47.6464      -102.1905      -999.0000 
 2345.8932        24.5174      -999.0000        22.9866       379.6355      3020.7225        47.6337      -102.1832      -999.0000 
 2346.0456        24.5356      -999.0000        25.8690       379.5123      3053.6881        47.6209      -102.1758      -999.0000 
 2346.1980        24.5538      -999.0000        28.6054       379.3891      3141.9770        47.6081      -102.1685      -999.0000 
 2346.3504        24.5719      -999.0000        30.2460       379.2659      3230.5286        47.5954      -102.1611      -999.0000 
 2346.5028        24.5901      -999.0000        30.8116       379.1427      3266.9621        47.5826      -102.1538      -999.0000 
 2346.6552        24.6083      -999.0000        30.9275       379.0196      3228.3454        47.5698      -102.1464      -999.0000 
 2346.8076        24.6264      -999.0000        30.5963       378.8964      3155.0959        47.5571      -102.1391      -999.0000 
 2346.9600        24.6446      -999.0000        28.8171       378.7732      3072.8518        47.5443      -102.1317      -999.0000 
 2347.1124        24.6628      -999.0000        27.0237       378.6500      2990.7950        47.5315      -102.1244      -999.0000 
 2347.2648        24.6810      -999.0000        25.4071       378.5268      2909.6193        47.5188      -102.1170      -999.0000 
 2347.4172        24.6991      -999.0000        24.0881       378.4037      2829.0786        47.5060      -102.1097      -999.0000 
 2347.5696        24.7173      -999.0000        23.1048       378.2805      2781.9250        47.4932      -102.1023      -999.0000 
 2347.7220        24.7355      -999.0000        22.2056       378.1573      2789.7716        47.4805      -102.0950      -999.0000 
 2347.8744        24.7536      -999.0000        21.5423       378.0341      2794.8974        47.4677      -102.0876      -999.0000 
 2348.0268        24.7718      -999.0000        19.9150       377.9109      2786.7651        47.4549      -102.0803      -999.0000 
 2348.1792        24.7900      -999.0000        17.6310       377.7878      2775.2424        47.4422      -102.0729      -999.0000 
 2348.3316        24.8081      -999.0000        16.3448       377.6646      2753.1573        47.4294      -102.0656      -999.0000 
 2348.4840        24.8263      -999.0000        14.2665       377.5414      2705.7565        47.4166      -102.0583      -999.0000 
 2348.6364        24.8445      -999.0000        13.7313       377.4182      2684.2755        47.4039      -102.0509      -999.0000 
 2348.7888        24.8627      -999.0000        13.0331       377.2950      2644.5067        47.3911      -102.0436      -999.0000 
 2348.9412        24.8808      -999.0000        12.8053       377.1719      2614.5715        47.3784      -102.0362      -999.0000 
 2349.0936        24.8990      -999.0000        12.6592       377.0487      2599.3899        47.3656      -102.0289      -999.0000 
 2349.2460        24.9172      -999.0000        12.6589       376.9255      2625.1169        47.3528      -102.0215      -999.0000 
 2349.3984        24.9353      -999.0000        12.4996       376.8023      2641.8004        47.3401      -102.0142      -999.0000 
 2349.5508        24.9535      -999.0000        12.1758       376.6791      2655.0253        47.3273      -102.0068      -999.0000 
 2349.7032        24.9717      -999.0000        11.8215       376.5560      2664.5880        47.3145      -101.9995      -999.0000 
 2349.8556        24.9899      -999.0000        11.1236       376.4328      2766.2851        47.3018      -101.9921      -999.0000 
 2350.0080        25.0080      -999.0000        10.2604       376.3096      2859.6722        47.2890      -101.9848      -999.0000 
 2350.1604        25.0262      -999.0000         9.3915       376.1864      2953.6587        47.2762      -101.9774      -999.0000 
 2350.3128        25.0444      -999.0000         8.8029       376.0633      3045.7530        47.2635      -101.9701      -999.0000 
 2350.4652        25.0625      -999.0000         8.4121       375.9401      3114.4617        47.2507      -101.9627      -999.0000 
 2350.6176        25.0807      -999.0000         8.2138       375.8169      3193.2205        47.2379      -101.9554      -999.0000 
 2350.7700        25.0989      -999.0000         8.4448       375.6937      3274.6947        47.2252      -101.9480      -999.0000 
 2350.9224        25.1170      -999.0000         8.6388       375.5705      3356.7340        47.2124      -101.9407      -999.0000 
 2351.0748        25.1352      -999.0000         9.0117       375.4474      3382.8825        47.1996      -101.9333      -999.0000 
 2351.2272        25.1534      -999.0000         9.3108       375.3242      3400.2417        47.1869      -101.9260      -999.0000 
 2351.3796        25.1716      -999.0000         9.2815       375.2010      3409.0778        47.1741      -101.9186      -999.0000 
 2351.5320        25.1897      -999.0000         9.3362       375.0778      3415.4346        47.1613      -101.9113      -999.0000 
 2351.6844        25.2079      -999.0000         9.2969       374.9546      3410.7362        47.1486      -101.9039      -999.0000 
 2351.8368        25.2261      -999.0000         9.0273       374.8315      3405.0721        47.1358      -101.8966      -999.0000 
