~VERSION INFORMATION
 VERS.                 2.0:   CWLS LOG ASCII STANDARD - VERSION 2.0
 WRAP.                  NO:   SINGLE LINE PER DEPTH STEP
~WELL INFORMATION
#MNEM.UNIT       DATA           DESCRIPTION MNEMONIC
#---------    -------------   --------------------------
 STRT.M         0.0000                      : START DEPTH
 STOP.M         3199.9428                     : STOP DEPTH
 STEP.M         0.1524                        : STEP VALUE
 NULL.          -999.0000                     : NULL VALUE
 SRVC.          PYPOZO                        : Service Company/Logging company
 DATE.          05/07/2025                    : LAS file Creation Date
 WELL    .      GASPAR-1                       : Well Name
 COMP    .      PYPOZO 2.0                    : Company
 FLD     .      UNKNOWN                       : Field
 LOC     .      UNKNOWN                       : Location
 LATI    .      0                             : Latitude/Northing
 LONG    .      0                             : Longitude/Easting
 APDAT   .      0                             : Elevation Above Permanent Datum
~CURVE INFORMATION
#MNEM          UNIT     API CODE   Curve Type Comments
#---------- ---------- ----------  ---------- --------
 DEPTH     .M                    : Depth      
 CILD      .MM/M                       : CILD       
 DT        .US/F                       : DT         
 GR        .GAPI                       : GR         
 ILD       .OHMM                       : ILD        
 NEUT      .GAPI                       : NEUT       
 SN        .OHMM                       : SN         
 SP        .MV                         : SP         
 SPHI      .V/V                        : SPHI       
~A Log data section
# ...
 1059.7896       798.4573       114.7957        46.8725         1.2329      1144.9483         1.4218       -89.6410         0.4904 
 1059.9420       809.7415       112.7721        47.6644         1.2313      1147.6758         1.4015       -89.6410         0.4765 
 1060.0944       821.0257       112.3512        48.4617         1.2298      1141.4094         1.3950       -89.6410         0.4736 
 1060.2468       832.3099       111.9268        48.6718         1.2203      1134.2214         1.4014       -89.6410         0.4707 
 1060.3992       843.4579       111.9495        48.8823         1.1665      1128.8001         1.3921       -89.6410         0.4708 
 1060.5516       847.5293       113.8690        49.1097         1.1659      1122.6966         1.4100       -89.6410         0.4840 
 1060.7040       852.8791       115.6679        48.9760         1.1661      1125.1910         1.3954       -89.6410         0.4963 
 1060.8564       858.0550       119.7077        48.6081         1.1664      1130.1125         1.3988       -89.6410         0.5241 
 1061.0088       868.2841       122.1437        48.3361         1.1666      1135.0315         1.3947       -89.6410         0.5408 
 1061.1612       870.0941       123.0527        48.1037         1.1667      1139.8341         1.3805       -89.6410         0.5471 
 1061.3136       869.5506       123.5720        48.3202         1.1667      1147.6467         1.3797       -89.6409         0.5506 
 1061.4660       865.4873       123.4319        48.9287         1.1667      1154.2623         1.3775       -89.6409         0.5497 
 1061.6184       861.4820       115.4222        49.4642         1.1667      1162.8513         1.3667       -89.6409         0.4947 
 1061.7708       864.1522       115.1860        49.9370         1.1667      1162.0485         1.3665       -89.6409         0.4930 
 1061.9232       872.1629       116.4807        50.5968         1.1667      1165.2312         1.3666       -89.6409         0.5019 
 1062.0756       878.8385       117.7332        51.1178         1.1669      1165.5995         1.3666       -89.6409         0.5105 
 1062.2280       878.8385       119.2365        51.3873         1.1672      1166.6094         1.3666       -89.6409         0.5209 
 1062.3804       878.8385       119.9758        51.4136         1.1674      1168.2906         1.3664       -89.6409         0.5259 
 1062.5328       878.8385       119.8281        51.4616         1.1668      1164.1900         1.3661       -89.6409         0.5249 
 1062.6852       883.0099       119.2813        51.6839         1.1129      1155.2836         1.3641       -89.6409         0.5212 
 1062.8376       890.6694       118.5094        51.5887         1.1030      1145.9500         1.3535       -89.6409         0.5159 
 1062.9900       898.8652       117.5794        50.7431         1.1010      1139.6315         1.3568       -89.6408         0.5095 
 1063.1424       900.2003       117.1781        49.6076         1.0989      1138.5087         1.3729       -89.6408         0.5067 
 1063.2948       894.7389       116.4898        49.0253         1.0936      1136.8922         1.3818       -89.6408         0.5020 
 1063.4472       874.5206       116.3898        48.6216         1.1748      1134.8370         1.4108       -89.6408         0.5013 
 1063.5996       854.3024       116.6448        49.3333         1.1715      1133.5433         1.4321       -89.6408         0.5031 
 1063.7520       834.0841       119.0568        50.3059         1.1810      1134.5086         1.4590       -89.6408         0.5196 
 1063.9044       813.8690       122.5971        51.9237         1.2367      1134.8422         1.4857       -89.6408         0.5439 
 1064.0568       793.6310       123.3210        53.0757         1.2481      1132.2822         1.5122       -89.6408         0.5489 
 1064.2092       773.4401       122.6432        53.5061         1.3036      1130.7909         1.5385       -89.6408         0.5443 
 1064.3616       753.0630       120.8087        53.5186         1.3138      1139.9777         1.5521       -89.6408         0.5317 
 1064.5140       733.1605       118.4673        51.9000         1.3674      1149.7388         1.5664       -89.6407         0.5156 
 1064.6664       719.2924       115.4497        50.8000         1.3677      1158.0257         1.5798       -89.6407         0.4948 
 1064.8188       717.9573       112.4013        50.8188         1.3673      1166.6794         1.5932       -89.6407         0.4739 
 1064.9712       720.6275       110.0061        51.0631         1.3669      1172.9584         1.6058       -89.6407         0.4575 
 1065.1236       722.6302       110.4088        51.4115         1.3667      1174.3584         1.5912       -89.6407         0.4602 
 1065.2760       724.6328       110.9289        51.5467         1.3667      1174.5678         1.5831       -89.6407         0.4638 
 1065.4284       725.3004       107.9830        51.2319         1.3667      1171.2567         1.5698       -89.6407         0.4436 
 1065.5808       727.3031       109.5163        50.6406         1.3667      1158.0913         1.5698       -89.6407         0.4541 
 1065.7332       732.6435       110.6193        49.9336         1.3667      1149.4187         1.5803       -89.6407         0.4617 
 1065.8856       741.3218       111.4787        49.1495         1.3667      1145.1901         1.5814       -89.6407         0.4676 
 1066.0380       741.3218       112.0636        47.4303         1.3667      1148.1675         1.5897       -89.6407         0.4716 
 1066.1904       738.6515       112.6692        47.8640         1.3667      1153.1073         1.5979       -89.6406         0.4758 
 1066.3428       731.0136       112.1606        48.1784         1.3667      1160.2550         1.6060       -89.6406         0.4723 
 1066.4952       723.9653       110.3920        48.6293         1.3667      1167.6420         1.6063       -89.6406         0.4601 
 1066.6476       720.6275       110.1247        49.2349         1.3664      1174.4378         1.6173       -89.6406         0.4583 
 1066.8000       719.2924       110.2273        49.3707         1.3651      1181.9866         1.6303       -89.6406         0.4590 
 1066.9524       716.7304       110.8496        49.7239         1.3598      1185.9704         1.6436       -89.6406         0.4633 
 1067.1048       711.7188       110.9995        50.4868         1.4402      1195.2128         1.6275       -89.6406         0.4643 
 1067.2572       706.1376       110.6078        50.9074         1.4352      1198.4421         1.6329       -89.6406         0.4616 
 1067.4096       700.4412       109.8431        50.6935         1.4347      1201.7182         1.6488       -89.6406         0.4563 
 1067.5620       694.5937       109.6099        50.1414         1.4360      1198.5750         1.6598       -89.6406         0.4547 
 1067.7144       684.3145       108.5514        49.9180         1.4456      1186.6486         1.6915       -89.6406         0.4475 
 1067.8668       673.6946       107.9306        50.3430         1.4994      1176.5768         1.7402       -89.6405         0.4432 
 1068.0192       663.0969       107.8703        51.2930         1.5008      1162.6644         1.7744       -89.6405         0.4428 
 1068.1716       652.4992       108.5580        52.2807         1.5542      1153.1092         1.8051       -89.6405         0.4475 
 1068.3240       641.9015       109.1304        53.2780         1.5624      1142.9706         1.8046       -89.6405         0.4514 
 1068.4764       631.3038       108.4687        53.7907         1.5586      1132.3349         1.7962       -89.6405         0.4469 
 1068.6288       620.5377       105.8030        53.6260         1.6394      1127.9639         1.8082       -89.6405         0.4286 
 1068.7812       616.9917       104.3928        52.3726         1.6336      1127.9170         1.7926       -89.6405         0.4189 
 1068.9336       620.5676       103.2976        50.8402         1.6306      1131.9620         1.7851       -89.6405         0.4114 
