~VERSION INFORMATION
 VERS.                 2.0:   CWLS LOG ASCII STANDARD - VERSION 2.0
 WRAP.                  NO:   SINGLE LINE PER DEPTH STEP
~WELL INFORMATION
#MNEM.UNIT       DATA           DESCRIPTION MNEMONIC
#---------    -------------   --------------------------
 STRT.M         0.0000                      : START DEPTH
 STOP.M         3199.9428                     : STOP DEPTH
 STEP.M         0.1524                        : STEP VALUE
 NULL.          -999.0000                     : NULL VALUE
 SRVC.          PYPOZO                        : Service Company/Logging company
 DATE.          05/07/2025                    : LAS file Creation Date
 WELL    .      GASPAR-1                       : Well Name
 COMP    .      PYPOZO 2.0                    : Company
 FLD     .      UNKNOWN                       : Field
 LOC     .      UNKNOWN                       : Location
 LATI    .      0                             : Latitude/Northing
 LONG    .      0                             : Longitude/Easting
 APDAT   .      0                             : Elevation Above Permanent Datum
~CURVE INFORMATION
#MNEM          UNIT     API CODE   Curve Type Comments
#---------- ---------- ----------  ---------- --------
 DEPTH     .M                    : Depth      
 CILD      .MM/M                       : CILD       
 DT        .US/F                       : DT         
 GR        .GAPI                       : GR         
 ILD       .OHMM                       : ILD        
 NEUT      .GAPI                       : NEUT       
 SN        .OHMM                       : SN         
 SP        .MV                         : SP         
 SPHI      .V/V                        : SPHI       
~A Log data section
# ...
 2547.2136        48.5209      -999.0000       126.6773       216.9155      1737.9093        30.7704       -92.4766      -999.0000 
 2547.3660        48.5391      -999.0000       119.8303       216.7923      1705.9473        30.7576       -92.4692      -999.0000 
 2547.5184        48.5572      -999.0000       112.9329       216.6691      1653.7109        30.7448       -92.4619      -999.0000 
 2547.6708        48.5754      -999.0000       106.0283       216.5460      1609.4812        30.7321       -92.4545      -999.0000 
 2547.8232        48.5936      -999.0000       105.4014       216.4228      1559.9024        30.7193       -92.4472      -999.0000 
 2547.9756        48.6117      -999.0000       107.3427       216.2996      1446.9475        30.7065       -92.4398      -999.0000 
 2548.1280        48.6299      -999.0000       113.1234       216.1764      1419.3562        30.6938       -92.4325      -999.0000 
 2548.2804        48.6481      -999.0000       119.5973       216.0532      1412.2570        30.6810       -92.4251      -999.0000 
 2548.4328        48.6663      -999.0000       126.0159       215.9301      1443.1812        30.6683       -92.4178      -999.0000 
 2548.5852        48.6844      -999.0000       131.0916       215.8069      1490.1364        30.6555       -92.4104      -999.0000 
 2548.7376        48.7026      -999.0000       126.9639       215.6837      1547.2786        30.6427       -92.4031      -999.0000 
 2548.8900        48.7208      -999.0000       122.7950       215.5605      1598.8925        30.6300       -92.3957      -999.0000 
 2549.0424        48.7389      -999.0000       118.6406       215.4373      1676.0833        30.6172       -92.3884      -999.0000 
 2549.1948        48.7571      -999.0000       114.5146       215.3142      1744.7574        30.6044       -92.3810      -999.0000 
 2549.3472        48.7753      -999.0000       113.9400       215.1910      1761.6666        30.5917       -92.3737      -999.0000 
 2549.4996        48.7935      -999.0000       117.9909       215.0678      1792.8541        30.5789       -92.3663      -999.0000 
 2549.6520        48.8116      -999.0000       122.0067       214.9446      1808.5401        30.5661       -92.3590      -999.0000 
 2549.8044        48.8298      -999.0000       126.0434       214.8215      1795.1525        30.5534       -92.3516      -999.0000 
 2549.9568        48.8480      -999.0000       129.5535       214.6983      1775.0392        30.5406       -92.3443      -999.0000 
 2550.1092        48.8661      -999.0000       129.2659       214.5751      1740.9729        30.5278       -92.3369      -999.0000 
 2550.2616        48.8843      -999.0000       123.5487       214.4519      1669.2228        30.5151       -92.3296      -999.0000 
 2550.4140        48.9025      -999.0000       118.6400       214.3287      1631.7416        30.5023       -92.3223      -999.0000 
 2550.5664        48.9207      -999.0000       116.0735       214.2056      1571.0883        30.4895       -92.3149      -999.0000 
 2550.7188        48.9388      -999.0000       115.9849       214.0824      1536.4418        30.4768       -92.3076      -999.0000 
 2550.8712        48.9570      -999.0000       117.2133       213.9592      1536.6100        30.4640       -92.3002      -999.0000 
 2551.0236        48.9752      -999.0000       116.8485       213.8360      1561.9834        30.4512       -92.2929      -999.0000 
 2551.1760        48.9933      -999.0000       116.2681       213.7128      1620.2885        30.4385       -92.2855      -999.0000 
 2551.3284        49.0115      -999.0000       116.5436       213.5897      1654.7559        30.4257       -92.2782      -999.0000 
 2551.4808        49.0297      -999.0000       115.6414       213.4665      1689.7706        30.4129       -92.2708      -999.0000 
 2551.6332        49.0478      -999.0000       112.9278       213.3433      1711.4585        30.4002       -92.2635      -999.0000 
 2551.7856        49.0660      -999.0000       106.6680       213.2201      1719.1270        30.3874       -92.2561      -999.0000 
 2551.9380        49.0842      -999.0000       100.4830       213.0969      1730.8007        30.3746       -92.2488      -999.0000 
 2552.0904        49.1024      -999.0000        99.4564       212.9738      1768.4228        30.3619       -92.2414      -999.0000 
 2552.2428        49.1205      -999.0000       103.0484       212.8506      1783.4259        30.3491       -92.2341      -999.0000 
 2552.3952        49.1387      -999.0000       106.6785       212.7274      1806.0594        30.3363       -92.2267      -999.0000 
 2552.5476        49.1569      -999.0000       110.3256       212.6042      1842.3118        30.3236       -92.2194      -999.0000 
 2552.7000        49.1750      -999.0000       113.9851       212.4810      1888.5544        30.3108       -92.2120      -999.0000 
 2552.8524        49.1932      -999.0000       117.6941       212.3579      1936.7945        30.2981       -92.2047      -999.0000 
 2553.0048        49.2114      -999.0000       119.1753       212.2347      1970.0737        30.2853       -92.1973      -999.0000 
 2553.1572        49.2296      -999.0000       113.7162       212.1115      1980.3575        30.2725       -92.1900      -999.0000 
 2553.3096        49.2477      -999.0000       109.5146       211.9883      1972.9861        30.2598       -92.1826      -999.0000 
 2553.4620        49.2659      -999.0000       105.6591       211.8651      1965.0081        30.2470       -92.1753      -999.0000 
 2553.6144        49.2841      -999.0000       104.6153       211.7420      1958.3903        30.2342       -92.1679      -999.0000 
 2553.7668        49.3022      -999.0000       108.1723       211.6188      1945.1383        30.2215       -92.1606      -999.0000 
 2553.9192        49.3204      -999.0000       112.6924       211.4956      1905.7187        30.2087       -92.1533      -999.0000 
 2554.0716        49.3386      -999.0000       117.1886       211.3724      1867.5393        30.1959       -92.1459      -999.0000 
 2554.2240        49.3567      -999.0000       121.3185       211.2493      1829.7047        30.1832       -92.1386      -999.0000 
 2554.3764        49.3749      -999.0000       121.5889       211.1261      1823.0103        30.1704       -92.1312      -999.0000 
 2554.5288        49.3931      -999.0000       120.5712       211.0029      1830.8497        30.1576       -92.1239      -999.0000 
 2554.6812        49.4113      -999.0000       118.9302       210.8797      1867.8427        30.1449       -92.1165      -999.0000 
 2554.8336        49.4294      -999.0000       116.1076       210.7565      1905.0014        30.1321       -92.1092      -999.0000 
 2554.9860        49.4476      -999.0000       111.0266       210.6334      1945.0671        30.1193       -92.1018      -999.0000 
 2555.1384        49.4658      -999.0000       106.0434       210.5102      1986.7626        30.1066       -92.0945      -999.0000 
 2555.2908        49.4839      -999.0000       101.0734       210.3870      2010.1595        30.0938       -92.0871      -999.0000 
 2555.4432        49.5021      -999.0000        96.1016       210.2638      2041.9422        30.0810       -92.0798      -999.0000 
 2555.5956        49.5203      -999.0000        91.1167       210.1406      2098.2410        30.0683       -92.0724      -999.0000 
 2555.7480        49.5385      -999.0000        86.1062       210.0175      2132.8228        30.0555       -92.0651      -999.0000 
 2555.9004        49.5566      -999.0000        84.4003       209.8943      2129.8711        30.0427       -92.0577      -999.0000 
 2556.0528        49.5748      -999.0000        89.3158       209.7711      2106.8981        30.0300       -92.0504      -999.0000 
 2556.2052        49.5930      -999.0000        96.3413       209.6479      2084.2129        30.0172       -92.0430      -999.0000 
 2556.3576        49.6111      -999.0000       103.4095       209.5247      2061.4028        30.0044       -92.0357      -999.0000 
