~VERSION INFORMATION
 VERS.                 2.0:   CWLS LOG ASCII STANDARD - VERSION 2.0
 WRAP.                  NO:   SINGLE LINE PER DEPTH STEP
~WELL INFORMATION
#MNEM.UNIT       DATA           DESCRIPTION MNEMONIC
#---------    -------------   --------------------------
 STRT.M         0.0000                      : START DEPTH
 STOP.M         3199.9428                     : STOP DEPTH
 STEP.M         0.1524                        : STEP VALUE
 NULL.          -999.0000                     : NULL VALUE
 SRVC.          PYPOZO                        : Service Company/Logging company
 DATE.          05/07/2025                    : LAS file Creation Date
 WELL    .      GASPAR-1                       : Well Name
 COMP    .      PYPOZO 2.0                    : Company
 FLD     .      UNKNOWN                       : Field
 LOC     .      UNKNOWN                       : Location
 LATI    .      0                             : Latitude/Northing
 LONG    .      0                             : Longitude/Easting
 APDAT   .      0                             : Elevation Above Permanent Datum
~CURVE INFORMATION
#MNEM          UNIT     API CODE   Curve Type Comments
#---------- ---------- ----------  ---------- --------
 DEPTH     .M                    : Depth      
 CILD      .MM/M                       : CILD       
 DT        .US/F                       : DT         
 GR        .GAPI                       : GR         
 ILD       .OHMM                       : ILD        
 NEUT      .GAPI                       : NEUT       
 SN        .OHMM                       : SN         
 SP        .MV                         : SP         
 SPHI      .V/V                        : SPHI       
~A Log data section
# ...
  427.6344       538.4165       115.9487        48.4958         1.8364      1113.2319         1.9930       -96.1650         0.4983 
  427.7868       536.4640       115.7967        50.0404         1.8462      1116.8930         1.9828       -96.1614         0.4972 
  427.9392       533.0252       115.7340        51.1928         1.9001      1119.0750         1.9822       -96.1577         0.4968 
  428.0916       529.4746       115.2579        52.6661         1.9008      1125.2263         1.9803       -96.1541         0.4935 
  428.2440       525.9431       114.2297        53.7886         1.9006      1129.4543         1.9905       -96.1504         0.4865 
  428.3964       522.4624       114.7989        53.9486         1.9002      1130.8855         1.9903       -96.1468         0.4904 
  428.5488       519.6929       118.1219        53.6310         1.9001      1132.0369         1.9798       -96.1431         0.5132 
  428.7012       518.3578       121.7100        52.8608         1.8999      1130.1566         1.9801       -96.1395         0.5378 
  428.8536       519.0254       125.2279        51.9994         1.8999      1127.6592         1.9813       -96.1358         0.5620 
  429.0060       521.0280       124.4239        51.3828         1.9002      1124.1789         1.9659       -96.1322         0.5565 
  429.1584       527.0360       121.6578        50.9227         1.9015      1119.8848         1.9691       -96.1285         0.5375 
  429.3108       533.0441       118.4578        50.9091         1.9068      1118.4577         1.9714       -96.1249         0.5155 
  429.4632       537.0494       115.7663        51.1389         1.8265      1114.4438         1.9735       -96.1212         0.4970 
  429.6156       539.7196       115.2508        51.3760         1.8319      1112.0889         1.9756       -96.1176         0.4935 
  429.7680       544.3925       117.7693        51.6121         1.8333      1109.2092         1.9776       -96.1139         0.5108 
  429.9204       547.0628       120.4996        51.7753         1.8340      1109.3375         1.9796       -96.1103         0.5295 
  430.0728       550.4005       123.2336        51.6276         1.8342      1110.1365         1.9709       -96.1066         0.5483 
  430.2252       552.4032       125.6871        51.4632         1.8334      1111.2950         1.9603       -96.1030         0.5652 
  430.3776       557.0761       125.1273        50.9535         1.7795      1118.5787         1.9496       -96.0993         0.5613 
  430.5300       561.7490       123.1387        49.8276         1.7696      1131.2718         1.9388       -96.0957         0.5477 
  430.6824       560.4139       120.8893        48.6094         1.7679      1139.4916         1.9277       -96.0920         0.5322 
  430.8348       558.4112       118.6399        48.0229         1.7670      1143.6828         1.9156       -96.0884         0.5168 
  430.9872       558.4112       116.3905        47.7698         1.7668      1146.8914         1.9254       -96.0847         0.5013 
  431.1396       561.7490       114.0961        47.7144         1.7670      1151.9846         1.9156       -96.0811         0.4856 
  431.2920       563.7517       112.3456        47.9919         1.7679      1154.2766         1.9194       -96.0774         0.4735 
  431.4444       561.7490       112.2212        48.0948         1.7695      1156.1705         1.9275       -96.0738         0.4727 
  431.5968       556.4085       113.5774        47.8971         1.7794      1156.3399         1.9358       -96.0701         0.4820 
  431.7492       551.7356       115.1241        47.4880         1.8337      1157.5135         1.9444       -96.0665         0.4926 
  431.9016       548.3979       116.3050        47.2272         1.8360      1154.8688         1.9546       -96.0628         0.5007 
  432.0540       553.7383       117.2659        46.4257         1.8419      1155.5590         1.9632       -96.0592         0.5073 
  432.2064       558.4112       118.0518        45.9468         1.7630      1156.3315         1.9572       -96.2548         0.5127 
  432.3588       555.6930       118.1235        45.8761         1.7781      1157.3489         1.9510       -96.3512         0.5132 
  432.5112       553.7157       118.1166        46.2203         1.8332      1156.3776         1.9448       -96.3476         0.5132 
  432.6636       551.7857       118.6123        46.2754         1.8342      1148.0096         1.9386       -96.3439         0.5166 
  432.8160       549.6887       119.2868        46.0357         1.8339      1136.0002         1.9325       -96.3402         0.5212 
  432.9684       549.0933       120.6879        46.1337         1.8336      1129.2943         1.9268       -96.6361         0.5308 
  433.1208       549.0654       122.1779        46.3481         1.8336      1121.4512         1.9268       -96.6323         0.5411 
  433.2732       549.7330       124.3804        46.5932         1.8339      1117.1864         1.9269       -96.6286         0.5562 
  433.4256       551.7356       124.9451        46.9835         1.8341      1109.4363         1.9267       -96.6251         0.5601 
  433.5780       552.4032       124.1257        46.8871         1.8334      1107.6026         1.9257       -96.6215         0.5544 
  433.7304       557.0761       122.5516        45.6152         1.7798      1109.0094         1.9012       -96.6178         0.5436 
  433.8828       562.4166       120.9996        45.1081         1.7714      1106.4302         1.8711       -96.6997         0.5330 
  434.0352       571.6007       119.8255        45.5481         1.7753      1096.3439         1.8442       -96.9096         0.5249 
  434.1876       582.0019       119.8407        46.2192         1.6943      1086.9633         1.8197       -96.9059         0.5250 
  434.3400       592.4031       120.2301        47.4611         1.6983      1077.9575         1.8060       -96.9023         0.5277 
  434.4924       602.8044       119.7015        48.2224         1.6447      1075.7977         1.7799       -96.8989         0.5240 
  434.6448       613.2056       118.1199        49.5604         1.6334      1074.5721         1.7647       -97.0142         0.5132 
  434.7972       623.6069       118.5782        50.0027         1.6218      1074.5989         1.7660       -97.1910         0.5163 
  434.9496       634.0081       119.1770        49.7677         1.5669      1078.1226         1.7658       -97.1870         0.5204 
  435.1020       640.5207       119.8394        49.3077         1.5659      1086.3073         1.7825       -97.1833         0.5250 
  435.2544       642.5234       121.2255        49.1391         1.5661      1095.8605         1.7835       -97.1796         0.5345 
  435.4068       643.8585       120.7423        49.2420         1.5664      1106.9858         1.7745       -97.1759         0.5312 
  435.5592       644.5260       119.0284        49.3600         1.5666      1113.8134         1.7842       -97.1723         0.5194 
  435.7116       644.5260       117.2456        49.3385         1.5666      1120.2331         1.7985       -97.1686         0.5072 
  435.8640       643.1909       115.6251        48.7858         1.5664      1121.1623         1.8129       -96.8655         0.4961 
  436.0164       641.1883       114.4834        48.5248         1.5661      1125.2383         1.8276       -96.8619         0.4882 
  436.1688       635.4322       114.0282        48.3473         1.5659      1130.4206         1.8424       -96.8582         0.4851 
  436.3212       629.3228       115.6636        48.3403         1.5665      1138.1106         1.8571       -96.5551         0.4963 
  436.4736       623.2134       116.5583        48.4485         1.6203      1151.5785         1.8716       -96.5514         0.5025 
  436.6260       617.1039       117.5756        48.6920         1.6298      1155.6923         1.8845       -96.2484         0.5094 
  436.7784       610.9945       117.1954        49.3279         1.6313      1154.5277         1.9155       -96.2447         0.5068 
