~VERSION INFORMATION
 VERS.                 2.0:   CWLS LOG ASCII STANDARD - VERSION 2.0
 WRAP.                  NO:   SINGLE LINE PER DEPTH STEP
~WELL INFORMATION
#MNEM.UNIT       DATA           DESCRIPTION MNEMONIC
#---------    -------------   --------------------------
 STRT.M         0.0000                      : START DEPTH
 STOP.M         3199.9428                     : STOP DEPTH
 STEP.M         0.1524                        : STEP VALUE
 NULL.          -999.0000                     : NULL VALUE
 SRVC.          PYPOZO                        : Service Company/Logging company
 DATE.          05/07/2025                    : LAS file Creation Date
 WELL    .      GASPAR-1                       : Well Name
 COMP    .      PYPOZO 2.0                    : Company
 FLD     .      UNKNOWN                       : Field
 LOC     .      UNKNOWN                       : Location
 LATI    .      0                             : Latitude/Northing
 LONG    .      0                             : Longitude/Easting
 APDAT   .      0                             : Elevation Above Permanent Datum
~CURVE INFORMATION
#MNEM          UNIT     API CODE   Curve Type Comments
#---------- ---------- ----------  ---------- --------
 DEPTH     .M                    : Depth      
 CILD      .MM/M                       : CILD       
 DT        .US/F                       : DT         
 GR        .GAPI                       : GR         
 ILD       .OHMM                       : ILD        
 NEUT      .GAPI                       : NEUT       
 SN        .OHMM                       : SN         
 SP        .MV                         : SP         
 SPHI      .V/V                        : SPHI       
~A Log data section
# ...
  845.9724       713.2844       144.3541        66.3581         1.4401      1204.4743         1.4333       -93.8323         0.6934 
  846.1248       708.2837       144.7342        66.6930         1.4346      1209.3813         1.4406       -93.8323         0.6960 
  846.2772       701.2334       144.9263        66.4847         1.4330      1212.2904         1.4508       -93.8323         0.6973 
  846.4296       694.1832       144.4919        65.9571         1.4325      1217.4930         1.4561       -93.8323         0.6943 
  846.5820       687.1252       143.0093        64.9090         1.4332      1221.5505         1.4701       -93.8323         0.6841 
  846.7344       680.0776       140.1821        63.9109         1.4872      1219.0532         1.4834       -93.8323         0.6647 
  846.8868       673.0080       140.7676        62.8226         1.4971      1209.7311         1.4857       -93.8323         0.6687 
  847.0392       668.5414       141.3235        62.7681         1.4988      1204.9000         1.4768       -93.8323         0.6726 
  847.1916       668.5567       142.3230        62.8723         1.4996      1200.3289         1.4422       -93.8323         0.6794 
  847.3440       669.2256       142.2166        62.7616         1.4999      1200.2447         1.4249       -93.8323         0.6787 
  847.4964       672.5634       141.6480        62.1825         1.5000      1200.5891         1.4089       -93.8323         0.6748 
  847.6488       673.8985       142.9351        61.4711         1.5000      1206.9928         1.4225       -93.8323         0.6836 
  847.8012       673.2310       144.3520        61.1230         1.5000      1215.2397         1.4442       -93.8323         0.6934 
  847.9536       670.5607       144.5375        61.2926         1.5001      1216.0677         1.4463       -93.8323         0.6946 
  848.1060       667.2230       142.9311        62.3862         1.5000      1209.2142         1.4751       -93.8323         0.6836 
  848.2584       665.8879       141.8517        63.5723         1.4995      1204.0706         1.5107       -93.8323         0.6762 
  848.4108       660.5474       140.6555        65.2304         1.4976      1203.1580         1.5387       -93.8323         0.6680 
  848.5632       655.2069       139.8199        65.3755         1.4915      1208.7919         1.5395       -93.8323         0.6622 
  848.7156       637.7493       139.3284        64.6978         1.5718      1216.8251         1.5284       -93.8323         0.6588 
  848.8680       616.3421       138.3990        63.0626         1.6206      1225.1249         1.5138       -93.8323         0.6525 
  849.0204       594.9349       136.2605        61.2822         1.6837      1226.1288         1.5005       -93.8323         0.6378 
  849.1728       573.5277       134.0619        59.5243         1.7493      1227.8356         1.4987       -93.8323         0.6227 
  849.3252       552.1204       131.9034        58.7723         1.8141      1227.1801         1.5144       -93.8323         0.6079 
  849.4776       536.3818       129.8434        58.8236         1.8204      1225.2166         1.5133       -93.8323         0.5937 
  849.6300       523.6983       127.0637        59.4291         1.8983      1223.3473         1.5230       -93.8323         0.5746 
  849.7824       513.6849       124.6962        60.1788         1.9742      1224.2938         1.5423       -93.8323         0.5584 
  849.9348       511.0147       122.6892        60.6766         1.9667      1221.0033         1.5373       -93.8445         0.5446 
  850.0872       509.0120       122.1805        61.5003         1.9626      1216.0642         1.5697       -93.8918         0.5411 
  850.2396       517.7731       122.8156        62.3461         1.9512      1211.1604         1.6006       -93.9392         0.5454 
  850.3920       533.1132       125.8193        62.2611         1.8890      1208.0610         1.6075       -93.9865         0.5661 
  850.5444       548.4531       128.5124        61.2559         1.8400      1208.3438         1.6024       -94.0338         0.5846 
  850.6968       563.8093       130.6812        60.6649         1.7588      1210.5261         1.6156       -94.0811         0.5995 
  850.8492       579.0811       131.9066        60.2548         1.7121      1210.7430         1.6468       -94.1284         0.6079 
  851.0016       594.6425       132.6689        59.1309         1.7092      1210.0914         1.6682       -94.1757         0.6131 
  851.1540       609.6893       133.2115        57.3387         1.6278      1207.6291         1.6860       -94.2230         0.6168 
  851.3064       614.4860       133.4536        55.9848         1.6323      1203.0537         1.6879       -94.2703         0.6185 
  851.4588       616.4887       133.2131        55.4131         1.6329      1197.7613         1.6719       -94.3177         0.6168 
  851.6112       616.4887       132.4943        54.8118         1.6319      1187.9354         1.6730       -94.3650         0.6119 
  851.7636       603.9647       133.4080        54.8140         1.6266      1179.7850         1.6733       -94.4123         0.6182 
  851.9160       592.4708       136.2663        55.1204         1.7070      1178.5227         1.6736       -94.4596         0.6378 
  852.0684       586.6432       137.6730        56.3232         1.7021      1178.7261         1.6740       -94.5069         0.6475 
  852.2208       585.2834       139.6237        57.6213         1.7010      1178.7702         1.6750       -94.5542         0.6609 
  852.3732       593.8107       140.8895        58.6002         1.7001      1184.3469         1.6481       -94.6015         0.6696 
  852.5256       599.8844       143.8995        59.3914         1.6463      1192.4449         1.6362       -94.6121         0.6902 
  852.6780       606.1672       144.9472        59.8410         1.6368      1201.9432         1.6230       -94.6034         0.6974 
  852.8304       612.4051       146.9110        60.5616         1.6351      1209.7861         1.6194       -94.5961         0.7109 
  852.9828       618.5758       148.7429        60.6115         1.6332      1207.2956         1.6344       -94.5888         0.7235 
  853.1352       624.9191       150.5651        60.6114         1.5787      1205.5404         1.6444       -94.5815         0.7360 
  853.2876       631.1185       152.4651        60.3529         1.5693      1202.5977         1.6577       -94.5742         0.7491 
  853.4400       623.4081       153.8483        59.5619         1.6212      1201.2318         1.6727       -94.2675         0.7586 
  853.5924       615.2507       156.4807        58.6716         1.6299      1199.1384         1.6974       -94.2602         0.7767 
  853.7448       607.1964       156.2252        58.7891         1.6318      1197.0877         1.7238       -94.2529         0.7749 
  853.8972       599.1420       150.4303        59.4021         1.6862      1187.7432         1.7407       -94.2456         0.7351 
  854.0496       591.0877       145.7010        59.4743         1.6962      1183.8853         1.7357       -94.3361         0.7026 
  854.2020       583.0334       141.3016        59.5222         1.6987      1185.0541         1.7186       -94.5315         0.6724 
  854.3544       575.7677       142.4571        59.0824         1.7535      1182.9987         1.7136       -94.5231         0.6803 
  854.5068       572.4299       144.4873        58.7216         1.7637      1176.3266         1.7037       -94.5158         0.6943 
  854.6592       568.4246       147.2300        58.2778         1.7654      1175.9972         1.6857       -94.5085         0.7131 
  854.8116       570.4272       150.6326        58.0149         1.7663      1175.7477         1.6973       -94.5012         0.7365 
  854.9640       572.4299       152.3345        58.5358         1.7670      1173.0386         1.7103       -94.4939         0.7482 
  855.1164       572.4299       180.9598        58.0424         1.7679      1166.6468         1.7308       -94.4866         0.9448 
