~VERSION INFORMATION
 VERS.                 2.0:   CWLS LOG ASCII STANDARD - VERSION 2.0
 WRAP.                  NO:   SINGLE LINE PER DEPTH STEP
~WELL INFORMATION
#MNEM.UNIT       DATA           DESCRIPTION MNEMONIC
#---------    -------------   --------------------------
 STRT.M         0.0000                      : START DEPTH
 STOP.M         3199.9428                     : STOP DEPTH
 STEP.M         0.1524                        : STEP VALUE
 NULL.          -999.0000                     : NULL VALUE
 SRVC.          PYPOZO                        : Service Company/Logging company
 DATE.          05/07/2025                    : LAS file Creation Date
 WELL    .      GASPAR-1                       : Well Name
 COMP    .      PYPOZO 2.0                    : Company
 FLD     .      UNKNOWN                       : Field
 LOC     .      UNKNOWN                       : Location
 LATI    .      0                             : Latitude/Northing
 LONG    .      0                             : Longitude/Easting
 APDAT   .      0                             : Elevation Above Permanent Datum
~CURVE INFORMATION
#MNEM          UNIT     API CODE   Curve Type Comments
#---------- ---------- ----------  ---------- --------
 DEPTH     .M                    : Depth      
 CILD      .MM/M                       : CILD       
 DT        .US/F                       : DT         
 GR        .GAPI                       : GR         
 ILD       .OHMM                       : ILD        
 NEUT      .GAPI                       : NEUT       
 SN        .OHMM                       : SN         
 SP        .MV                         : SP         
 SPHI      .V/V                        : SPHI       
~A Log data section
# ...
 2761.0308        74.0144      -999.0000        57.7848        44.0948      2005.0845        12.8603       -82.1674      -999.0000 
 2761.1832        74.0325      -999.0000        55.8071        43.9717      2032.6041        12.8475       -82.1601      -999.0000 
 2761.3356        74.0507      -999.0000        55.2262        43.8485      2104.6188        12.8348       -82.1527      -999.0000 
 2761.4880        74.0689      -999.0000        55.0626        43.7253      2157.5603        12.8220       -82.1454      -999.0000 
 2761.6404        74.0871      -999.0000        54.7606        43.6021      2184.8835        12.8093       -82.1380      -999.0000 
 2761.7928        74.1052      -999.0000        54.1787        43.4789      2186.0481        12.7965       -82.1307      -999.0000 
 2761.9452        74.1234      -999.0000        54.4128        43.3558      2161.4082        12.7837       -82.1233      -999.0000 
 2762.0976        74.1416      -999.0000        54.6836        43.2326      2122.9474        12.7710       -82.1160      -999.0000 
 2762.2500        74.1597      -999.0000        54.7914        43.1094      2079.6475        12.7582       -82.1086      -999.0000 
 2762.4024        74.1779      -999.0000        54.6388        42.9862      2022.9917        12.7454       -82.1013      -999.0000 
 2762.5548        74.1961      -999.0000        54.4301        42.8630      1963.2244        12.7327       -82.0939      -999.0000 
 2762.7072        74.2143      -999.0000        55.0103        42.7399      1879.8478        12.7199       -82.0866      -999.0000 
 2762.8596        74.2324      -999.0000        56.5780        42.6167      1794.9686        12.7071       -82.0792      -999.0000 
 2763.0120        74.2506      -999.0000        58.1446        42.4935      1700.8910        12.6944       -82.0719      -999.0000 
 2763.1644        74.2688      -999.0000        59.6901        42.3703      1611.8826        12.6816       -82.0645      -999.0000 
 2763.3168        74.2869      -999.0000        60.7139        42.2471      1588.6598        12.6688       -82.0572      -999.0000 
 2763.4692        74.3051      -999.0000        60.9867        42.1240      1593.3005        12.6561       -82.0499      -999.0000 
 2763.6216        74.3233      -999.0000        61.5432        42.0008      1639.5965        12.6433       -82.0425      -999.0000 
 2763.7740        74.3414      -999.0000        62.3723        41.8776      1708.1854        12.6305       -82.0352      -999.0000 
 2763.9264        74.3596      -999.0000        63.3582        41.7544      1778.3086        12.6178       -82.0278      -999.0000 
 2764.0788        74.3778      -999.0000        64.0920        41.6313      1863.2216        12.6050       -82.0205      -999.0000 
 2764.2312        74.3960      -999.0000        64.7294        41.5081      1948.5034        12.5922       -82.0131      -999.0000 
 2764.3836        74.4141      -999.0000        65.4234        41.3849      1996.0168        12.5795       -82.0058      -999.0000 
 2764.5360        74.4323      -999.0000        65.7755        41.2617      2031.9562        12.5667       -81.9984      -999.0000 
 2764.6884        74.4505      -999.0000        66.0825        41.1385      2056.2745        12.5539       -81.9911      -999.0000 
 2764.8408        74.4686      -999.0000        67.1729        41.0154      2056.4554        12.5412       -81.9837      -999.0000 
 2764.9932        74.4868      -999.0000        70.6515        40.8922      2067.2462        12.5284       -81.9764      -999.0000 
 2765.1456        74.5050      -999.0000        75.1877        40.7690      1989.3972        12.5156       -81.9690      -999.0000 
 2765.2980        74.5232      -999.0000        79.7140        40.6458      1890.4354        12.5029       -81.9617      -999.0000 
 2765.4504        74.5413      -999.0000        83.1213        40.5226      1791.1711        12.4901       -81.9543      -999.0000 
 2765.6028        74.5595      -999.0000        83.5181        40.3995      1691.8600        12.4773       -81.9470      -999.0000 
 2765.7552        74.5777      -999.0000        80.1209        40.2763      1592.4195        12.4646       -81.9396      -999.0000 
 2765.9076        74.5958      -999.0000        76.5626        40.1531      1492.9294        12.4518       -81.9323      -999.0000 
 2766.0600        74.6140      -999.0000        72.9951        40.0299      1393.4392        12.4391       -81.9249      -999.0000 
 2766.2124        74.6322      -999.0000        69.4194        39.9067      1293.9491        12.4263       -81.9176      -999.0000 
 2766.3648        74.6503      -999.0000        65.8332        39.7836      1228.8192        12.4135       -81.9102      -999.0000 
 2766.5172        74.6685      -999.0000        63.5622        39.6604      1293.6618        12.4008       -81.9029      -999.0000 
 2766.6696        74.6867      -999.0000        62.5411        39.5372      1374.5040        12.3880       -81.8955      -999.0000 
 2766.8220        74.7049      -999.0000        61.1529        39.4140      1458.0929        12.3752       -81.8882      -999.0000 
 2766.9744        74.7230      -999.0000        59.6760        39.2908      1541.8667        12.3625       -81.8809      -999.0000 
 2767.1268        74.7412      -999.0000        58.4383        39.1677      1625.7289        12.3497       -81.8735      -999.0000 
 2767.2792        74.7594      -999.0000        57.5165        39.0445      1709.6077        12.3369       -81.8662      -999.0000 
 2767.4316        74.7775      -999.0000        61.6173        38.9213      1793.3194        12.3242       -81.8588      -999.0000 
 2767.5840        74.7957      -999.0000        66.3640        38.7981      1887.9253        12.3114       -81.8515      -999.0000 
 2767.7364        74.8139      -999.0000        71.1628        38.6749      2054.3278        12.2986       -81.8441      -999.0000 
 2767.8888        74.8321      -999.0000        75.9758        38.5518      2245.6259        12.2859       -81.8368      -999.0000 
 2768.0412        74.8502      -999.0000        80.7904        38.4286      2411.6432        12.2731       -81.8294      -999.0000 
 2768.1936        74.8684      -999.0000        85.5994        38.3054      2421.5233        12.2603       -81.8221      -999.0000 
 2768.3460        74.8866      -999.0000        90.3997        38.1822      2414.2934        12.2476       -81.8147      -999.0000 
 2768.4984        74.9047      -999.0000        93.4996        38.0591      2392.0959        12.2348       -81.8074      -999.0000 
 2768.6508        74.9229      -999.0000        92.4249        37.9359      2269.5892        12.2220       -81.8000      -999.0000 
 2768.8032        74.9411      -999.0000        91.5428        37.8127      2129.5802        12.2093       -81.7927      -999.0000 
 2768.9556        74.9592      -999.0000        92.2694        37.6895      1990.2090        12.1965       -81.7853      -999.0000 
 2769.1080        74.9774      -999.0000        93.0736        37.5663      1849.4335        12.1837       -81.7780      -999.0000 
 2769.2604        74.9956      -999.0000        90.9490        37.4432      1701.9740        12.1710       -81.7706      -999.0000 
 2769.4128        75.0138      -999.0000        84.2909        37.3200      1565.6561        12.1582       -81.7633      -999.0000 
 2769.5652        75.0319      -999.0000        78.1126        37.1968      1424.4408        12.1454       -81.7559      -999.0000 
 2769.7176        75.0501      -999.0000        71.7681        37.0736      1292.9810        12.1327       -81.7486      -999.0000 
 2769.8700        75.0683      -999.0000        62.3531        36.9504      1285.3332        12.1199       -81.7412      -999.0000 
 2770.0224        75.0864      -999.0000        52.9406        36.8273      1345.6713        12.1071       -81.7339      -999.0000 
 2770.1748        75.1046      -999.0000        44.1873        36.7041      1389.6358        12.0944       -81.7265      -999.0000 
