~VERSION INFORMATION
 VERS.                 2.0:   CWLS LOG ASCII STANDARD - VERSION 2.0
 WRAP.                  NO:   SINGLE LINE PER DEPTH STEP
~WELL INFORMATION
#MNEM.UNIT       DATA           DESCRIPTION MNEMONIC
#---------    -------------   --------------------------
 STRT.M         0.0000                      : START DEPTH
 STOP.M         3199.9428                     : STOP DEPTH
 STEP.M         0.1524                        : STEP VALUE
 NULL.          -999.0000                     : NULL VALUE
 SRVC.          PYPOZO                        : Service Company/Logging company
 DATE.          05/07/2025                    : LAS file Creation Date
 WELL    .      GASPAR-1                       : Well Name
 COMP    .      PYPOZO 2.0                    : Company
 FLD     .      UNKNOWN                       : Field
 LOC     .      UNKNOWN                       : Location
 LATI    .      0                             : Latitude/Northing
 LONG    .      0                             : Longitude/Easting
 APDAT   .      0                             : Elevation Above Permanent Datum
~CURVE INFORMATION
#MNEM          UNIT     API CODE   Curve Type Comments
#---------- ---------- ----------  ---------- --------
 DEPTH     .M                    : Depth      
 CILD      .MM/M                       : CILD       
 DT        .US/F                       : DT         
 GR        .GAPI                       : GR         
 ILD       .OHMM                       : ILD        
 NEUT      .GAPI                       : NEUT       
 SN        .OHMM                       : SN         
 SP        .MV                         : SP         
 SPHI      .V/V                        : SPHI       
~A Log data section
# ...
 1487.4240       256.8310        87.3970        50.1972         3.9113      1360.4792         4.4711       -88.9665         0.3022 
 1487.5764       260.4700        88.2178        50.1707         3.8307      1359.3524         4.4351       -88.9674         0.3078 
 1487.7288       260.9027        87.4037        50.8370         3.8446      1346.9148         4.3990       -88.9683         0.3022 
 1487.8812       257.1879        86.9720        51.3660         3.8986      1326.3676         4.3629       -88.9692         0.2993 
 1488.0336       256.9497        88.2559        51.1672         3.8980      1308.3672         4.3269       -88.6707         0.3081 
 1488.1860       256.6118        89.1763        50.7413         3.8892      1291.3511         4.2908       -88.9010         0.3144 
 1488.3384       261.3485        89.3171        50.6119         3.8407      1282.7275         4.2548       -88.8188         0.3154 
 1488.4908       266.0214        90.0669        51.1358         3.7637      1277.3742         4.2188       -88.6735         0.3205 
 1488.6432       270.0267        90.6826        52.0508         3.6806      1266.8244         4.1827       -88.6744         0.3247 
 1488.7956       276.7023        88.3820        52.6983         3.6399      1241.5828         4.1465       -88.6753         0.3089 
 1488.9480       283.7206        90.4650        53.1728         3.5135      1239.4936         4.1096       -88.6762         0.3232 
 1489.1004       292.0561        96.5618        52.8365         3.4354      1252.0560         4.0989       -88.6771         0.3651 
 1489.2528       296.0614        98.5766        52.1449         3.3647      1257.3838         4.0403       -88.6780         0.3790 
 1489.4052       302.0694        89.5139        50.1989         3.2892      1264.0517         3.8965       -88.6789         0.3167 
 1489.5576       306.0748       101.2752        48.2069         3.2873      1276.9590         3.8996       -88.9792         0.3975 
 1489.7100       310.0801       105.6597        46.6102         3.2405      1298.3214         3.8993       -88.9802         0.4276 
 1489.8624       312.7503        91.9931        46.4962         3.1599      1332.8851         3.8986       -88.9811         0.3337 
 1490.0148       316.6939        72.1525        48.4112         3.1645      1362.3865         4.1120       -88.9820         0.1975 
 1490.1672       320.0935        74.9722        50.5045         3.1118      1399.1291         4.1443       -88.9829         0.2168 
 1490.3196       322.7637        82.6968        53.2461         3.1020      1441.8246         4.2011       -88.8182         0.2699 
 1490.4720       323.4312        90.5723        54.9531         3.1011      1469.8271         4.2601       -88.9847         0.3240 
 1490.6244       316.7557        98.4467        56.6018         3.1526      1504.2415         4.3198       -88.9856         0.3781 
 1490.7768       306.7423       100.6774        56.8790         3.3058      1535.5897         4.3793       -88.6871         0.3934 
 1490.9292       289.3858        94.6383        56.6470         3.4715      1554.2802         4.4318       -88.6881         0.3519 
 1491.0816       262.7551        91.9054        56.1793         3.7694      1564.3222         4.4320       -88.6890         0.3331 
 1491.2340       241.3218        96.9684        55.7553         4.1390      1570.1010         4.4326       -88.6899         0.3679 
 1491.3864       231.0746        97.2188        55.2736         4.4099      1548.2799         4.4932       -88.6908         0.3696 
 1491.5388       228.4307        88.8419        54.2902         4.3134      1485.7606         4.8580       -88.6917         0.3121 
 1491.6912       234.5454        97.2634        53.5794         4.2504      1450.4064         4.7659       -88.6926         0.3699 
 1491.8436       234.5804       105.6413        53.0532         4.2482      1431.0896         4.5722       -88.6935         0.4275 
 1491.9960       232.7658       100.1152        52.9190         4.2971      1425.3642         4.5676       -88.8652         0.3895 
 1492.1484       231.5574        94.4500        53.1806         4.2828      1423.4725         4.5680       -88.9948         0.3506 
 1492.3008       242.6569       103.8025        53.6010         4.0989      1420.3714         4.5686       -88.9957         0.4149 
 1492.4532       264.0187       117.3554        53.8809         3.7949      1417.5494         4.5702       -88.9966         0.5079 
 1492.6056       279.3725       124.9387        53.8754         3.5821      1413.2960         4.5853       -89.1700         0.5600 
 1492.7580       290.7210       118.1045        52.6213         3.4237      1403.1083         4.8273       -89.2978         0.5131 
 1492.9104       292.0561       110.7256        50.7349         3.4473      1392.9868         4.8336       -89.2987         0.4624 
 1493.0628       284.0454       103.3466        49.1899         3.5151      1392.5444         4.8369       -89.2996         0.4117 
 1493.2152       278.7049        95.9677        47.3921         3.5805      1393.6537         4.7466       -89.3005         0.3610 
 1493.3676       272.6969        88.6776        47.2750         3.6885      1400.5761         4.6990       -89.6009         0.3110 
 1493.5200       270.6943        91.7706        48.7937         3.6982      1412.2633         4.7517       -89.6018         0.3322 
 1493.6724       272.0294       100.4169        52.9184         3.6989      1435.6782         4.8631       -89.6027         0.3916 
 1493.8248       272.6898       109.0548        56.0239         3.6989      1479.0968         5.0253       -89.9030         0.4509 
 1493.9772       266.4547       117.6926        56.5713         3.7483      1512.8440         5.2631       -89.9039         0.5103 
 1494.1296       258.4623       125.7723        55.1490         3.8443      1560.2189         5.4626       -89.9048         0.5657 
 1494.2820       249.4088       114.0423        53.9158         4.0272      1630.9858         5.6441       -89.9057         0.4852 
 1494.4344       240.8752       102.1806        52.5311         4.1377      1657.0215         5.7188       -90.0846         0.4037 
 1494.5868       223.7153       110.3847        51.2472         4.4844      1666.8681         5.7927       -90.2070         0.4601 
 1494.7392       208.9125       133.3540        50.4698         4.7800      1624.4324         5.8671       -90.2079         0.6178 
 1494.8916       206.7556       125.4766        50.2765         4.8427      1635.6850         5.9423       -90.2090         0.5637 
 1495.0440       209.5820       118.1093        50.7184         4.7709      1523.3482         5.9643       -90.2099         0.5131 
 1495.1964       212.5824       110.7420        50.5283         4.7070      1476.8054         6.0120       -90.2108         0.4625 
 1495.3488       217.2897       103.3747        50.7385         4.5527      1494.1694         6.0967       -90.2117         0.4119 
 1495.5012       221.2951        96.7889        50.8827         4.5113      1534.9864         6.1731       -90.2126         0.3667 
 1495.6536       225.3004       115.1555        50.8035         4.4537      1585.3087         6.1681       -90.2135         0.4928 
 1495.8060       232.6435       107.2658        50.5324         4.2990      1667.1216         6.2061       -90.2144         0.4386 
 1495.9584       234.9285       100.2152        50.0499         4.2445      1725.2918         6.4217       -90.2154         0.3902 
 1496.1108       232.4665       109.6394        49.3150         4.2869      1772.4383         6.5596       -90.2163         0.4549 
 1496.2632       221.2951       132.8982        48.2424         4.5129      1794.6254         6.7913       -90.2170         0.6147 
 1496.4156       207.9439       119.5464        46.5443         4.7739      1764.3733         6.9851       -90.2181         0.5230 
 1496.5680       197.9306       104.4494        45.2000         5.0475      1717.9742         7.1225       -90.2190         0.4193 
