~VERSION INFORMATION
 VERS.                 2.0:   CWLS LOG ASCII STANDARD - VERSION 2.0
 WRAP.                  NO:   SINGLE LINE PER DEPTH STEP
~WELL INFORMATION
#MNEM.UNIT       DATA           DESCRIPTION MNEMONIC
#---------    -------------   --------------------------
 STRT.M         0.0000                      : START DEPTH
 STOP.M         3199.9428                     : STOP DEPTH
 STEP.M         0.1524                        : STEP VALUE
 NULL.          -999.0000                     : NULL VALUE
 SRVC.          PYPOZO                        : Service Company/Logging company
 DATE.          05/07/2025                    : LAS file Creation Date
 WELL    .      GASPAR-1                       : Well Name
 COMP    .      PYPOZO 2.0                    : Company
 FLD     .      UNKNOWN                       : Field
 LOC     .      UNKNOWN                       : Location
 LATI    .      0                             : Latitude/Northing
 LONG    .      0                             : Longitude/Easting
 APDAT   .      0                             : Elevation Above Permanent Datum
~CURVE INFORMATION
#MNEM          UNIT     API CODE   Curve Type Comments
#---------- ---------- ----------  ---------- --------
 DEPTH     .M                    : Depth      
 CILD      .MM/M                       : CILD       
 DT        .US/F                       : DT         
 GR        .GAPI                       : GR         
 ILD       .OHMM                       : ILD        
 NEUT      .GAPI                       : NEUT       
 SN        .OHMM                       : SN         
 SP        .MV                         : SP         
 SPHI      .V/V                        : SPHI       
~A Log data section
# ...
  641.4516       599.7997       107.5711        52.5180         1.6869      1202.6297         1.8460       -94.4722         0.4407 
  641.6040       597.1295       108.4337        51.7750         1.6965      1207.8560         1.8584       -94.4819         0.4467 
  641.7564       592.4566       108.9563        51.3122         1.6980      1202.5849         1.8709       -94.4916         0.4502 
  641.9088       585.1135       108.8871        50.5715         1.6995      1199.9304         1.8835       -94.5013         0.4498 
  642.0612       575.3058       108.6619        49.9283         1.7538      1200.0457         1.8964       -94.5110         0.4482 
  642.2136       569.0921       108.5389        49.4522         1.7638      1200.0223         1.9015       -94.5207         0.4474 
  642.3660       564.4192       108.7231        49.8553         1.7652      1202.9428         1.9307       -94.5303         0.4486 
  642.5184       559.0788       108.9591        50.7250         1.7648      1200.0464         1.9519       -94.5400         0.4503 
  642.6708       556.4085       109.3606        51.7979         1.7599      1194.8306         1.9665       -94.5497         0.4530 
  642.8232       553.0708       110.0716        52.2938         1.8404      1186.9803         1.9795       -94.5594         0.4579 
  642.9756       552.4032       110.5684        52.6466         1.8354      1183.7949         1.9730       -94.5691         0.4613 
  643.1280       551.0681       111.1579        52.7675         1.8343      1180.4164         1.9599       -94.5788         0.4654 
  643.2804       553.0708       111.5665        52.8745         1.8334      1176.9664         1.9468       -94.5884         0.4682 
  643.4328       555.7410       111.6792        52.9558         1.7795      1176.0829         1.9336       -94.5981         0.4690 
  643.5852       558.4112       111.5869        53.2957         1.7698      1174.9791         1.9205       -94.6078         0.4683 
  643.7376       563.0841       111.4155        53.5183         1.7685      1174.6857         1.9073       -94.6175         0.4671 
  643.8900       567.0895       110.9231        53.1996         1.7678      1174.3200         1.8941       -94.6272         0.4638 
  644.0424       571.5927       111.4838        52.8644         1.7668      1173.9867         1.8808       -94.6369         0.4676 
  644.1948       577.7704       112.7912        51.9432         1.7128      1173.6843         1.8673       -94.6466         0.4766 
  644.3472       581.7757       114.2097        51.6479         1.7029      1173.5083         1.8569       -94.6562         0.4863 
  644.4996       585.1135       114.2868        51.2020         1.7012      1170.7945         1.8460       -94.6659         0.4869 
  644.6520       590.1754       113.7846        50.9079         1.7004      1169.5485         1.8439       -94.6756         0.4834 
  644.8044       595.6465       111.7116        51.2339         1.7001      1163.5064         1.8332       -94.6853         0.4692 
  644.9568       599.7997       109.6043        51.5567         1.7000      1154.0030         1.8332       -94.6950         0.4547 
  645.1092       599.7997       110.0829        51.6349         1.7000      1140.3556         1.8461       -94.7047         0.4580 
  645.2616       598.4646       110.9799        51.7065         1.7000      1128.2187         1.8618       -94.7143         0.4641 
  645.4140       597.1295       111.1461        51.9310         1.7000      1121.1576         1.8774       -94.7240         0.4653 
  645.5664       595.1268       110.8686        51.7556         1.7000      1121.3677         1.8931       -94.7337         0.4634 
  645.7188       592.5351       110.1027        51.4462         1.7000      1129.4215         1.9090       -94.7434         0.4581 
  645.8712       588.8116       110.3003        51.2982         1.7000      1135.2007         1.9239       -94.7531         0.4595 
  646.0236       585.0881       111.1122        50.8896         1.7000      1150.5311         1.9259       -94.7628         0.4651 
  646.1760       581.1081       112.7004        50.1396         1.7001      1156.0639         1.9256       -94.7725         0.4760 
  646.3284       577.7704       114.2824        49.9334         1.7002      1158.9944         1.9062       -94.7821         0.4868 
  646.4808       579.1055       115.8742        50.0805         1.7006      1161.7126         1.8865       -94.7918         0.4978 
  646.6332       582.4433       117.2999        50.6824         1.7007      1167.2160         1.8667       -94.8015         0.5076 
  646.7856       591.7891       118.1972        51.1762         1.7000      1173.3906         1.8470       -94.8112         0.5137 
  646.9380       599.7653       119.3448        51.6800         1.6464      1177.3349         1.8278       -94.8209         0.5216 
  647.0904       610.6876       120.4080        52.3297         1.6378      1183.4415         1.8054       -94.8306         0.5289 
  647.2428       619.8264       119.7617        52.9045         1.6414      1189.5318         1.8063       -94.8402         0.5245 
  647.3952       627.8371       116.0198        52.7183         1.5602      1188.9322         1.8066       -94.8499         0.4988 
  647.5476       635.8478       112.9368        51.3446         1.5652      1184.3112         1.8067       -94.8596         0.4776 
  647.7000       641.8558       111.2107        50.1108         1.5665      1178.8979         1.8066       -94.8693         0.4657 
  647.8524       643.8585       110.9048        49.7342         1.5668      1177.3074         1.8065       -94.8790         0.4636 
  648.0048       638.9186       113.3969        49.9687         1.5665      1165.0037         1.8096       -94.8887         0.4807 
  648.1572       634.5127       115.8405        50.5418         1.5651      1155.3274         1.8134       -94.8984         0.4975 
  648.3096       628.5047       116.7963        50.9740         1.5598      1138.4738         1.8173       -94.9080         0.5041 
  648.4620       623.8318       116.3692        51.3374         1.6402      1132.3642         1.8212       -94.9177         0.5012 
  648.6144       620.4940       115.3694        52.0397         1.6349      1130.9506         1.8252       -94.9274         0.4943 
  648.7668       617.8238       113.6518        52.6919         1.6336      1134.7508         1.8291       -94.9371         0.4825 
  648.9192       615.1535       111.8754        52.8759         1.6333      1138.7270         1.8330       -94.9468         0.4703 
  649.0716       611.3899       112.0791        53.1764         1.6333      1140.9744         1.8369       -94.9565         0.4717 
  649.2240       610.4806       112.5627        52.8929         1.6333      1142.4791         1.8408       -94.9661         0.4750 
  649.3764       609.8131       115.2925        52.3192         1.6333      1139.6069         1.8448       -94.9758         0.4938 
  649.5288       611.1482       116.1694        51.2495         1.6333      1133.2028         1.8467       -94.9855         0.4998 
  649.6812       611.1482       115.9515        50.8822         1.6333      1127.5447         1.8467       -94.9952         0.4983 
  649.8336       610.2951       113.6998        50.8741         1.6333      1122.7783         1.8465       -95.0049         0.4828 
  649.9860       609.3403       112.7386        51.4675         1.6333      1121.4526         1.8434       -95.0146         0.4762 
  650.1384       608.3856       112.2148        52.1378         1.6333      1119.9004         1.8404       -95.0243         0.4726 
  650.2908       607.8104       112.3390        52.7723         1.6333      1118.8291         1.8374       -95.0277         0.4735 
  650.4432       607.1653       113.6701        52.9677         1.6333      1120.9586         1.8344       -95.0223         0.4826 
  650.5956       606.4818       114.8694        52.8159         1.6333      1123.0875         1.8314       -95.0168         0.4909 
