~VERSION INFORMATION
 VERS.                 2.0:   CWLS LOG ASCII STANDARD - VERSION 2.0
 WRAP.                  NO:   SINGLE LINE PER DEPTH STEP
~WELL INFORMATION
#MNEM.UNIT       DATA           DESCRIPTION MNEMONIC
#---------    -------------   --------------------------
 STRT.M         0.0000                      : START DEPTH
 STOP.M         3199.9428                     : STOP DEPTH
 STEP.M         0.1524                        : STEP VALUE
 NULL.          -999.0000                     : NULL VALUE
 SRVC.          PYPOZO                        : Service Company/Logging company
 DATE.          05/07/2025                    : LAS file Creation Date
 WELL    .      GASPAR-1                       : Well Name
 COMP    .      PYPOZO 2.0                    : Company
 FLD     .      UNKNOWN                       : Field
 LOC     .      UNKNOWN                       : Location
 LATI    .      0                             : Latitude/Northing
 LONG    .      0                             : Longitude/Easting
 APDAT   .      0                             : Elevation Above Permanent Datum
~CURVE INFORMATION
#MNEM          UNIT     API CODE   Curve Type Comments
#---------- ---------- ----------  ---------- --------
 DEPTH     .M                    : Depth      
 CILD      .MM/M                       : CILD       
 DT        .US/F                       : DT         
 GR        .GAPI                       : GR         
 ILD       .OHMM                       : ILD        
 NEUT      .GAPI                       : NEUT       
 SN        .OHMM                       : SN         
 SP        .MV                         : SP         
 SPHI      .V/V                        : SPHI       
~A Log data section
    0.0000        -4.3449      -999.0000        74.1979         1.3070       380.6663        10.0067        29.2991      -999.0000 
    0.1524        -4.3449      -999.0000        83.2698         1.3070       368.2001        10.0067        29.2991      -999.0000 
    0.3048        -4.3449      -999.0000       103.5797         1.3070       367.3096        10.0067        29.2991      -999.0000 
    0.4572        -4.3449      -999.0000       123.8897         1.3070       374.4332        10.0067        29.2991      -999.0000 
    0.6096        -4.3449      -999.0000       144.1996         1.3070       392.8628        10.0067        29.2991      -999.0000 
    0.7620        -4.3449      -999.0000       157.7731         1.3070       403.9621        10.0067        29.2985      -999.0000 
    0.9144        -4.3449      -999.0000       178.1864         1.3070       420.4895        10.0067        29.2961      -999.0000 
    1.0668        -4.3449      -999.0000       198.4485         1.3070       437.0505        10.0067        29.2902      -999.0000 
    1.2192        -4.3449      -999.0000       180.4993         1.3070       453.4350        10.0067        29.2563      -999.0000 
    1.3716        -4.3449      -999.0000       155.6894         1.3070       455.7468        10.0067        29.0775      -999.0000 
    1.5240        -4.3449      -999.0000       130.8655         1.3070       451.0783        10.0067        29.3124      -999.0000 
    1.6764        -4.3449      -999.0000       106.1058         1.3069       393.2486        10.0065        29.2809      -999.0000 
    1.8288        -4.3449      -999.0000        81.3461         1.3057       323.7096        10.0054        29.5187      -999.0000 
    1.9812        -4.3449      -999.0000        56.9688         1.3004       251.3954        10.0214        29.5024      -999.0000 
    2.1336        -4.3449      -999.0000        32.6859         1.2950       224.1514        10.0204        29.4995      -999.0000 
    2.2860        -4.3449      -999.0000        14.6791         1.2897       222.7800        10.0201        29.5005      -999.0000 
    2.4384        -4.3449      -999.0000        13.3495         1.2844       223.3052        10.0201        29.5020      -999.0000 
    2.5908        -4.3449      -999.0000        12.1582         1.2791       220.7292        10.0201        29.5007      -999.0000 
    2.7432        -4.3449      -999.0000        11.4616         1.2738       216.7287        10.0201        29.3388      -999.0000 
    2.8956        -4.3449      -999.0000        10.8240         1.2684       216.8210        10.0201        29.3093      -999.0000 
    3.0480        -4.3449      -999.0000        10.8114         1.2631       214.2764        10.0201        29.3064      -999.0000 
    3.2004        -4.3449      -999.0000        11.0799         1.2578       212.3695        10.0201        29.3093      -999.0000 
    3.3528        -4.3449      -999.0000        11.7986         1.2525       212.4580        10.0201        29.3388      -999.0000 
    3.5052        -4.3449      -999.0000        12.4101         1.2471       215.0468        10.0201        29.5007      -999.0000 
    3.6576        -4.3449      -999.0000        13.2942         1.2418       217.6036        10.0201        29.5024      -999.0000 
    3.8100        -4.3449      -999.0000        13.8965         1.2365       220.1759        10.0201        29.5012      -999.0000 
    3.9624        -4.3449      -999.0000        14.6853         1.2312       222.4578        10.0201        29.4999      -999.0000 
    4.1148        -4.3449      -999.0000        15.4581         1.2259       227.6112        10.0201        29.4994      -999.0000 
    4.2672        -4.3449      -999.0000        15.8912         1.2205       231.7060        10.0201        29.4993      -999.0000 
    4.4196        -4.3449      -999.0000        16.1111         1.2152       237.5053        10.0201        29.4993      -999.0000 
    4.5720        -4.3449      -999.0000        16.3019         1.2099       242.1905        10.0201        29.4993      -999.0000 
    4.7244        -4.3449      -999.0000        16.4129         1.2046       244.6321        10.0201        29.4997      -999.0000 
    4.8768        -4.3449      -999.0000        16.3034         1.1992       244.6692        10.0201        29.5000      -999.0000 
    5.0292        -4.3449      -999.0000        16.0157         1.1939       239.1805        10.0201        29.4994      -999.0000 
    5.1816        -3.6765      -999.0000        15.6228         1.1886       237.9393        10.0201        29.4956      -999.0000 
    5.3340        -3.6765      -999.0000        15.8147         1.1833       234.5554        10.0201        29.4793      -999.0000 
    5.4864        -3.6808      -999.0000        16.3482         1.1780       231.2610        10.0201        29.7196      -999.0000 
    5.6388        -3.6756      -999.0000        16.7170         1.1731       227.8114        10.0201        29.7033      -999.0000 
    5.7912        -3.6758      -999.0000        16.7847         1.1730       226.7031        10.0201        29.6995      -999.0000 
    5.9436        -3.6765      -999.0000        16.9215         1.1730       226.8288        10.0201        29.6990      -999.0000 
    6.0960        -3.6771      -999.0000        16.9275         1.1730       228.7603        10.0201        29.6993      -999.0000 
    6.2484        -3.6765      -999.0000        16.9290         1.1731       229.5454        10.0201        29.6996      -999.0000 
    6.4008        -3.6765      -999.0000        16.9268         1.1772       232.8009        10.0201        29.6996      -999.0000 
    6.5532        -3.6765      -999.0000        16.7971         1.1984       237.9695        10.0201        29.6996      -999.0000 
    6.7056        -3.6765      -999.0000        16.7736         1.2193       243.7676        10.0201        29.6999      -999.0000 
    6.8580        -3.0080      -999.0000        16.7707         1.2387       250.1667        10.0201        29.7002      -999.0000 
    7.0104        -3.0080      -999.0000        16.7769         1.2398       254.8511        10.0201        29.7000      -999.0000 
    7.1628        -3.0080      -999.0000        17.0389         1.2932       265.6186        10.0201        29.6965      -999.0000 
    7.3152        -3.0080      -999.0000        17.3066         1.2983       274.6026        10.0201        29.6796      -999.0000 
    7.4676        -1.6711      -999.0000        17.5420         1.3772       291.9834        10.0215        29.9154      -999.0000 
    7.6200         2.3396      -999.0000        18.5138         1.5153       302.1487        10.0236        29.8782      -999.0000 
    7.7724        13.0348      -999.0000        19.3212         1.9904       311.1260        10.0258        30.1027      -999.0000 
    7.9248        22.0040      -999.0000        20.3717         3.1707       310.0363        10.0279        30.0384      -999.0000 
    8.0772        30.6281      -999.0000        21.8619         5.7882       307.6545        10.0300        29.8389      -999.0000 
    8.2296        47.4517      -999.0000        24.0314         8.4327       305.6022        10.0322        29.2995      -999.0000 
    8.3820        61.8597      -999.0000        25.9807        11.1250       301.9879        10.0343        24.4319      -999.0000 
    8.5344        79.3350      -999.0000        28.2994        12.2029       296.3934        10.0364        20.0663      -999.0000 
    8.6868       116.8207      -999.0000        31.4209         8.8028       289.2205        10.0386        14.9820      -999.0000 
    8.8392       155.3909      -999.0000        34.9202         6.4354       279.0951        10.0407        11.3261      -999.0000 
    8.9916       193.9611      -999.0000        38.9041         4.8895       272.6108        10.0428         9.9115      -999.0000 
    9.1440       224.9332      -999.0000        42.5473         3.9723       264.2719        10.0449         4.8446      -999.0000 
