~VERSION INFORMATION
 VERS.                 2.0:   CWLS LOG ASCII STANDARD - VERSION 2.0
 WRAP.                  NO:   SINGLE LINE PER DEPTH STEP
~WELL INFORMATION
#MNEM.UNIT       DATA           DESCRIPTION MNEMONIC
#---------    -------------   --------------------------
 STRT.M         308.0000                      : START DEPTH
 STOP.M         2001.0116                     : STOP DEPTH
 STEP.M         0.1524                        : STEP VALUE
 NULL.          -999.0000                     : NULL VALUE
 SRVC.          PYPOZO                        : Service Company/Logging company
 DATE.          08/07/2025                    : LAS file Creation Date
 WELL    .      JANO-1                         : Well Name
 COMP    .      PYPOZO 2.0                    : Company
 FLD     .      UNKNOWN                       : Field
 LOC     .      UNKNOWN                       : Location
 LATI    .      0                             : Latitude/Northing
 LONG    .      0                             : Longitude/Easting
 APDAT   .      0                             : Elevation Above Permanent Datum
~CURVE INFORMATION
#MNEM          UNIT     API CODE   Curve Type Comments
#---------- ---------- ----------  ---------- --------
 DEPTH     .M                    : Depth      
 CALI      .IN                         : CALI       
 CILD      .MM/M                       : CILD       
 DPHI      .V/V                        : DPHI       
 DRHO      .G/C3                       : DRHO       
 DT        .US/F                       : DT         
 ILD       .OHMM                       : ILD        
 RHOB      .G/C3                       : RHOB       
 SN        .OHMM                       : SN         
 SP        .MV                         : SP         
 SPHI      .V/V                        : SPHI       
 TEMP      .DEGC                       : TEMP       
~A Log data section
# ...
 1885.3400        10.3207       216.7787         0.0784        -0.0011        74.2263         4.6130         2.5760         5.6945        -0.6253         0.1396        84.0255 
 1885.4924        10.0210       218.9190         0.0746        -0.0092        74.5247         4.5679         2.5825         5.6603        -0.7820         0.1419        84.0046 
 1885.6448         9.7638       221.7737         0.0647        -0.0186        75.0220         4.5091         2.5994         5.5715        -1.0945         0.1456        83.9695 
 1885.7972         9.6158       222.5734         0.0571        -0.0265        75.7542         4.4929         2.6124         5.5060        -0.7840         0.1511        83.9271 
 1885.9496         9.4764       222.0002         0.0306        -0.0334        73.8124         4.5045         2.6576         5.5164        -0.5345         0.1365        83.8851 
 1886.1020         9.3802       216.7787         0.0126        -0.0333        71.0439         4.6130         2.6884         5.6239         0.0084         0.1158        83.8440 
 1886.2544         9.3419       206.9322         0.0136        -0.0356        68.7195         4.8325         2.6868         5.7992         0.6892         0.0983        83.8010 
 1886.4068         9.3269       195.3697         0.0267        -0.0310        68.1015         5.1185         2.6643         5.9201         1.3726         0.0937        83.7610 
 1886.5592         9.3508       178.2277         0.0436        -0.0152        67.7843         5.6108         2.6355         6.0722         1.9768         0.0913        83.6982 
 1886.7116         9.4059       161.7103         0.0504        -0.0107        67.1562         6.1839         2.6238         6.2249         2.5314         0.0866        83.6398 
 1886.8640         9.4688       146.2694         0.0532        -0.0237        66.0684         6.8367         2.6191         6.4728         2.8330         0.0785        83.5801 
 1887.0164         9.5240       125.6597         0.0568        -0.0357        64.1098         7.9580         2.6129         6.9082         2.9470         0.0638        83.5214 
 1887.1688         9.3856        92.6784         0.0577        -0.0441        60.9446        10.7900         2.6113         8.3063         2.9459         0.0401        83.4589 
 1887.3212         9.1786        81.4027         0.0570        -0.0472        59.5893        12.2846         2.6126         9.2696         2.7893         0.0299        83.4034 
 1887.4736         9.1072        72.4097         0.0549        -0.0495        61.6179        13.8103         2.6162        11.2578         2.6326         0.0451        83.3577 
 1887.6260         9.0626        65.2065         0.0479        -0.0510        63.5835        15.3359         2.6281        12.9975         2.6316         0.0598        83.3086 
 1887.7784         9.0507        59.6762         0.0390        -0.0518        64.7845        16.7571         2.6433        21.8463         2.6306         0.0688        83.2594 
 1887.9308         9.0512        53.3686         0.0256        -0.0525        65.9733        18.7376         2.6663        26.8037         2.6296         0.0778        83.2109 
 1888.0832         9.0517        44.8581         0.0167        -0.0517        68.6225        22.2925         2.6815        32.3742         2.7844         0.0976        83.1629 
 1888.2356         9.0545        33.8190         0.0200        -0.0509        69.8539        29.5692         2.6758        35.6418         2.7834         0.1069        83.1227 
 1888.3880         9.0605        37.3395         0.0250        -0.0496        70.3871        26.7813         2.6673        34.9371         2.7825         0.1108        83.0877 
 1888.5404         9.0533        41.3160         0.0380        -0.0485        70.8534        24.2037         2.6450        33.3405         2.7815         0.1143        83.0544 
 1888.6928         9.0528        46.1900         0.0475        -0.0469        71.0687        21.6497         2.6287        31.9092         2.7807         0.1160        83.0173 
 1888.8452         9.0388        52.3245         0.0510        -0.0454        69.4771        19.1115         2.6228        30.3947         2.7797         0.1040        83.0009 
 1888.9976         9.0393        54.3546         0.0531        -0.0435        64.9413        18.3977         2.6192        29.1925         2.7788         0.0700        82.9599 
 1889.1500         9.0398        55.1898         0.0521        -0.0427        62.7019        18.1193         2.6209        28.3061         2.7779         0.0532        82.9387 
 1889.3024         9.0545        55.2914         0.0485        -0.0422        60.8986        18.0860         2.6271        27.6931         2.7769         0.0397        82.9261 
 1889.4548         9.0565        54.3842         0.0453        -0.0420        58.1572        18.3877         2.6325        27.3831         2.8206         0.0192        83.0166 
 1889.6072         9.0507        52.9451         0.0421        -0.0405        56.7135        18.8875         2.6380        27.3837         2.9309         0.0083        83.1951 
 1889.7596         9.0419        50.8022         0.0385        -0.0387        55.6918        19.6842         2.6442        27.3843         3.0857         0.0007        83.3322 
 1889.9120         9.0449        50.8950         0.0325        -0.0342        54.7470        19.6483         2.6544        28.0060         3.0668        -0.0064        83.3518 
 1890.0644         9.0498        41.4934         0.0189        -0.0227        55.5954        24.1002         2.6777        32.9755         2.6074        -0.0000        83.3140 
 1890.2168         9.0356        27.3647         0.0011         0.0483        56.7481        36.5435         2.7081        38.7280         2.1482         0.0086        83.2865 
 1890.3692         9.0284        22.7221         0.0000         0.0515        57.7513        44.0100         2.7424        45.5174         1.3684         0.0161        83.2559 
 1890.5216         9.0146        19.6639         0.0000         0.0468        58.7509        50.8545         2.7474        52.2871         0.5886         0.0236        83.2214 
 1890.6740         9.0073        17.2384         0.0000         0.0383        59.5482        58.0100         2.7390        57.2842        -0.1912         0.0296        83.2024 
 1890.8264         8.9969        14.5142         0.0000         0.0305        59.0034        68.8981         2.7288        61.7915        -0.6595         0.0255        83.1901 
 1890.9788         8.9885        12.1544         0.0000         0.0204        57.0184        82.2745         2.7200        65.4998        -0.8162         0.0106        83.1669 
 1891.1312         8.9841        10.5414         0.0000         0.0103        56.6500        94.8645         2.7153        69.0433        -0.9730         0.0079        83.1587 
 1891.2836         8.9847        10.4881         0.0000         0.0086        56.9793        95.3457         2.7141        71.3303        -1.0668         0.0103        83.1411 
 1891.4360         8.9852        10.8436         0.0000         0.0218        57.3680        92.2205         2.7152        72.8269        -1.2145         0.0133        83.1440 
 1891.5884         8.9856        11.2791         0.0000         0.0399        57.4429        88.6594         2.7247        74.3345        -1.3624         0.0138        83.1429 
 1891.7408         8.9862         9.6219         0.0000         0.0487        57.3179       103.9297         2.7356        76.1494        -1.6659         0.0129        83.1430 
 1891.8932         8.9872         8.2905         0.0000         0.0464        56.7259       120.6197         2.7421        78.3239        -1.9121         0.0084        83.1428 
 1892.0456         9.0028         8.3975         0.0000         0.0243        55.9960       119.0827         2.7409        79.8772        -2.1173         0.0030        83.1463 
 1892.1980         9.0034         8.7653         0.0000        -0.0025        55.6338       114.0862         2.7280        81.7412        -2.3813         0.0003        83.1701 
