~VERSION INFORMATION
 VERS.                 2.0:   CWLS LOG ASCII STANDARD - VERSION 2.0
 WRAP.                  NO:   SINGLE LINE PER DEPTH STEP
~WELL INFORMATION
#MNEM.UNIT       DATA           DESCRIPTION MNEMONIC
#---------    -------------   --------------------------
 STRT.M         308.0000                      : START DEPTH
 STOP.M         2001.0116                     : STOP DEPTH
 STEP.M         0.1524                        : STEP VALUE
 NULL.          -999.0000                     : NULL VALUE
 SRVC.          PYPOZO                        : Service Company/Logging company
 DATE.          08/07/2025                    : LAS file Creation Date
 WELL    .      JANO-1                         : Well Name
 COMP    .      PYPOZO 2.0                    : Company
 FLD     .      UNKNOWN                       : Field
 LOC     .      UNKNOWN                       : Location
 LATI    .      0                             : Latitude/Northing
 LONG    .      0                             : Longitude/Easting
 APDAT   .      0                             : Elevation Above Permanent Datum
~CURVE INFORMATION
#MNEM          UNIT     API CODE   Curve Type Comments
#---------- ---------- ----------  ---------- --------
 DEPTH     .M                    : Depth      
 CALI      .IN                         : CALI       
 CILD      .MM/M                       : CILD       
 DPHI      .V/V                        : DPHI       
 DRHO      .G/C3                       : DRHO       
 DT        .US/F                       : DT         
 ILD       .OHMM                       : ILD        
 RHOB      .G/C3                       : RHOB       
 SN        .OHMM                       : SN         
 SP        .MV                         : SP         
 SPHI      .V/V                        : SPHI       
 TEMP      .DEGC                       : TEMP       
~A Log data section
# ...
 1093.1648        10.1365       356.7864         0.1454        -0.0306        93.8712         2.5257         2.4614         3.1605       -30.7541         0.2869        61.7142 
 1093.3172        10.0957       354.7904         0.1481        -0.0345        93.3184         2.5260         2.4567         3.1570       -30.7541         0.2827        61.7211 
 1093.4696        10.0766       353.7924         0.1508        -0.0346        92.9173         2.5264         2.4521         3.1284       -30.6033         0.2797        61.7161 
 1093.6220        10.0742       356.7864         0.1526        -0.0306        92.6471         2.5268         2.4490         3.0824       -30.6033         0.2777        61.7118 
 1093.7744        10.0717       358.7824         0.1540        -0.0259        92.6247         2.5272         2.4466         3.1097       -30.6033         0.2775        61.7069 
 1093.9268        10.0270       362.7745         0.1549        -0.0212        92.9664         2.5276         2.4451         3.0793       -30.5514         0.2801        61.7023 
 1094.0792        10.0125       363.7725         0.1558        -0.0200        93.5973         2.5280         2.4436         3.0733       -30.4525         0.2848        61.6976 
 1094.2316        10.0205       365.7685         0.1531        -0.0224        94.2729         2.5284         2.4482         3.0182       -30.3017         0.2899        61.6930 
 1094.3840        10.0520       367.7645         0.1467        -0.0258        94.7082         2.5287         2.4591         3.0258       -30.3017         0.2932        61.6884 
 1094.5364        10.0352       373.7525         0.1400        -0.0267        95.0311         2.4981         2.4706         3.0476       -30.3017         0.2956        61.6834 
 1094.6888        10.0214       376.7465         0.1376        -0.0266        95.2168         2.4055         2.4747         3.0581       -30.1508         0.2970        61.6819 
 1094.8412        10.0075       380.7385         0.1374        -0.0251        95.4358         2.3439         2.4751         3.0177       -30.1508         0.2986        61.6812 
 1094.9936        10.0203       382.7345         0.1356        -0.0234        95.5441         2.3131         2.4782         2.9887       -30.1508         0.2994        61.6817 
 1095.1460        10.0362       385.7285         0.1334        -0.0219        95.6855         2.3136         2.4819         2.9370       -30.1508         0.3005        61.6854 
 1095.2984        10.0617       385.7285         0.1316        -0.0203        95.9046         2.3139         2.4849         2.9053       -30.1508         0.3021        61.7054 
 1095.4508        10.0922       380.7385         0.1294        -0.0181        96.1385         2.3143         2.4888         2.9205       -30.0000         0.3039        61.7092 
 1095.6032        10.1290       374.7505         0.1271        -0.0165        96.3096         2.3298         2.4927         2.9629       -30.0000         0.3052        61.7168 
 1095.7556        10.1400       369.7605         0.1248        -0.0157        96.4406         2.3599         2.4966         3.0188       -30.0000         0.3062        61.7234 
 1095.9080        10.1394       364.7705         0.1230        -0.0149        96.4904         2.3900         2.4997         3.0689       -30.0000         0.3065        61.7299 
 1096.0604        10.1525       361.7764         0.1215        -0.0157        96.4652         2.4201         2.5023         3.0767       -30.0000         0.3063        61.7368 
 1096.2128        10.1745       357.7844         0.1199        -0.0188        96.3068         2.4813         2.5049         2.9697       -30.1735         0.3051        61.7417 
 1096.3652        10.1972       355.7884         0.1175        -0.0191        95.9738         2.5424         2.5090         2.9193       -30.6033         0.3027        61.7417 
 1096.5176        10.2036       355.7884         0.1145        -0.0180        95.3898         2.5799         2.5142         3.0627       -30.6744         0.2983        61.7418 
 1096.6700        10.1649       359.7804         0.1105        -0.0150        94.8017         2.6336         2.5210         3.1665       -30.6033         0.2939        61.7417 
 1096.8224        10.1339       363.7725         0.1092        -0.0120        94.2190         2.6588         2.5232         3.1497       -30.6033         0.2895        61.7417 
 1096.9748        10.1419       365.7685         0.1146        -0.0092        93.7845         2.6591         2.5140         3.0859       -30.6033         0.2862        61.7418 
 1097.1272        10.1577       365.7685         0.1201        -0.0077        93.8079         2.6595         2.5047         3.1082       -30.4525         0.2864        61.7417 
 1097.2796        10.2281       362.7745         0.1275        -0.0061        94.4075         2.6599         2.4920         3.1038       -30.4525         0.2909        61.7417 
 1097.4320        10.2830       360.7784         0.1261        -0.0048        95.1519         2.6603         2.4944         3.0280       -30.3017         0.2965        61.7417 
 1097.5844        10.2910       362.7745         0.1202        -0.0032        95.6509         2.6607         2.5045         2.9841       -30.3017         0.3002        61.7417 
 1097.7368        10.2869       366.7665         0.1147        -0.0024        95.9212         2.6301         2.5139         3.0165       -30.3017         0.3023        61.7417 
 1097.8892        10.2680       365.7685         0.1119        -0.0001        96.0281         2.6304         2.5186         3.0498       -30.3017         0.3031        61.7418 
 1098.0416        10.2379       360.7784         0.1065         0.0015        95.0396         2.5998         2.5279         3.1156       -30.3017         0.2956        61.7417 
 1098.1940        10.3095       357.7844         0.1050         0.0017        94.4259         2.5692         2.5304         3.0966       -30.3017         0.2910        61.7418 
 1098.3464        10.4951       360.7784         0.1044        -0.0032        94.1493         2.5386         2.5314         3.0373       -30.3017         0.2890        61.7419 
 1098.4988        10.4755       365.7685         0.1052        -0.0078        93.9802         2.5390         2.5301         2.9651       -30.3017         0.2877        61.7461 
 1098.6512        10.4391       369.7605         0.1085        -0.0103        94.0769         2.5083         2.5245         2.9377       -30.4525         0.2884        61.7514 
 1098.8036        10.4166       375.7485         0.1120        -0.0109        94.7352         2.4777         2.5185         2.9860       -30.6033         0.2934        61.7567 
 1098.9560        10.4032       378.7425         0.1150        -0.0098        95.5126         2.4470         2.5133         2.9612       -30.6033         0.2992        61.7619 
 1099.1084        10.3873       381.7365         0.1191        -0.0056        95.7250         2.3997         2.5064         2.8136       -30.6033         0.3008        61.7672 
 1099.2608        10.4317       385.7285         0.1220        -0.0029        95.6076         2.3393         2.5014         2.8347       -30.7541         0.2999        61.7725 
 1099.4132        10.4941       388.7226         0.1224        -0.0016        95.3640         2.3099         2.5007         2.8940       -30.8291         0.2981        61.7778 
 1099.5656        10.3650       391.7166         0.1164        -0.0027        95.1290         2.2625         2.5109         2.9150       -30.9050         0.2963        61.7817 
 1099.7180        10.2216       394.7106         0.1119        -0.0058        94.9366         2.2318         2.5187         2.8476       -30.9050         0.2949        61.7817 
 1099.8704        10.1542       401.1608         0.1137        -0.0112        94.7434         2.2012         2.5156         2.7832       -30.7541         0.2934        61.7818 
 1100.0228        10.1242       408.5541         0.1201        -0.0195        94.7514         2.1925         2.5047         2.6778       -30.6033         0.2935        61.7818 
