~VERSION INFORMATION
 VERS.                 2.0:   CWLS LOG ASCII STANDARD - VERSION 2.0
 WRAP.                  NO:   SINGLE LINE PER DEPTH STEP
~WELL INFORMATION
#MNEM.UNIT       DATA           DESCRIPTION MNEMONIC
#---------    -------------   --------------------------
 STRT.M         308.0000                      : START DEPTH
 STOP.M         2001.0116                     : STOP DEPTH
 STEP.M         0.1524                        : STEP VALUE
 NULL.          -999.0000                     : NULL VALUE
 SRVC.          PYPOZO                        : Service Company/Logging company
 DATE.          08/07/2025                    : LAS file Creation Date
 WELL    .      JANO-1                         : Well Name
 COMP    .      PYPOZO 2.0                    : Company
 FLD     .      UNKNOWN                       : Field
 LOC     .      UNKNOWN                       : Location
 LATI    .      0                             : Latitude/Northing
 LONG    .      0                             : Longitude/Easting
 APDAT   .      0                             : Elevation Above Permanent Datum
~CURVE INFORMATION
#MNEM          UNIT     API CODE   Curve Type Comments
#---------- ---------- ----------  ---------- --------
 DEPTH     .M                    : Depth      
 CALI      .IN                         : CALI       
 CILD      .MM/M                       : CILD       
 DPHI      .V/V                        : DPHI       
 DRHO      .G/C3                       : DRHO       
 DT        .US/F                       : DT         
 ILD       .OHMM                       : ILD        
 RHOB      .G/C3                       : RHOB       
 SN        .OHMM                       : SN         
 SP        .MV                         : SP         
 SPHI      .V/V                        : SPHI       
 TEMP      .DEGC                       : TEMP       
~A Log data section
# ...
  644.4992         9.0248       415.6687      -999.0000      -999.0000       102.8233         2.3292      -999.0000         2.4674       -18.2021         0.3540      -999.0000 
  644.6516         9.0248       415.6687      -999.0000      -999.0000       102.5430         2.2995      -999.0000         2.4610       -18.3539         0.3519      -999.0000 
  644.8040         9.0249       416.6667      -999.0000      -999.0000       102.1074         2.2998      -999.0000         2.4573       -18.3549         0.3486      -999.0000 
  644.9564         9.0377       420.2728      -999.0000      -999.0000       101.9944         2.3002      -999.0000         2.4620       -18.5066         0.3478      -999.0000 
  645.1088         9.0408       424.7678      -999.0000      -999.0000       102.2825         2.2977      -999.0000         2.4690       -18.5076         0.3499      -999.0000 
  645.2612         9.0409       428.6427      -999.0000      -999.0000       102.6849         2.2709      -999.0000         2.4469       -18.5085         0.3530      -999.0000 
  645.4136         9.0409       430.6387      -999.0000      -999.0000       103.0699         2.2713      -999.0000         2.4267       -18.5095         0.3558      -999.0000 
  645.5660         9.0411       437.6248      -999.0000      -999.0000       103.4835         2.2716      -999.0000         2.3951       -18.5102         0.3589      -999.0000 
  645.7184         9.0412       440.6188      -999.0000      -999.0000       103.8354         2.2720      -999.0000         2.3840       -18.4314         0.3616      -999.0000 
  645.8708         9.0413       448.6028      -999.0000      -999.0000       104.2057         2.2724      -999.0000         2.3532       -18.3612         0.3644      -999.0000 
  646.0232         9.0287       450.7662      -999.0000      -999.0000       104.6861         2.2413      -999.0000         2.3282       -18.2113         0.3680      -999.0000 
  646.1756         9.0258       453.5928      -999.0000      -999.0000       105.3009         2.2282      -999.0000         2.3044       -18.1547         0.3726      -999.0000 
  646.3280         9.0259       455.5888      -999.0000      -999.0000       105.7154         2.2134      -999.0000         2.2885       -18.0622         0.3757      -999.0000 
  646.4804         9.0260       457.5848      -999.0000      -999.0000       105.9564         2.2138      -999.0000         2.2641       -17.9123         0.3775      -999.0000 
  646.6328         9.0261       458.5828      -999.0000      -999.0000       106.0488         2.2141      -999.0000         2.2671       -17.9133         0.3782      -999.0000 
  646.7852         9.0262       459.5808      -999.0000      -999.0000       105.9359         2.2024      -999.0000         2.2617       -17.9143         0.3773      -999.0000 
  646.9376         9.0263       462.8637      -999.0000      -999.0000       105.8439         2.1848      -999.0000         2.2378       -17.7643         0.3766      -999.0000 
  647.0900         9.0264       465.8059      -999.0000      -999.0000       105.7667         2.1552      -999.0000         2.2165       -17.7652         0.3761      -999.0000 
  647.2424         9.0265       467.5649      -999.0000      -999.0000       105.6896         2.1556      -999.0000         2.2087       -17.7662         0.3755      -999.0000 
  647.3948         9.0265       468.5600      -999.0000      -999.0000       105.6124         2.1559      -999.0000         2.2203       -17.7671         0.3749      -999.0000 
  647.5472         9.0267       468.5682      -999.0000      -999.0000       105.7863         2.1563      -999.0000         2.1900       -17.9189         0.3762      -999.0000 
  647.6996         9.0268       467.5751      -999.0000      -999.0000       106.0825         2.1566      -999.0000         2.1964       -17.9198         0.3784      -999.0000 
  647.8520         9.0268       466.7060      -999.0000      -999.0000       106.3308         2.1570      -999.0000         2.2342       -17.9207         0.3803      -999.0000 
  648.0044         9.0216       467.1960      -999.0000      -999.0000       106.5014         2.1573      -999.0000         2.2545       -17.9217         0.3816      -999.0000 
  648.1568         9.0131       468.5809      -999.0000      -999.0000       106.5316         2.1577      -999.0000         2.2671       -17.9226         0.3818      -999.0000 
  648.3092         8.9988       467.6042      -999.0000      -999.0000       106.5321         2.1581      -999.0000         2.2474       -17.7727         0.3818      -999.0000 
  648.4616         8.9959       466.6382      -999.0000      -999.0000       106.4071         2.1585      -999.0000         2.2321       -17.9245         0.3809      -999.0000 
  648.6140         8.9960       465.5689      -999.0000      -999.0000       106.3777         2.1589      -999.0000         2.2367       -18.1654         0.3806      -999.0000 
  648.7664         8.9961       459.5808      -999.0000      -999.0000       106.5373         2.1592      -999.0000         2.2596       -18.2279         0.3818      -999.0000 
  648.9188         8.9962       456.6350      -999.0000      -999.0000       107.0730         2.1595      -999.0000         2.2405       -18.1542         0.3859      -999.0000 
  649.0712         8.9963       452.7122      -999.0000      -999.0000       107.6863         2.1599      -999.0000         2.2472       -18.0118         0.3905      -999.0000 
  649.2236         8.9964       447.6048      -999.0000      -999.0000       108.0588         2.1766      -999.0000         2.2869       -17.9290         0.3932      -999.0000 
  649.3760         8.9965       442.6148      -999.0000      -999.0000       108.1569         2.2061      -999.0000         2.3227       -17.8777         0.3940      -999.0000 
  649.5284         8.9966       437.6248      -999.0000      -999.0000       108.0433         2.2211      -999.0000         2.3693       -17.7798         0.3931      -999.0000 
  649.6808         8.9967       434.6307      -999.0000      -999.0000       107.3887         2.2215      -999.0000         2.3956       -17.8183         0.3882      -999.0000 
  649.8332         8.9968       428.5802      -999.0000      -999.0000       106.0523         2.2649      -999.0000         2.4213       -18.1134         0.3782      -999.0000 
  649.9856         8.9964       422.2955      -999.0000      -999.0000       104.9381         2.2823      -999.0000         2.4463       -18.5594         0.3699      -999.0000 
  650.1380         8.9953       416.0109      -999.0000      -999.0000       104.1482         2.2827      -999.0000         2.4373       -19.0354         0.3639      -999.0000 
  650.2904         8.9940       409.6806      -999.0000      -999.0000       103.7181         2.2830      -999.0000         2.4208       -19.7529         0.3607      -999.0000 
  650.4428         8.9927       410.6786      -999.0000      -999.0000       103.4746         2.2834      -999.0000         2.4172       -20.0479         0.3589      -999.0000 
  650.5952         8.9915       412.6747      -999.0000      -999.0000       103.3696         2.2837      -999.0000         2.4468       -20.0489         0.3581      -999.0000 
  650.7476         8.9903       414.6707      -999.0000      -999.0000       103.2933         2.3141      -999.0000         2.4593       -20.2006         0.3575      -999.0000 
  650.9000         8.9891       417.6647      -999.0000      -999.0000       103.2792         2.3145      -999.0000         2.4397       -20.3524         0.3574      -999.0000 
  651.0524         8.9878       420.6587      -999.0000      -999.0000       103.3424         2.3130      -999.0000         2.4416       -20.3533         0.3579      -999.0000 
  651.2048         8.9865       423.6527      -999.0000      -999.0000       103.4205         2.3108      -999.0000         2.4728       -20.3543         0.3585      -999.0000 
  651.3572         8.9853       423.6527      -999.0000      -999.0000       103.5818         2.3086      -999.0000         2.4918       -20.3552         0.3597      -999.0000 
