~VERSION INFORMATION
 VERS.                 2.0:   CWLS LOG ASCII STANDARD - VERSION 2.0
 WRAP.                  NO:   SINGLE LINE PER DEPTH STEP
~WELL INFORMATION
#MNEM.UNIT       DATA           DESCRIPTION MNEMONIC
#---------    -------------   --------------------------
 STRT.M         308.0000                      : START DEPTH
 STOP.M         2001.0116                     : STOP DEPTH
 STEP.M         0.1524                        : STEP VALUE
 NULL.          -999.0000                     : NULL VALUE
 SRVC.          PYPOZO                        : Service Company/Logging company
 DATE.          08/07/2025                    : LAS file Creation Date
 WELL    .      JANO-1                         : Well Name
 COMP    .      PYPOZO 2.0                    : Company
 FLD     .      UNKNOWN                       : Field
 LOC     .      UNKNOWN                       : Location
 LATI    .      0                             : Latitude/Northing
 LONG    .      0                             : Longitude/Easting
 APDAT   .      0                             : Elevation Above Permanent Datum
~CURVE INFORMATION
#MNEM          UNIT     API CODE   Curve Type Comments
#---------- ---------- ----------  ---------- --------
 DEPTH     .M                    : Depth      
 CALI      .IN                         : CALI       
 CILD      .MM/M                       : CILD       
 DPHI      .V/V                        : DPHI       
 DRHO      .G/C3                       : DRHO       
 DT        .US/F                       : DT         
 ILD       .OHMM                       : ILD        
 RHOB      .G/C3                       : RHOB       
 SN        .OHMM                       : SN         
 SP        .MV                         : SP         
 SPHI      .V/V                        : SPHI       
 TEMP      .DEGC                       : TEMP       
~A Log data section
# ...
 1661.0072         9.7155        74.3660         0.0728        -0.0543        64.3705        13.4470         2.5855        18.5988        -0.0247         0.0657        80.2111 
 1661.1596         9.7157        78.7333         0.0675        -0.0528        67.5569        12.7011         2.5946        19.0650        -0.0238         0.0896        80.2165 
 1661.3120         9.7159        81.1135         0.0540        -0.0513        69.5393        12.3284         2.6176        18.0095        -0.1787         0.1045        80.2217 
 1661.4644         9.7160        82.1457         0.0283        -0.0490        70.2605        12.1735         2.6617        17.0161        -0.3334         0.1099        80.2270 
 1661.6168         9.7240        82.9903         0.0066        -0.0474        70.1743        12.0496         2.6988        15.8985        -0.6439         0.1093        80.2323 
 1661.7692         9.7242        82.7725         0.0112        -0.0456        67.6813        12.0813         2.6908        15.3088        -0.7373         0.0906        80.2376 
 1661.9216         9.7244        82.3445         0.0177        -0.0419        62.7069        12.1441         2.6798        15.1774        -0.8870         0.0533        80.2424 
 1662.0740         9.7212        84.5044         0.0137        -0.0388        60.0951        11.8337         2.6866        15.8901        -1.0366         0.0337        80.2472 
 1662.2264         9.7170        87.4898         0.0062        -0.0358        61.2910        11.4299         2.6994        16.6800        -1.1076         0.0427        80.2512 
 1662.3788         9.7171        91.2084         0.0030        -0.0343        63.0427        10.9639         2.7049        17.6774        -1.1067         0.0558        80.2564 
 1662.5312         9.7152        94.8218         0.0026        -0.0374        65.1946        10.5461         2.7056        18.1950        -1.2615         0.0719        80.2619 
 1662.6836         9.7080        93.7471         0.0045        -0.0452        67.8585        10.6670         2.7023        17.6646        -1.2605         0.0919        80.2875 
 1662.8360         9.7022        90.2380         0.0099        -0.0483        68.4360        11.0818         2.6930        16.5814        -1.2596         0.0962        80.3128 
 1662.9884         9.7023        88.3096         0.0217        -0.0358        66.8120        11.3238         2.6729        15.2545        -1.2586         0.0840        80.3135 
 1663.1408         9.7089        93.6251         0.0290        -0.0280        65.5583        10.6809         2.6605        14.1893        -1.2576         0.0746        80.3011 
 1663.2932         9.7028        97.8435         0.0262        -0.0311        65.0637        10.2204         2.6652        14.6147        -1.2568         0.0709        80.3082 
 1663.4456         9.7092       101.9150         0.0189        -0.0334        66.4737         9.8121         2.6777        15.1887        -1.1000         0.0815        80.3150 
 1663.5980         9.7109       106.1368         0.0143        -0.0338        67.6807         9.4218         2.6855        14.6846        -1.0667         0.0906        80.3247 
 1663.7504         9.7174       103.9523         0.0125        -0.0341        69.0635         9.6198         2.6886        14.3513        -0.9423         0.1009        80.3397 
 1663.9028         9.7255       100.8390         0.0106        -0.0329        70.9087         9.9168         2.6918        13.8971        -0.9195         0.1148        80.3546 
 1664.0552         9.7350        98.5600         0.0066        -0.0325        69.9086        10.1461         2.6988        13.5030        -0.7847         0.1073        80.3699 
 1664.2076         9.7352        97.5115         0.0039        -0.0314        68.8822        10.2552         2.7033        13.2304        -0.7838         0.0996        80.3804 
 1664.3600         9.7354        98.3778         0.0039        -0.0309        68.9034        10.1649         2.7034        12.8928        -0.7828         0.0997        80.3802 
 1664.5124         9.7355       106.3276         0.0097        -0.0369        69.8257         9.4049         2.6935        12.3032        -0.7818         0.1066        80.3805 
 1664.6648         9.7357       118.0317         0.0178        -0.0474        70.8489         8.4723         2.6795        12.3346        -0.9366         0.1143        80.3804 
 1664.8172         9.7359       129.0040         0.0215        -0.0480        73.9282         7.7517         2.6732        11.5275        -0.9357         0.1374        80.3803 
 1664.9696         9.7439       129.7438         0.0215        -0.0455        75.2395         7.7075         2.6732        11.0000        -1.0905         0.1472        80.3804 
 1665.1220         9.7536       123.7302         0.0208        -0.0424        73.0654         8.0821         2.6744        10.7208        -1.0895         0.1309        80.3805 
 1665.2744         9.7599       121.8576         0.0192        -0.0394        68.9994         8.2063         2.6771        10.9076        -1.0885         0.1004        80.3837 
 1665.4268         9.7601       124.6836         0.0246        -0.0401        66.9098         8.0203         2.6679        11.0632        -1.0876         0.0848        80.3877 
 1665.5792         9.7540       128.6670         0.0309        -0.0510        66.0890         7.7720         2.6572        11.3121        -0.9308         0.0786        80.3915 
 1665.7316         9.7543       133.4632         0.0409        -0.0549        65.9917         7.4927         2.6400        11.6230        -0.7741         0.0779        80.3951 
 1665.8840         9.7605       137.4476         0.0503        -0.0689        67.0096         7.2755         2.6240        11.3128        -0.4616         0.0855        80.3999 
 1666.0364         9.7554       141.6752         0.0561        -0.0728        69.9014         7.0584         2.6141        10.8391        -0.3049         0.1072        80.3929 
 1666.1888         9.7547       144.8562         0.0606        -0.0673        73.3370         6.9034         2.6064        10.3388        -0.1482         0.1330        80.3793 
 1666.3412         9.7675       147.5013         0.0624        -0.0548        74.6967         6.7796         2.6033         9.8828        -0.1472         0.1432        80.3666 
 1666.4936         9.7770       149.5461         0.0615        -0.0486        74.9031         6.6869         2.6049         9.5473        -0.3022         0.1447        80.3547 
 1666.6460         9.7928       150.9388         0.0546        -0.0461        74.4878         6.6252         2.6166         9.4067        -0.4570         0.1416        80.3413 
 1666.7984         9.8071       151.6392         0.0474        -0.0383        73.1564         6.5946         2.6290         9.5634        -0.6919         0.1316        80.3405 
 1666.9508         9.8244       148.4538         0.0409        -0.0263        71.7300         6.7361         2.6400         9.8924        -0.8416         0.1209        80.3401 
 1667.1032         9.8324       138.8889         0.0332        -0.0289        69.8678         7.2000         2.6532        10.3709        -1.0772         0.1070        80.3405 
 1667.2556         9.7624       128.7150         0.0249        -0.0332        67.9463         7.7691         2.6674        10.9798        -1.2967         0.0926        80.3403 
 1667.4080         9.7548       120.8693         0.0137        -0.0418        65.0305         8.2734         2.6865        11.9771        -1.3870         0.0707        80.3403 
 1667.5604         9.7549       115.1305         0.0154        -0.0500        65.7429         8.6858         2.6837        12.7455        -1.5418         0.0760        80.3406 
 1667.7128         9.7446       108.8246         0.0221        -0.0533        68.3137         9.1891         2.6722        13.5406        -1.6966         0.0953        80.3376 
 1667.8652         9.7334       102.9877         0.0248        -0.0539        71.8608         9.7099         2.6676        14.0855        -1.7396         0.1219        80.3310 
