~VERSION INFORMATION
 VERS.                 2.0:   CWLS LOG ASCII STANDARD - VERSION 2.0
 WRAP.                  NO:   SINGLE LINE PER DEPTH STEP
~WELL INFORMATION
#MNEM.UNIT       DATA           DESCRIPTION MNEMONIC
#---------    -------------   --------------------------
 STRT.M         308.0000                      : START DEPTH
 STOP.M         2001.0116                     : STOP DEPTH
 STEP.M         0.1524                        : STEP VALUE
 NULL.          -999.0000                     : NULL VALUE
 SRVC.          PYPOZO                        : Service Company/Logging company
 DATE.          08/07/2025                    : LAS file Creation Date
 WELL    .      JANO-1                         : Well Name
 COMP    .      PYPOZO 2.0                    : Company
 FLD     .      UNKNOWN                       : Field
 LOC     .      UNKNOWN                       : Location
 LATI    .      0                             : Latitude/Northing
 LONG    .      0                             : Longitude/Easting
 APDAT   .      0                             : Elevation Above Permanent Datum
~CURVE INFORMATION
#MNEM          UNIT     API CODE   Curve Type Comments
#---------- ---------- ----------  ---------- --------
 DEPTH     .M                    : Depth      
 CALI      .IN                         : CALI       
 CILD      .MM/M                       : CILD       
 DPHI      .V/V                        : DPHI       
 DRHO      .G/C3                       : DRHO       
 DT        .US/F                       : DT         
 ILD       .OHMM                       : ILD        
 RHOB      .G/C3                       : RHOB       
 SN        .OHMM                       : SN         
 SP        .MV                         : SP         
 SPHI      .V/V                        : SPHI       
 TEMP      .DEGC                       : TEMP       
~A Log data section
# ...
  980.9984        10.5134       359.7804         0.1017        -0.0306        98.5493         2.7556         2.5361         2.9718       -28.8297         0.3220      -999.0000 
  981.1508        10.5585       356.7864         0.0957        -0.0282        97.6363         2.7554         2.5463         3.0270       -28.9814         0.3151      -999.0000 
  981.3032        10.5986       355.7884         0.0880        -0.0243        96.4062         2.7272         2.5595         3.0225       -29.1332         0.3059      -999.0000 
  981.4556        10.6323       358.7824         0.0822        -0.0241        95.4006         2.6649         2.5694         2.9652       -29.2850         0.2984      -999.0000 
  981.6080        10.6489       364.7705         0.0783        -0.0282        94.7729         2.6047         2.5761         2.9185       -29.2857         0.2936      -999.0000 
  981.7604        10.6507       370.7585         0.0734        -0.0314        94.9644         2.5444         2.5845         2.8950       -29.2867         0.2951      -999.0000 
  981.9128        10.6636       381.0386         0.0688        -0.0329        95.8935         2.4924         2.5923         2.8486       -29.1367         0.3021      -999.0000 
  982.0652        10.6761       397.7046         0.0659        -0.0277        96.6561         2.4337         2.5974         2.8103       -28.9868         0.3078      -999.0000 
  982.2176        10.6891       407.6846         0.0731        -0.0201        97.1534         2.3750         2.5850         2.7810       -28.9296         0.3115      -999.0000 
  982.3700        10.6909       412.6747         0.0884        -0.0240        97.6513         2.3106         2.5589         2.7273       -28.6868         0.3152      -999.0000 
  982.5224        10.7053       423.6527         0.0932        -0.0294        97.9683         2.2323         2.5506         2.6701       -28.4939         0.3176      -999.0000 
  982.6748        10.7071       429.6407         0.0917        -0.0332        97.7542         2.1909         2.5532         2.5902       -28.3871         0.3160      -999.0000 
  982.8272        10.7074       435.8677         0.0895        -0.0361        97.4524         2.1402         2.5570         2.5356       -28.3881         0.3137      -999.0000 
  982.9796        10.7109       440.2009         0.0877        -0.0323        97.3370         2.1116         2.5601         2.4915       -28.3891         0.3129      -999.0000 
  983.1320        10.7158       441.6168         0.0859        -0.0234        98.5159         2.0924         2.5631         2.4560       -28.3899         0.3217      -999.0000 
  983.2844        10.7252       439.6208         0.0832        -0.0141       100.4308         2.1080         2.5678         2.4843       -28.5477         0.3361      -999.0000 
  983.4368        10.7335       436.6267         0.0841        -0.0088       101.3203         2.1884         2.5662         2.5093       -28.8443         0.3427      -999.0000 
  983.5892        10.7420       428.6427         0.0868        -0.0047       101.5653         2.2468         2.5615         2.5479       -29.2977         0.3446      -999.0000 
  983.7416        10.7511       415.6687         0.0905        -0.0087       101.5955         2.3051         2.5553         2.5774       -29.6003         0.3448      -999.0000 
  983.8940        10.7598       408.9359         0.0932        -0.0139       101.5207         2.3634         2.5506         2.6391       -29.7521         0.3442      -999.0000 
  984.0464        10.7818       399.9954         0.0950        -0.0186       101.2940         2.4218         2.5475         2.6995       -29.9038         0.3425      -999.0000 
  984.1988        10.7915       394.0010         0.0978        -0.0239       100.9101         2.4814         2.5428         2.7585       -29.9048         0.3397      -999.0000 
  984.3512        10.8054       385.9748         0.1005        -0.0284       100.4334         2.5413         2.5382         2.7707       -29.7547         0.3361      -999.0000 
  984.5036        10.8070       382.9192         0.1013        -0.0314        99.8915         2.6012         2.5368         2.7627       -29.6048         0.3320      -999.0000 
  984.6560        10.8072       376.8717         0.1009        -0.0330        99.1861         2.6310         2.5374         2.7705       -29.6058         0.3267      -999.0000 
  984.8084        10.8162       372.2864         0.1006        -0.0346        98.2962         2.6909         2.5380         2.8131       -29.6892         0.3201      -999.0000 
  984.9608        10.8253       371.5990         0.0998        -0.0346        97.4903         2.6907         2.5393         2.8468       -29.7584         0.3140      -999.0000 
  985.1132        10.8369       370.9345         0.0960        -0.0330        96.6180         2.6905         2.5458         2.8991       -29.8270         0.3075      -999.0000 
  985.2656        10.8469       374.7505         0.0846        -0.0299        95.9660         2.6724         2.5653         2.9180       -29.9713         0.3026      -999.0000 
  985.4180        10.8734       382.7345         0.0777        -0.0284        95.3527         2.5974         2.5771         2.8845       -30.2137         0.2980      -999.0000 
  985.5704        10.8984       389.7718         0.0783        -0.0268        95.1092         2.5402         2.5762         2.8556       -30.2146         0.2962      -999.0000 
  985.7228        10.9284       401.6966         0.0788        -0.0284        95.1427         2.4663         2.5753         2.8086       -30.3663         0.2964      -999.0000 
  985.8752        10.9544       412.5505         0.0806        -0.0299        95.5346         2.4076         2.5722         2.7273       -30.3978         0.2994      -999.0000 
  986.0276        10.9694       426.6467         0.0842        -0.0307        96.1892         2.3489         2.5660         2.6633       -30.5190         0.3043      -999.0000 
  986.1800        10.9791       435.6287         0.0891        -0.0315        96.8257         2.3202         2.5576         2.5678       -30.5200         0.3090      -999.0000 
  986.3324        10.9933       442.7738         0.0950        -0.0315        97.5637         2.2615         2.5475         2.5180       -30.5125         0.3146      -999.0000 
  986.4848        11.0013       450.5988         0.0996        -0.0307        98.6517         2.2084         2.5397         2.4415       -30.3701         0.3227      -999.0000 
  986.6372        10.9953       453.5928         0.1042        -0.0295        99.7795         2.2083         2.5319         2.3902       -30.2211         0.3312      -999.0000 
  986.7896        10.9878       454.5908         0.1087        -0.0275       100.2737         2.2081         2.5241         2.3899       -30.0712         0.3349      -999.0000 
  986.9420        10.9803       455.9367         0.1105        -0.0249       100.6279         2.2079         2.5210         2.4196       -29.7705         0.3375      -999.0000 
  987.0944        10.9728       456.5868         0.0973        -0.0219       100.9853         2.1930         2.5436         2.4668       -29.6205         0.3402      -999.0000 
  987.2468        10.9730       456.5868         0.0987        -0.0154       101.7939         2.1775         2.5413         2.4635       -29.4706         0.3463      -999.0000 
  987.3992        10.9796       455.5888         0.1078        -0.0100       103.6219         2.1773         2.5257         2.4233       -29.1700         0.3600      -999.0000 
  987.5516        10.9967       453.5928         0.1151        -0.0113       103.8191         2.1771         2.5132         2.3848       -29.0201         0.3615      -999.0000 
  987.7040        11.0084       451.5968         0.1160        -0.0129       103.2780         2.1769         2.5117         2.3553       -29.0210         0.3574      -999.0000 
  987.8564        11.0209       450.1620         0.1151        -0.0138       102.7218         2.1767         2.5132         2.3496       -29.2573         0.3532      -999.0000 
