~VERSION INFORMATION
 VERS.                 2.0:   CWLS LOG ASCII STANDARD - VERSION 2.0
 WRAP.                  NO:   SINGLE LINE PER DEPTH STEP
~WELL INFORMATION
#MNEM.UNIT       DATA           DESCRIPTION MNEMONIC
#---------    -------------   --------------------------
 STRT.M         308.0000                      : START DEPTH
 STOP.M         2001.0116                     : STOP DEPTH
 STEP.M         0.1524                        : STEP VALUE
 NULL.          -999.0000                     : NULL VALUE
 SRVC.          PYPOZO                        : Service Company/Logging company
 DATE.          08/07/2025                    : LAS file Creation Date
 WELL    .      JANO-1                         : Well Name
 COMP    .      PYPOZO 2.0                    : Company
 FLD     .      UNKNOWN                       : Field
 LOC     .      UNKNOWN                       : Location
 LATI    .      0                             : Latitude/Northing
 LONG    .      0                             : Longitude/Easting
 APDAT   .      0                             : Elevation Above Permanent Datum
~CURVE INFORMATION
#MNEM          UNIT     API CODE   Curve Type Comments
#---------- ---------- ----------  ---------- --------
 DEPTH     .M                    : Depth      
 CALI      .IN                         : CALI       
 CILD      .MM/M                       : CILD       
 DPHI      .V/V                        : DPHI       
 DRHO      .G/C3                       : DRHO       
 DT        .US/F                       : DT         
 ILD       .OHMM                       : ILD        
 RHOB      .G/C3                       : RHOB       
 SN        .OHMM                       : SN         
 SP        .MV                         : SP         
 SPHI      .V/V                        : SPHI       
 TEMP      .DEGC                       : TEMP       
~A Log data section
# ...
 1212.3416        12.1058       321.1757         0.0778        -0.0218        95.3342         2.9378         2.5769         3.6036       -19.4366         0.2979        63.5168 
 1212.4940        12.0736       328.3979         0.0796        -0.0249        95.8161         2.8947         2.5739         3.5693       -19.3777         0.3015        63.5275 
 1212.6464        12.0756       332.6260         0.0810        -0.0265        96.3991         2.8797         2.5715         3.5107       -19.5242         0.3058        63.5389 
 1212.7988        12.0508       339.8482         0.0818        -0.0257        97.1247         2.8801         2.5701         3.4995       -19.6590         0.3113        63.5439 
 1212.9512        11.9441       344.6934         0.0829        -0.0241        97.5739         2.8806         2.5683         3.5139       -19.7338         0.3146        63.5435 
 1213.1036        11.8909       341.2004         0.0772        -0.0217        97.7084         2.8811         2.5780         3.5387       -19.6490         0.3157        63.5433 
 1213.2560        11.8883       339.3568         0.0700        -0.0170        97.3463         2.8966         2.5903         3.5584       -19.5059         0.3129        63.5464 
 1213.4084        11.8886       333.5092         0.0635        -0.0100        95.4993         2.9121         2.6014         3.6168       -19.3554         0.2991        63.5523 
 1213.5608        11.8890       330.9973         0.0654        -0.0074        92.5718         2.9276         2.5981         3.6248       -19.2770         0.2771        63.5575 
 1213.7132        11.8894       329.4764         0.0737        -0.0154        91.0346         2.9586         2.5839         3.6332       -19.1987         0.2656        63.5631 
 1213.8656        11.8928       325.7232         0.0767        -0.0206        92.2543         2.9746         2.5789         3.6826       -19.1982         0.2748        63.5635 
 1214.0180        11.9113       325.3181         0.0777        -0.0224        93.3492         2.9751         2.5771         3.7070       -19.2730         0.2830        63.5637 
 1214.1704        11.9164       323.5040         0.0745        -0.0220        93.6529         2.9911         2.5826         3.7454       -19.2751         0.2853        63.5634 
 1214.3228        11.9233       325.1224         0.0724        -0.0197        93.5567         3.0143         2.5862         3.7643       -19.3525         0.2845        63.5637 
 1214.4752        11.9372       326.5739         0.0715        -0.0185        93.3832         3.0226         2.5877         3.7676       -19.3545         0.2832        63.5641 
 1214.6276        11.9463       326.2814         0.0711        -0.0174        92.4810         3.0331         2.5885         3.7411       -19.3892         0.2765        63.5713 
 1214.7800        11.9494       325.2499         0.0728        -0.0169        92.5894         3.0240         2.5855         3.7244       -19.3951         0.2773        63.5778 
 1214.9324        11.9251       320.2154         0.0750        -0.0168        93.2825         3.0245         2.5817         3.7293       -19.3549         0.2825        63.5835 
 1215.0848        11.8742       316.9626         0.0777        -0.0176        93.9449         3.0405         2.5772         3.7361       -19.3193         0.2874        63.5835 
 1215.2372        11.8465       315.9265         0.0807        -0.0184        93.6790         3.0410         2.5720         3.7920       -19.3473         0.2855        63.5836 
 1215.3896        11.8556       317.8790         0.0833        -0.0183        92.7671         3.0415         2.5675         3.7800       -19.4222         0.2786        63.5835 
 1215.5420        11.8649       319.3325         0.0847        -0.0184        92.0521         3.0420         2.5652         3.7637       -19.4996         0.2733        63.5837 
 1215.6944        11.8789       320.6300         0.0834        -0.0191        92.6334         3.0485         2.5674         3.7454       -19.5952         0.2776        63.5835 
 1215.8468        11.8934       318.5819         0.0783        -0.0183        93.5322         3.0584         2.5761         3.8023       -19.6701         0.2843        63.5829 
 1215.9992        11.8960       316.5433         0.0792        -0.0183        93.7452         3.0590         2.5746         3.8554       -19.6446         0.2859        63.5687 
 1216.1516        11.9113       312.8676         0.0842        -0.0206        93.1531         3.1050         2.5661         3.8385       -19.4898         0.2815        63.5693 
 1216.3040        11.9040       311.4279         0.0857        -0.0245        92.2768         3.1093         2.5635         3.7824       -19.3470         0.2749        63.5842 
 1216.4564        11.8710       306.1219         0.0904        -0.0276        91.5513         3.1670         2.5555         3.7800       -19.1872         0.2695        63.5984 
 1216.6088        11.8117       302.5458         0.0957        -0.0306        90.6698         3.1981         2.5463         3.8442       -19.2624         0.2629        63.6039 
 1216.7612        11.6632       299.2887         0.0971        -0.0298        89.6756         3.2314         2.5440         3.8863       -19.1892         0.2554        63.6036 
 1216.9136        11.5388       297.8259         0.0905        -0.0267        90.2347         3.2559         2.5553         3.9572       -19.3396         0.2596        63.6036 
 1217.0660        11.5392       298.8903         0.0696        -0.0197        92.4211         3.2856         2.5910         4.0269       -19.3391         0.2760        63.6030 
 1217.2184        11.5396       297.5359         0.0632        -0.0161        93.3361         3.3072         2.6019         4.0296       -19.3386         0.2829        63.5949 
 1217.3708        11.5557       295.2479         0.0616        -0.0189        93.4555         3.3077         2.6047         4.0161       -19.4159         0.2838        63.5849 
 1217.5232        11.5680       292.9722         0.0652        -0.0216        92.8782         3.3082         2.5985         4.0006       -19.4155         0.2794        63.5918 
 1217.6756        11.5734       292.8652         0.0708        -0.0234        91.6104         3.2931         2.5889         4.0710       -19.4929         0.2699        63.6026 
 1217.8280        11.5723       295.7734         0.0739        -0.0261        90.5890         3.2781         2.5836         4.0507       -19.5703         0.2623        63.6141 
 1217.9804        11.5772       297.2409         0.0805        -0.0279        90.5187         3.2785         2.5723         3.9909       -19.5698         0.2618        63.6223 
 1218.1328        11.5745       299.1881         0.0813        -0.0305        90.8790         3.2789         2.5710         3.9509       -19.6448         0.2645        63.6242 
 1218.2852        11.5756       298.6902         0.0783        -0.0312        91.1419         3.2950         2.5761         3.8449       -19.7197         0.2664        63.6294 
 1218.4376        11.5815       299.1502         0.0783        -0.0312        91.1287         3.2955         2.5761         3.8553       -19.8952         0.2663        63.6865 
 1218.5900        11.5819       297.2009         0.0792        -0.0312        90.8064         3.3265         2.5746         4.0328       -19.9449         0.2639        63.7083 
 1218.7424        11.5823       294.2841         0.0791        -0.0304        90.3791         3.3575         2.5747         4.1451       -19.9738         0.2607        63.6673 
 1218.8948        11.5827       289.5437         0.0781        -0.0303        89.9491         3.4042         2.5764         4.1730       -19.8570         0.2575        63.6417 
 1219.0472        11.5753       286.7174         0.0731        -0.0288        89.4462         3.4352         2.5850         4.1823       -19.7094         0.2537        63.6459 
 1219.1996        11.5820       283.9041         0.0708        -0.0272        88.7785         3.4812         2.5890         4.1894       -19.5225         0.2487        63.6874 
