~VERSION INFORMATION
 VERS.                 2.0:   CWLS LOG ASCII STANDARD - VERSION 2.0
 WRAP.                  NO:   SINGLE LINE PER DEPTH STEP
~WELL INFORMATION
#MNEM.UNIT       DATA           DESCRIPTION MNEMONIC
#---------    -------------   --------------------------
 STRT.M         308.0000                      : START DEPTH
 STOP.M         2001.0116                     : STOP DEPTH
 STEP.M         0.1524                        : STEP VALUE
 NULL.          -999.0000                     : NULL VALUE
 SRVC.          PYPOZO                        : Service Company/Logging company
 DATE.          08/07/2025                    : LAS file Creation Date
 WELL    .      JANO-1                         : Well Name
 COMP    .      PYPOZO 2.0                    : Company
 FLD     .      UNKNOWN                       : Field
 LOC     .      UNKNOWN                       : Location
 LATI    .      0                             : Latitude/Northing
 LONG    .      0                             : Longitude/Easting
 APDAT   .      0                             : Elevation Above Permanent Datum
~CURVE INFORMATION
#MNEM          UNIT     API CODE   Curve Type Comments
#---------- ---------- ----------  ---------- --------
 DEPTH     .M                    : Depth      
 CALI      .IN                         : CALI       
 CILD      .MM/M                       : CILD       
 DPHI      .V/V                        : DPHI       
 DRHO      .G/C3                       : DRHO       
 DT        .US/F                       : DT         
 ILD       .OHMM                       : ILD        
 RHOB      .G/C3                       : RHOB       
 SN        .OHMM                       : SN         
 SP        .MV                         : SP         
 SPHI      .V/V                        : SPHI       
 TEMP      .DEGC                       : TEMP       
~A Log data section
# ...
 1436.6744         9.4344       136.8457         0.0533        -0.0043        76.6509         7.3075         2.6188        11.7924        -2.1285         0.1578        67.8118 
 1436.8268         9.4086       130.1897         0.0463        -0.0051        76.1359         7.6811         2.6309        11.1751        -1.9708         0.1539        67.8176 
 1436.9792         9.3941       125.6061         0.0392        -0.0113        73.2703         7.9614         2.6430        10.8295        -1.9689         0.1325        67.8233 
 1437.1316         9.3853       135.0986         0.0409        -0.0183        71.0713         7.4020         2.6400        10.6577        -1.8112         0.1160        67.8277 
 1437.2840         9.3978       144.2793         0.0668        -0.0206        71.6672         6.9310         2.5957        10.5707        -1.8093         0.1204        67.8278 
 1437.4364         9.4133       152.6019         0.0940        -0.0199        75.1495         6.5530         2.5492        10.6053        -1.8073         0.1465        67.8279 
 1437.5888         9.4467       159.9795         0.1091        -0.0183        77.7880         6.2508         2.5235        10.4803        -1.6496         0.1663        67.8278 
 1437.7412         9.4739       164.0151         0.1137        -0.0167        79.1930         6.0970         2.5155        10.1096        -1.6477         0.1769        67.8278 
 1437.8936         9.5011       166.3091         0.1117        -0.0152        80.0206         6.0129         2.5190         9.4270        -1.4904         0.1831        67.8278 
 1438.0460         9.5206       175.3647         0.1026        -0.0127        80.3380         5.7024         2.5346         8.1853        -1.4010         0.1854        67.8278 
 1438.1984         9.5464       188.7576         0.0922        -0.0104        78.1445         5.2978         2.5524         7.6579        -1.1751         0.1690        67.8278 
 1438.3508         9.5815       197.5309         0.0761        -0.0082        77.4679         5.0625         2.5799         7.5654        -1.1732         0.1639        67.8278 
 1438.5032         9.6094       198.3615         0.0709        -0.0051        78.0632         5.0413         2.5888         7.7523        -1.1713         0.1684        67.8278 
 1438.6556         9.6269       196.8581         0.0764        -0.0027        78.4016         5.0798         2.5793         8.0945        -1.3251         0.1709        67.8279 
 1438.8080         9.6285       193.1285         0.0780        -0.0041        78.4544         5.1779         2.5767         8.3745        -1.4793         0.1713        67.8280 
 1438.9604         9.6048       187.2694         0.0778        -0.0074        77.6356         5.3399         2.5770         8.5304        -1.6332         0.1652        67.8322 
 1439.1128         9.5364       176.9097         0.0753        -0.0125        75.6854         5.6526         2.5812         8.6110        -1.7870         0.1506        67.8374 
 1439.2652         9.5211       165.1473         0.0715        -0.0175        74.8313         6.0552         2.5877         8.7033        -1.9793         0.1442        67.8424 
 1439.4176         9.4741       154.3543         0.0678        -0.0216        74.1643         6.4786         2.5940         8.7647        -2.0947         0.1392        67.8475 
 1439.5700         9.4292       144.0632         0.0607        -0.0249        71.4592         6.9414         2.6062         8.8539        -2.2485         0.1189        67.8477 
 1439.7224         9.4095       134.4176         0.0529        -0.0285        69.3272         7.4395         2.6195         9.5174        -2.2464         0.1029        67.8480 
 1439.8748         9.4019       119.8768         0.0357        -0.0308        66.7773         8.3419         2.6490        10.7459        -2.2445         0.0838        67.8416 
 1440.0272         9.4129       116.8224         0.0223        -0.0315        66.6276         8.5600         2.6719        11.7888        -2.2426         0.0827        67.8271 
 1440.1796         9.4288       115.1437         0.0505        -0.0275        70.2120         8.6848         2.6236        13.3136        -2.2407         0.1095        67.8412 
 1440.3320         9.4680       116.3887         0.0655        -0.0198        71.9423         8.5919         2.5980        13.6906        -2.2388         0.1225        67.8682 
 1440.4844         9.5031       123.5392         0.0743        -0.0128        73.2169         8.0946         2.5829        13.0037        -2.2369         0.1321        67.8960 
 1440.6368         9.5314       130.0289         0.0690        -0.0065        75.1957         7.6906         2.5920        12.2843        -2.2349         0.1469        67.9513 
 1440.7892         9.5861       136.6550         0.0602        -0.0034        76.3985         7.3177         2.6071        11.3918        -2.2330         0.1559        67.9683 
 1440.9416         9.6315       142.4826         0.0527        -0.0026        77.0992         7.0184         2.6199        10.1686        -2.2310         0.1612        67.9683 
 1441.0940         9.6775       147.4578         0.0506        -0.0042        78.0476         6.7816         2.6235         9.8105        -2.2291         0.1683        67.9676 
 1441.2464         9.6885       151.5037         0.0588        -0.0065        75.7894         6.6005         2.6094         9.6568        -2.2272         0.1513        67.9700 
 1441.3988         9.6783       156.1695         0.0562        -0.0088        73.7739         6.4033         2.6139         9.5953        -2.0695         0.1362        67.9739 
 1441.5512         9.6728       159.9488         0.0549        -0.0127        72.0549         6.2520         2.6162         9.5648        -2.0675         0.1233        67.9776 
 1441.7036         9.6415       163.5831         0.0557        -0.0158        71.2273         6.1131         2.6147         9.4722        -2.0656         0.1171        67.9813 
 1441.8560         9.6095       165.4260         0.0605        -0.0176        72.9929         6.0450         2.6066         9.2244        -2.0641         0.1304        67.9850 
 1442.0084         9.5944       156.9046         0.0660        -0.0186        76.0771         6.3733         2.5972         9.0386        -2.0622         0.1535        67.9879 
 1442.1608         9.5935       149.5841         0.0712        -0.0229        76.4532         6.6852         2.5882         9.0303        -2.0603         0.1563        67.9879 
 1442.3132         9.6114       147.8962         0.0601        -0.0286        74.5128         6.7615         2.6073         9.2882        -2.0583         0.1418        67.9880 
 1442.4656         9.6147       149.6670         0.0543        -0.0332        72.8247         6.6815         2.6171         9.2267        -2.0565         0.1291        67.9880 
 1442.6180         9.6420       154.6049         0.0590        -0.0359        71.1025         6.4681         2.6092         9.0977        -2.2107         0.1162        67.9877 
 1442.7704         9.6511       159.0027         0.0665        -0.0368        70.2427         6.2892         2.5963         9.0414        -2.3645         0.1098        67.9904 
 1442.9228         9.6703       162.1376         0.0739        -0.0368        70.6941         6.1676         2.5836         9.1040        -2.5184         0.1131        67.9952 
 1443.0752         9.7096       164.5440         0.0815        -0.0359        74.0666         6.0774         2.5706         9.2826        -2.6722         0.1384        67.9995 
 1443.2276         9.7489       166.1847         0.0801        -0.0298        78.7777         6.0174         2.5731         9.3025        -2.7061         0.1737        68.0039 
 1443.3800         9.7678       167.0369         0.0795        -0.0256        79.5229         5.9867         2.5741         9.0290        -2.8241         0.1793        68.0080 
 1443.5324         9.7873       165.3084         0.0820        -0.0243        78.6493         6.0493         2.5698         8.7452        -2.8220         0.1728        68.0114 
