~VERSION INFORMATION
 VERS.                 2.0:   CWLS LOG ASCII STANDARD - VERSION 2.0
 WRAP.                  NO:   SINGLE LINE PER DEPTH STEP
~WELL INFORMATION
#MNEM.UNIT       DATA           DESCRIPTION MNEMONIC
#---------    -------------   --------------------------
 STRT.M         308.0000                      : START DEPTH
 STOP.M         2001.0116                     : STOP DEPTH
 STEP.M         0.1524                        : STEP VALUE
 NULL.          -999.0000                     : NULL VALUE
 SRVC.          PYPOZO                        : Service Company/Logging company
 DATE.          08/07/2025                    : LAS file Creation Date
 WELL    .      JANO-1                         : Well Name
 COMP    .      PYPOZO 2.0                    : Company
 FLD     .      UNKNOWN                       : Field
 LOC     .      UNKNOWN                       : Location
 LATI    .      0                             : Latitude/Northing
 LONG    .      0                             : Longitude/Easting
 APDAT   .      0                             : Elevation Above Permanent Datum
~CURVE INFORMATION
#MNEM          UNIT     API CODE   Curve Type Comments
#---------- ---------- ----------  ---------- --------
 DEPTH     .M                    : Depth      
 CALI      .IN                         : CALI       
 CILD      .MM/M                       : CILD       
 DPHI      .V/V                        : DPHI       
 DRHO      .G/C3                       : DRHO       
 DT        .US/F                       : DT         
 ILD       .OHMM                       : ILD        
 RHOB      .G/C3                       : RHOB       
 SN        .OHMM                       : SN         
 SP        .MV                         : SP         
 SPHI      .V/V                        : SPHI       
 TEMP      .DEGC                       : TEMP       
~A Log data section
# ...
  420.1664         9.1594       387.4277      -999.0000      -999.0000       158.1713         2.3123      -999.0000         2.5425       -10.6449         0.7689      -999.0000 
  420.3188         9.1643       390.8347      -999.0000      -999.0000       165.2710         2.2718      -999.0000         2.4084       -10.4957         0.8221      -999.0000 
  420.4712         9.1882       398.7026      -999.0000      -999.0000       173.1817         2.2523      -999.0000         2.2871       -10.3464         0.8814      -999.0000 
  420.6236         9.2184       407.6846      -999.0000      -999.0000       181.0924         2.2446      -999.0000         2.2320       -10.3090         0.9407      -999.0000 
  420.7760         9.2492       423.6527      -999.0000      -999.0000       185.4989         2.2131      -999.0000         2.2008       -10.1987         0.9738      -999.0000 
  420.9284         9.2549       435.6287      -999.0000      -999.0000       184.0466         2.1985      -999.0000         2.1865       -10.0494         0.9629      -999.0000 
  421.0808         9.2419       441.6168      -999.0000      -999.0000       179.0405         2.1922      -999.0000         2.2346       -10.0511         0.9253      -999.0000 
  421.2332         9.2261       447.6024      -999.0000      -999.0000       171.6579         2.1922      -999.0000         2.2266       -10.0526         0.8700      -999.0000 
  421.3856         9.2228       450.5988      -999.0000      -999.0000       170.6089         2.1922      -999.0000         2.1967       -10.0542         0.8621      -999.0000 
  421.5380         9.1972       450.5988      -999.0000      -999.0000       173.7988         2.1922      -999.0000         2.1964       -10.0557         0.8860      -999.0000 
  421.6904         9.1529       448.6028      -999.0000      -999.0000       177.6133         2.1922      -999.0000         2.2350        -9.9064         0.9146      -999.0000 
  421.8428         9.1182       444.6108      -999.0000      -999.0000       181.4279         2.1922      -999.0000         2.2722        -9.9079         0.9432      -999.0000 
  421.9952         9.0993       443.6128      -999.0000      -999.0000       184.4448         2.1922      -999.0000         2.2744        -9.9095         0.9659      -999.0000 
  422.1476         9.0834       444.6108      -999.0000      -999.0000       181.6722         2.1922      -999.0000         2.2627        -9.7602         0.9451      -999.0000 
  422.3000         9.0676       444.6108      -999.0000      -999.0000       182.6825         2.1922      -999.0000         2.3158        -9.7618         0.9526      -999.0000 
  422.4524         9.0714       439.6208      -999.0000      -999.0000       184.9040         2.2222      -999.0000         2.3584        -9.9142         0.9693      -999.0000 
  422.6048         9.0783       435.6287      -999.0000      -999.0000       185.4751         2.2523      -999.0000         2.4043       -10.0666         0.9736      -999.0000 
  422.7572         9.0920       427.6447      -999.0000      -999.0000       183.3255         2.2523      -999.0000         2.3611       -10.0681         0.9575      -999.0000 
  422.9096         9.1004       421.6567      -999.0000      -999.0000       180.6238         2.2687      -999.0000         2.3338       -10.0697         0.9372      -999.0000 
  423.0620         9.1263       419.6607      -999.0000      -999.0000       177.9225         2.2973      -999.0000         2.4098       -10.0713         0.9170      -999.0000 
  423.2144         9.1520       412.8436      -999.0000      -999.0000       193.6964         2.3123      -999.0000         2.4574       -10.0728         1.0352      -999.0000 
  423.3668         9.1650       409.6806      -999.0000      -999.0000       200.1218         2.3423      -999.0000         2.5386       -10.2252         1.0834      -999.0000 
  423.5192         9.1835       403.6926      -999.0000      -999.0000       203.6069         2.3724      -999.0000         2.5697       -10.2265         1.1095      -999.0000 
  423.6716         9.1872       399.7006      -999.0000      -999.0000       199.9834         2.3724      -999.0000         2.5288       -10.2279         1.0823      -999.0000 
  423.8240         9.1869       397.7046      -999.0000      -999.0000       194.3170         2.3724      -999.0000         2.4491       -10.4571         1.0399      -999.0000 
  423.9764         9.1715       398.7026      -999.0000      -999.0000       182.0322         2.3724      -999.0000         2.3469       -11.1283         0.9478      -999.0000 
  424.1288         9.1575       403.6926      -999.0000      -999.0000       181.0221         2.3423      -999.0000         2.3417       -11.7222         0.9402      -999.0000 
  424.2812         9.1405       405.6886      -999.0000      -999.0000       183.0521         2.3123      -999.0000         2.4080       -12.3162         0.9554      -999.0000 
  424.4336         9.1258       404.6906      -999.0000      -999.0000       185.0822         2.3100      -999.0000         2.4434       -12.7997         0.9706      -999.0000 
  424.5860         9.1223       399.7006      -999.0000      -999.0000       187.1123         2.2815      -999.0000         2.4777       -12.7515         0.9858      -999.0000 
  424.7384         9.1098       394.7106      -999.0000      -999.0000       189.1425         2.2523      -999.0000         2.5538       -12.4566         1.0011      -999.0000 
  424.8908         9.1193       390.3509      -999.0000      -999.0000       189.8020         2.2523      -999.0000         2.6428       -12.2008         1.0060      -999.0000 
  425.0432         9.1221       393.3021      -999.0000      -999.0000       189.4018         2.2523      -999.0000         2.6022       -12.0181         1.0030      -999.0000 
  425.1956         9.1220       396.2533      -999.0000      -999.0000       188.8275         2.2222      -999.0000         2.5280       -11.8741         0.9987      -999.0000 
  425.3480         9.1218       399.3862      -999.0000      -999.0000       188.2531         2.2222      -999.0000         2.4084       -11.6022         0.9944      -999.0000 
  425.5004         9.1217       401.8729      -999.0000      -999.0000       190.5584         2.2222      -999.0000         2.3582       -11.5863         1.0117      -999.0000 
  425.6528         9.1343       408.8486      -999.0000      -999.0000       187.5392         2.2222      -999.0000         2.3024       -11.2914         0.9890      -999.0000 
  425.8052         9.1498       412.8190      -999.0000      -999.0000       183.0961         2.2319      -999.0000         2.2607       -11.1476         0.9557      -999.0000 
  425.9576         9.1527       423.7896      -999.0000      -999.0000       180.1061         2.2463      -999.0000         2.2292       -11.0037         0.9333      -999.0000 
  426.1100         9.1653       431.7768      -999.0000      -999.0000       181.3948         2.2606      -999.0000         2.2613       -10.7050         0.9430      -999.0000 
  426.2624         9.1808       435.7899      -999.0000      -999.0000       183.6164         2.2750      -999.0000         2.2954       -10.5557         0.9596      -999.0000 
  426.4148         9.1837       436.8192      -999.0000      -999.0000       185.8380         2.2893      -999.0000         2.3597       -10.4065         0.9763      -999.0000 
  426.5672         9.1963       432.6347      -999.0000      -999.0000       188.0597         2.3037      -999.0000         2.3730       -10.4080         0.9930      -999.0000 
  426.7196         9.2119       429.6407      -999.0000      -999.0000       190.2813         2.3103      -999.0000         2.3349       -10.4096         1.0096      -999.0000 
  426.8720         9.2148       427.6447      -999.0000      -999.0000       187.0993         2.2493      -999.0000         2.2906       -10.5620         0.9858      -999.0000 
  427.0244         9.2273       432.6347      -999.0000      -999.0000       180.6701         2.1898      -999.0000         2.2903       -10.5635         0.9376      -999.0000 
