~VERSION INFORMATION
 VERS.                 2.0:   CWLS LOG ASCII STANDARD - VERSION 2.0
 WRAP.                  NO:   SINGLE LINE PER DEPTH STEP
~WELL INFORMATION
#MNEM.UNIT       DATA           DESCRIPTION MNEMONIC
#---------    -------------   --------------------------
 STRT.M         308.0000                      : START DEPTH
 STOP.M         2001.0116                     : STOP DEPTH
 STEP.M         0.1524                        : STEP VALUE
 NULL.          -999.0000                     : NULL VALUE
 SRVC.          PYPOZO                        : Service Company/Logging company
 DATE.          08/07/2025                    : LAS file Creation Date
 WELL    .      JANO-1                         : Well Name
 COMP    .      PYPOZO 2.0                    : Company
 FLD     .      UNKNOWN                       : Field
 LOC     .      UNKNOWN                       : Location
 LATI    .      0                             : Latitude/Northing
 LONG    .      0                             : Longitude/Easting
 APDAT   .      0                             : Elevation Above Permanent Datum
~CURVE INFORMATION
#MNEM          UNIT     API CODE   Curve Type Comments
#---------- ---------- ----------  ---------- --------
 DEPTH     .M                    : Depth      
 CALI      .IN                         : CALI       
 CILD      .MM/M                       : CILD       
 DPHI      .V/V                        : DPHI       
 DRHO      .G/C3                       : DRHO       
 DT        .US/F                       : DT         
 ILD       .OHMM                       : ILD        
 RHOB      .G/C3                       : RHOB       
 SN        .OHMM                       : SN         
 SP        .MV                         : SP         
 SPHI      .V/V                        : SPHI       
 TEMP      .DEGC                       : TEMP       
~A Log data section
# ...
 1324.5080        11.1320       210.2077         0.0331        -0.0259        78.3505         4.7572         2.6534         5.0008        -2.5948         0.1705        65.6076 
 1324.6604        11.1528       208.8162         0.0272        -0.0265        77.5104         4.7889         2.6635         5.0618        -2.5920         0.1642        65.6118 
 1324.8128        11.1135       207.4431         0.0222        -0.0281        77.2391         4.8206         2.6721         5.1235        -2.5891         0.1622        65.6150 
 1324.9652        11.0849       206.0921         0.0241        -0.0296        77.6949         4.8522         2.6688         5.2096        -2.4065         0.1656        65.6186 
 1325.1176        11.0666       204.7586         0.0449        -0.0418        78.3218         4.8838         2.6332         5.3284        -2.2726         0.1703        65.6220 
 1325.2700        11.0770       203.4381         0.0449        -0.0483        78.8074         4.9155         2.6332         5.3116        -2.4265         0.1740        65.6252 
 1325.4224        11.0838       201.9182         0.0449        -0.0467        79.1646         4.9525         2.6332         5.2651        -2.4246         0.1766        65.6203 
 1325.5748        11.0819       200.8516         0.0449        -0.0451        79.4450         4.9788         2.6332         5.2042        -2.4227         0.1787        65.6153 
 1325.7272        11.0521       199.5809         0.0440        -0.0444        79.4087         5.0105         2.6348         5.1580        -2.4208         0.1785        65.6097 
 1325.8796        11.0444       199.5610         0.0433        -0.0436        78.5870         5.0110         2.6360         5.1275        -2.2632         0.1723        65.6054 
 1326.0320        11.0324       199.5371         0.0421        -0.0420        77.9038         5.0116         2.6380         5.0970        -2.1992         0.1672        65.6012 
 1326.1844        11.0174       199.5132         0.0395        -0.0412        77.7373         5.0122         2.6425         5.0665        -2.0458         0.1659        65.5976 
 1326.3368        11.0023       199.4893         0.0335        -0.0420        77.8573         5.0128         2.6527         5.0671        -1.9460         0.1668        65.5938 
 1326.4892        10.9916       200.7145         0.0244        -0.0427        77.9434         4.9822         2.6682         5.0677        -1.7883         0.1675        65.5904 
 1326.6416        10.9760       200.6904         0.0178        -0.0443        77.8929         4.9828         2.6795         5.0786        -1.6306         0.1671        65.5866 
 1326.7940        10.9502       201.9264         0.0216        -0.0460        77.8771         4.9523         2.6731         5.1095        -1.6287         0.1670        65.5917 
 1326.9464        10.9230       201.9019         0.0306        -0.0470        77.6878         4.9529         2.6577         5.1626        -1.6268         0.1656        65.6005 
 1327.0988        10.8838       203.1571         0.0365        -0.0489        77.5794         4.9223         2.6476         5.2024        -1.6249         0.1648        65.6092 
 1327.2512        10.7986       203.1323         0.0385        -0.0497        77.4380         4.9229         2.6441         5.2569        -1.6230         0.1637        65.6179 
 1327.4036        10.7651       203.1075         0.0394        -0.0476        77.4073         4.9235         2.6426         5.2885        -1.6211         0.1635        65.6257 
 1327.5560        10.7629       203.0828         0.0403        -0.0425        77.4064         4.9241         2.6410         5.3201        -1.6192         0.1635        65.6312 
 1327.7084        10.7567       203.0622         0.0422        -0.0368        77.4054         4.9246         2.6379         5.3207        -1.6173         0.1635        65.6362 
 1327.8608        10.7433       204.3277         0.0440        -0.0349        77.7021         4.8941         2.6348         5.3212        -1.6154         0.1657        65.6412 
 1328.0132        10.7481       205.6090         0.0453        -0.0341        78.1384         4.8636         2.6325         5.2907        -1.6136         0.1690        65.6462 
 1328.1656        10.7506       205.5837         0.0458        -0.0333        78.6205         4.8642         2.6317         5.2570        -1.6116         0.1726        65.6512 
 1328.3180        10.7623       208.2249         0.0463        -0.0333        79.1131         4.8025         2.6309         5.1987        -1.6097         0.1763        65.6562 
 1328.4704        10.7659       209.5558         0.0458        -0.0325        79.4876         4.7720         2.6317         5.1682        -1.6078         0.1791        65.6612 
 1328.6228        10.7716       209.5294         0.0453        -0.0317        79.6954         4.7726         2.6325         5.1366        -1.6059         0.1806        65.6657 
 1328.7752        10.7730       210.8815         0.0453        -0.0317        79.6162         4.7420         2.6325         5.1068        -1.6039         0.1800        65.6692 
 1328.9276        10.7879       210.8593         0.0449        -0.0325        79.0815         4.7425         2.6333         5.0768        -1.6020         0.1760        65.6724 
 1329.0800        10.8231       210.8326         0.0437        -0.0340        77.2720         4.7431         2.6352         5.0463        -1.4443         0.1625        65.6755 
 1329.2324        10.8347       210.1193         0.0416        -0.0371        76.4732         4.7592         2.6388         5.0779        -1.4424         0.1565        65.6788 
 1329.3848        10.8613       209.4109         0.0383        -0.0379        76.5187         4.7753         2.6445         5.1406        -1.2847         0.1568        65.6818 
 1329.5372        10.8622       208.0300         0.0357        -0.0387        77.2326         4.8070         2.6489         5.2343        -1.2828         0.1622        65.6854 
 1329.6896        10.8467       207.4474         0.0353        -0.0371        78.1874         4.8205         2.6497         5.3281        -1.2809         0.1693        65.6857 
 1329.8420        10.8375       206.1261         0.0368        -0.0337        79.5168         4.8514         2.6470         5.3908        -1.2789         0.1793        65.6857 
 1329.9944        10.8286       205.3009         0.0405        -0.0308        80.2810         4.8709         2.6407         5.3913        -1.4331         0.1850        65.6856 
 1330.1468        10.7440       205.2756         0.0485        -0.0313        79.9786         4.8715         2.6271         5.4230        -1.4308         0.1827        65.6859 
 1330.2992        10.7270       205.6598         0.0512        -0.0343        79.3260         4.8624         2.6224         5.4235        -1.4289         0.1779        65.6852 
 1330.4516        10.7583       206.5518         0.0526        -0.0372        78.6795         4.8414         2.6201         5.3930        -1.5831         0.1730        65.6911 
 1330.6040        10.7974       206.5220         0.0539        -0.0387        78.3443         4.8421         2.6178         5.3315        -1.5812         0.1705        65.7027 
 1330.7564        10.7804       206.8039         0.0539        -0.0401        78.7136         4.8355         2.6178         5.3321        -1.5793         0.1733        65.7127 
 1330.9088        10.7119       207.8095         0.0539        -0.0401        80.2657         4.8121         2.6178         5.3015        -1.6608         0.1849        65.7247 
 1331.0612        10.6808       206.4495         0.0521        -0.0401        81.2493         4.8438         2.6209         5.3333        -1.7313         0.1923        65.7256 
 1331.2136        10.7071       206.4282         0.0463        -0.0401        81.0057         4.8443         2.6308         5.3649        -1.7294         0.1904        65.7259 
 1331.3660        10.7633       205.0861         0.0415        -0.0401        80.1561         4.8760         2.6390         5.3965        -1.7983         0.1841        65.7257 
