~VERSION INFORMATION
 VERS.                 2.0:   CWLS LOG ASCII STANDARD - VERSION 2.0
 WRAP.                  NO:   SINGLE LINE PER DEPTH STEP
~WELL INFORMATION
#MNEM.UNIT       DATA           DESCRIPTION MNEMONIC
#---------    -------------   --------------------------
 STRT.M         308.0000                      : START DEPTH
 STOP.M         2001.0116                     : STOP DEPTH
 STEP.M         0.1524                        : STEP VALUE
 NULL.          -999.0000                     : NULL VALUE
 SRVC.          PYPOZO                        : Service Company/Logging company
 DATE.          08/07/2025                    : LAS file Creation Date
 WELL    .      JANO-1                         : Well Name
 COMP    .      PYPOZO 2.0                    : Company
 FLD     .      UNKNOWN                       : Field
 LOC     .      UNKNOWN                       : Location
 LATI    .      0                             : Latitude/Northing
 LONG    .      0                             : Longitude/Easting
 APDAT   .      0                             : Elevation Above Permanent Datum
~CURVE INFORMATION
#MNEM          UNIT     API CODE   Curve Type Comments
#---------- ---------- ----------  ---------- --------
 DEPTH     .M                    : Depth      
 CALI      .IN                         : CALI       
 CILD      .MM/M                       : CILD       
 DPHI      .V/V                        : DPHI       
 DRHO      .G/C3                       : DRHO       
 DT        .US/F                       : DT         
 ILD       .OHMM                       : ILD        
 RHOB      .G/C3                       : RHOB       
 SN        .OHMM                       : SN         
 SP        .MV                         : SP         
 SPHI      .V/V                        : SPHI       
 TEMP      .DEGC                       : TEMP       
~A Log data section
# ...
  532.3328         9.0797       372.7545      -999.0000      -999.0000       101.4775         2.6127      -999.0000         2.6962       -13.0859         0.3439      -999.0000 
  532.4852         9.0625       382.7345      -999.0000      -999.0000       101.9477         2.5843      -999.0000         2.6673       -13.2128         0.3474      -999.0000 
  532.6376         9.0595       389.7206      -999.0000      -999.0000       103.2253         2.5107      -999.0000         2.6796       -13.2119         0.3570      -999.0000 
  532.7900         9.0595       395.7086      -999.0000      -999.0000       104.5637         2.4373      -999.0000         2.6308       -13.2109         0.3670      -999.0000 
  532.9424         9.0721       405.1713      -999.0000      -999.0000       107.0967         2.3488      -999.0000         2.5759       -13.2100         0.3860      -999.0000 
  533.0948         9.0737       411.6766      -999.0000      -999.0000       110.1890         2.2790      -999.0000         2.4866       -13.2091         0.4092      -999.0000 
  533.2472         9.0622       416.6667      -999.0000      -999.0000       113.3461         2.2420      -999.0000         2.3986       -13.0573         0.4329      -999.0000 
  533.3996         9.0468       421.6567      -999.0000      -999.0000       115.3543         2.2035      -999.0000         2.3153       -12.9055         0.4479      -999.0000 
  533.5520         9.0312       428.6427      -999.0000      -999.0000       113.5722         2.1827      -999.0000         2.2415       -12.7537         0.4346      -999.0000 
  533.7044         9.0282       433.6327      -999.0000      -999.0000       111.1360         2.1830      -999.0000         2.2020       -12.6020         0.4163      -999.0000 
  533.8568         9.0155       431.6367      -999.0000      -999.0000       109.0251         2.1834      -999.0000         2.2068       -12.4502         0.4005      -999.0000 
  534.0092         8.9999       425.6487      -999.0000      -999.0000       107.7549         2.1838      -999.0000         2.2439       -12.4493         0.3910      -999.0000 
  534.1616         8.9716       418.6627      -999.0000      -999.0000       106.9817         2.1842      -999.0000         2.3026       -12.4483         0.3852      -999.0000 
  534.3140         8.9529       413.6727      -999.0000      -999.0000       107.4754         2.1845      -999.0000         2.3125       -12.5984         0.3889      -999.0000 
  534.4664         8.9373       411.6766      -999.0000      -999.0000       109.5071         2.1849      -999.0000         2.3347       -12.5975         0.4041      -999.0000 
  534.6188         8.9277       413.6727      -999.0000      -999.0000       111.4188         2.1853      -999.0000         2.3783       -12.6729         0.4184      -999.0000 
  534.7712         8.9201       416.6667      -999.0000      -999.0000       112.5680         2.1857      -999.0000         2.4084       -12.6768         0.4270      -999.0000 
  534.9236         8.9186       420.6587      -999.0000      -999.0000       113.0306         2.1860      -999.0000         2.3804       -12.5315         0.4305      -999.0000 
  535.0760         8.9186       426.6467      -999.0000      -999.0000       112.9138         2.1864      -999.0000         2.3581       -12.2921         0.4296      -999.0000 
  535.2284         8.9186       426.6467      -999.0000      -999.0000       111.1947         2.1868      -999.0000         2.3342       -12.2912         0.4168      -999.0000 
  535.3808         8.9186       423.9289      -999.0000      -999.0000       108.6686         2.1871      -999.0000         2.3102       -12.3340         0.3978      -999.0000 
  535.5332         8.9313       419.2039      -999.0000      -999.0000       107.2481         2.1875      -999.0000         2.2852       -12.5912         0.3872      -999.0000 
  535.6856         8.9482       420.6587      -999.0000      -999.0000       106.8202         2.2179      -999.0000         2.2793       -12.5901         0.3840      -999.0000 
  535.8380         8.9629       423.6527      -999.0000      -999.0000       106.9801         2.2183      -999.0000         2.3385       -12.5892         0.3852      -999.0000 
  535.9904         8.9782       427.9661      -999.0000      -999.0000       107.6574         2.2186      -999.0000         2.3809       -12.5883         0.3902      -999.0000 
  536.1428         9.0065       431.0334      -999.0000      -999.0000       109.4792         2.2490      -999.0000         2.4150       -12.5874         0.4039      -999.0000 
  536.2952         9.0252       434.6307      -999.0000      -999.0000       108.9344         2.2494      -999.0000         2.3889       -12.4356         0.3998      -999.0000 
  536.4476         9.0661       438.6228      -999.0000      -999.0000       108.5751         2.2497      -999.0000         2.3569       -12.4347         0.3971      -999.0000 
  536.6000         9.0878       439.2204      -999.0000      -999.0000       110.7380         2.2631      -999.0000         2.3190       -12.2829         0.4133      -999.0000 
  536.7524         9.0908       438.2902      -999.0000      -999.0000       115.9707         2.2805      -999.0000         2.2871       -12.1312         0.4526      -999.0000 
  536.9048         9.0908       435.6287      -999.0000      -999.0000       121.1649         2.2914      -999.0000         2.2614       -11.9794         0.4915      -999.0000 
  537.0572         9.0908       426.6467      -999.0000      -999.0000       124.2390         2.3113      -999.0000         2.2870       -11.6768         0.5145      -999.0000 
  537.2096         9.0717       423.5797      -999.0000      -999.0000       123.6962         2.2735      -999.0000         2.2904       -11.5250         0.5105      -999.0000 
  537.3620         9.0497       419.5768      -999.0000      -999.0000       119.1264         2.2519      -999.0000         2.3174       -11.2224         0.4762      -999.0000 
  537.5144         9.0266       412.6747      -999.0000      -999.0000       112.9076         2.2222      -999.0000         2.3606       -11.0707         0.4296      -999.0000 
  537.6668         9.0102       408.6826      -999.0000      -999.0000       106.4551         2.1926      -999.0000         2.4064       -10.9189         0.3812      -999.0000 
  537.8192         8.9955       401.6966      -999.0000      -999.0000       107.1003         2.1929      -999.0000         2.4490       -10.7673         0.3861      -999.0000 
  537.9716         8.9708       394.7106      -999.0000      -999.0000       107.6721         2.1933      -999.0000         2.4917       -10.7664         0.3903      -999.0000 
  538.1240         8.9637       393.7126      -999.0000      -999.0000       107.6391         2.2237      -999.0000         2.4746       -10.7654         0.3901      -999.0000 
  538.2764         8.9525       393.7126      -999.0000      -999.0000       107.5615         2.2541      -999.0000         2.4517       -10.7646         0.3895      -999.0000 
  538.4288         8.9499       394.7106      -999.0000      -999.0000       107.3583         2.2845      -999.0000         2.4280       -10.9145         0.3880      -999.0000 
  538.5812         8.9373       392.7146      -999.0000      -999.0000       107.1744         2.3149      -999.0000         2.4229       -11.1220         0.3866      -999.0000 
  538.7336         8.9343       385.7285      -999.0000      -999.0000       107.0239         2.3453      -999.0000         2.4562       -11.3653         0.3855      -999.0000 
  538.8860         8.9469       383.7325      -999.0000      -999.0000       106.7227         2.3757      -999.0000         2.5159       -11.5152         0.3832      -999.0000 
  539.0384         8.9499       385.7285      -999.0000      -999.0000       106.2407         2.4362      -999.0000         2.5855       -11.5522         0.3796      -999.0000 
  539.1908         8.9499       386.7265      -999.0000      -999.0000       105.5788         2.4666      -999.0000         2.6378       -11.6641         0.3747      -999.0000 
