~VERSION INFORMATION
 VERS.                 2.0:   CWLS LOG ASCII STANDARD - VERSION 2.0
 WRAP.                  NO:   SINGLE LINE PER DEPTH STEP
~WELL INFORMATION
#MNEM.UNIT       DATA           DESCRIPTION MNEMONIC
#---------    -------------   --------------------------
 STRT.M         308.0000                      : START DEPTH
 STOP.M         2001.0116                     : STOP DEPTH
 STEP.M         0.1524                        : STEP VALUE
 NULL.          -999.0000                     : NULL VALUE
 SRVC.          PYPOZO                        : Service Company/Logging company
 DATE.          08/07/2025                    : LAS file Creation Date
 WELL    .      JANO-1                         : Well Name
 COMP    .      PYPOZO 2.0                    : Company
 FLD     .      UNKNOWN                       : Field
 LOC     .      UNKNOWN                       : Location
 LATI    .      0                             : Latitude/Northing
 LONG    .      0                             : Longitude/Easting
 APDAT   .      0                             : Elevation Above Permanent Datum
~CURVE INFORMATION
#MNEM          UNIT     API CODE   Curve Type Comments
#---------- ---------- ----------  ---------- --------
 DEPTH     .M                    : Depth      
 CALI      .IN                         : CALI       
 CILD      .MM/M                       : CILD       
 DPHI      .V/V                        : DPHI       
 DRHO      .G/C3                       : DRHO       
 DT        .US/F                       : DT         
 ILD       .OHMM                       : ILD        
 RHOB      .G/C3                       : RHOB       
 SN        .OHMM                       : SN         
 SP        .MV                         : SP         
 SPHI      .V/V                        : SPHI       
 TEMP      .DEGC                       : TEMP       
~A Log data section
# ...
 1997.5064         8.5699       304.6875         0.0692        -0.0357        72.4632         2.9518         2.5916         4.0000        -0.0340         0.1264      -999.0000 
 1997.6588         8.5798       313.6161         0.0650        -0.0353        72.8231         2.9520         2.5989         3.9072        -0.1837         0.1291      -999.0000 
 1997.8112         8.5880       335.9375         0.0619        -0.0304        73.1500         2.9521         2.6042         3.8766        -0.4186         0.1316      -999.0000 
 1997.9636         8.5928       340.4018         0.0615        -0.0250        73.3365         2.9523         2.6049         3.8727        -0.5734         0.1330      -999.0000 
 1998.1160         8.5753       333.7054         0.0597        -0.0209        73.3365         2.9836         2.6080         4.0326        -0.5122         0.1330      -999.0000 
 1998.2684         8.2221       333.8341         0.0570        -0.0184        73.3365         2.9955         2.6125         4.1572        -0.2049         0.1330      -999.0000 
 1998.4208         8.0439       327.1288         0.0539        -0.0179      -999.0000         3.0569         2.6178         4.1576         0.0525      -999.0000      -999.0000 
 1998.5732         8.0187       323.9286         0.0504        -0.0242      -999.0000         3.0871         2.6238         4.0648         0.3649      -999.0000      -999.0000 
 1998.7256         8.2315       317.6216         0.0452        -0.0346      -999.0000         3.1484         2.6327         3.9410         0.5614      -999.0000      -999.0000 
 1998.8780         8.4262       312.2755         0.0385        -0.0366      -999.0000         3.2023         2.6441         3.9102         0.9899      -999.0000      -999.0000 
 1999.0304         8.5023       308.6515         0.0319        -0.0350      -999.0000         3.2399         2.6555         4.1905         1.1759      -999.0000      -999.0000 
 1999.1828         8.5491       305.8010         0.0292        -0.0319      -999.0000         3.2701         2.6601         4.5216         1.4591      -999.0000      -999.0000 
 1999.3352         8.5491       303.0028         0.0279        -0.0296      -999.0000         3.3003         2.6623         4.7336         1.6349      -999.0000      -999.0000 
 1999.4876         8.5647       300.5259         0.0285        -0.0273      -999.0000         3.3275         2.6613         4.9024         1.7866      -999.0000      -999.0000 
 1999.6400         8.5647       297.7254         0.0350        -0.0241      -999.0000         3.3588         2.6502         5.0809         1.9292      -999.0000      -999.0000 
 1999.7924         8.5491       297.7076         0.0353        -0.0210      -999.0000         3.3590         2.6496         5.3246         1.9268      -999.0000      -999.0000 
 1999.9448         8.5491       294.9591         0.0309        -0.0179      -999.0000         3.3903         2.6572         5.3725         1.6196      -999.0000      -999.0000 
 2000.0972         8.5491       294.9417         0.0261        -0.0156      -999.0000         3.3905         2.6654         4.7918         1.3091      -999.0000      -999.0000 
 2000.2496         8.5491       294.9244         0.0230        -0.0161      -999.0000         3.3907         2.6707         4.5120         0.8427      -999.0000      -999.0000 
 2000.4020         8.5491       292.2268         0.0247        -0.0175      -999.0000         3.4220         2.6677         4.3983         0.3764      -999.0000      -999.0000 
 2000.5544         8.5491       292.2097         0.0291        -0.0138      -999.0000         3.4222         2.6602         4.3181        -0.5572      -999.0000      -999.0000 
 2000.7068         8.5491       292.1926         0.0313        -0.0021      -999.0000         3.4224         2.6565         4.3410        -1.3351      -999.0000      -999.0000 
 2000.8592         8.5433       292.1755         0.0286         0.0097      -999.0000         3.4226         2.6610         4.7711        -1.9571      -999.0000      -999.0000 
 2001.0116         8.5335       292.1755         0.0243         0.0175      -999.0000         3.4226         2.6685         4.7711        -1.9571      -999.0000      -999.0000 
