~VERSION INFORMATION
 VERS.                 2.0:   CWLS LOG ASCII STANDARD - VERSION 2.0
 WRAP.                  NO:   SINGLE LINE PER DEPTH STEP
~WELL INFORMATION
#MNEM.UNIT       DATA           DESCRIPTION MNEMONIC
#---------    -------------   --------------------------
 STRT.M         308.0000                      : START DEPTH
 STOP.M         2001.0116                     : STOP DEPTH
 STEP.M         0.1524                        : STEP VALUE
 NULL.          -999.0000                     : NULL VALUE
 SRVC.          PYPOZO                        : Service Company/Logging company
 DATE.          08/07/2025                    : LAS file Creation Date
 WELL    .      JANO-1                         : Well Name
 COMP    .      PYPOZO 2.0                    : Company
 FLD     .      UNKNOWN                       : Field
 LOC     .      UNKNOWN                       : Location
 LATI    .      0                             : Latitude/Northing
 LONG    .      0                             : Longitude/Easting
 APDAT   .      0                             : Elevation Above Permanent Datum
~CURVE INFORMATION
#MNEM          UNIT     API CODE   Curve Type Comments
#---------- ---------- ----------  ---------- --------
 DEPTH     .M                    : Depth      
 CALI      .IN                         : CALI       
 CILD      .MM/M                       : CILD       
 DPHI      .V/V                        : DPHI       
 DRHO      .G/C3                       : DRHO       
 DT        .US/F                       : DT         
 ILD       .OHMM                       : ILD        
 RHOB      .G/C3                       : RHOB       
 SN        .OHMM                       : SN         
 SP        .MV                         : SP         
 SPHI      .V/V                        : SPHI       
 TEMP      .DEGC                       : TEMP       
~A Log data section
# ...
 1548.8408        10.0484        88.5520         0.1447        -0.0021        72.6327        11.2928         2.4049        14.0895        -4.2690         0.1277        70.4046 
 1548.9932         9.8106       101.4497         0.1212        -0.0165        79.4992         9.8571         2.4626        13.5939        -3.9582         0.1792        70.4072 
 1549.1456         9.5513       145.2264         0.0997        -0.0268        84.9875         6.8858         2.5280        12.0114        -3.4917         0.2203        70.4101 
 1549.2980         9.4911       176.4229         0.0891        -0.0289        87.1527         5.6682         2.5576        10.7395        -3.1810         0.2365        70.4067 
 1549.4504         9.4989       194.9546         0.1106        -0.0274        88.3742         5.1294         2.5405         9.6539        -2.9142         0.2457        70.4027 
 1549.6028         9.5145       208.8511         0.1247        -0.0233        89.2264         4.7881         2.4953         8.3559        -2.7537         0.2521        70.3983 
 1549.7552         9.5414       235.7712         0.1617        -0.0169        89.7532         4.2414         2.4554         6.8397        -2.9053         0.2560        70.3943 
 1549.9076         9.6378       281.2465         0.1828        -0.0097        89.9695         3.5556         2.4127         5.9866        -2.8983         0.2576        70.3905 
 1550.0600         9.8422       320.4615         0.1845        -0.0052        90.0007         3.1205         2.3974         4.8140        -3.0523         0.2579        70.3904 
 1550.2124        10.0368       353.8821         0.1897        -0.0010        89.6256         2.8258         2.3917         4.8456        -3.0629         0.2551        70.3904 
 1550.3648        10.1437       361.1151         0.1915         0.0031        86.4266         2.7692         2.3859         4.9704        -3.0484         0.2311        70.3903 
 1550.5172        10.2434       357.0536         0.1966         0.0031        82.1911         2.8007         2.3793         5.0331        -3.0465         0.1993        70.3905 
 1550.6696        10.3848       338.2264         0.1943         0.0032        79.7248         2.9566         2.3739         5.1142        -2.7330         0.1808        70.3905 
 1550.8220        10.5512       308.9376         0.1872        -0.0007        77.6515         3.2369         2.3799         5.1753        -2.1080         0.1653        70.3970 
 1550.9744        10.7335       276.9623         0.1772        -0.0070        75.1264         3.6106         2.4069         5.3136        -1.7945         0.1464        70.4059 
 1551.1268        10.6878       249.0474         0.1019        -0.0114        71.3944         4.0153         2.5163         5.7323        -1.4810         0.1184        70.4109 
 1551.2792        10.4645       211.3673         0.0834        -0.0172        69.2266         4.7311         2.5659         6.3689        -1.0118         0.1021        70.4103 
 1551.4316        10.1025       188.9895         0.0822        -0.0221        69.0418         5.2913         2.5677         7.0996        -0.8541         0.1008        70.4104 
 1551.5840         9.8463       173.6624         0.0803        -0.0225        69.6834         5.7583         2.5729         7.6377        -0.6967         0.1056        70.4106 
 1551.7364         9.7663       162.2586         0.0706        -0.0222        72.9330         6.1630         2.5810         8.0085        -0.6094         0.1299        70.4081 
 1551.8888         9.7332       152.1746         0.0653        -0.0217        75.2501         6.5714         2.5975         8.4212        -0.5372         0.1473        70.4009 
 1552.0412         9.6700       144.8352         0.0526        -0.0190        74.8445         6.9044         2.6179         8.6101        -0.5353         0.1443        70.3939 
 1552.1936         9.6207       139.0183         0.0509        -0.0131        72.0403         7.1933         2.6224         8.5459        -0.5334         0.1232        70.3868 
 1552.3460         9.6113       135.3363         0.0722        -0.0085        68.8000         7.3890         2.6004         8.5181        -0.5315         0.0990        70.3797 
 1552.4984         9.6869       135.5399         0.0809        -0.0049        65.5597         7.3779         2.5710         8.5497        -0.6856         0.0747        70.3728 
 1552.6508         9.7297       136.2602         0.0938        -0.0010        64.5497         7.3389         2.5573         8.7056        -0.8394         0.0671        70.3679 
 1552.8032         9.7780       137.3872         0.1016         0.0009        66.7788         7.2787         2.5422         8.9235        -1.0201         0.0838        70.3639 
 1552.9556         9.7820       139.2292         0.1002        -0.0034        69.6506         7.1824         2.5360         9.4210        -1.1659         0.1053        70.3602 
 1553.1080         9.7740       140.9900         0.0903        -0.0197        72.5865         7.0927         2.5407         9.7394        -1.3114         0.1273        70.3565 
 1553.2604         9.7363       143.4350         0.0834        -0.0286        75.3558         6.9718         2.5547         9.0806        -1.2989         0.1481        70.3522 
 1553.4128         9.5529       145.3066         0.0759        -0.0236        75.4320         6.8820         2.5765         8.6774        -1.1412         0.1487        70.3525 
 1553.5652         9.5656       147.2841         0.0759        -0.0185        74.5730         6.7896         2.5797         8.3053        -0.8277         0.1422        70.3592 
 1553.7176         9.6048       149.3273         0.0741        -0.0224        73.9551         6.6967         2.5804         8.1283        -0.5142         0.1376        70.3652 
 1553.8700         9.6440       150.7182         0.0684        -0.0255        74.2902         6.6349         2.5828         7.9002        -0.3565         0.1401        70.3713 
 1554.0224         9.6856       151.4211         0.0599        -0.0270        74.8964         6.6041         2.5992         7.7188        -0.5103         0.1447        70.3777 
 1554.1748         9.7075       152.1283         0.0516        -0.0286        74.9489         6.5734         2.6222         7.5983        -0.9757         0.1450        70.3836 
 1554.3272         9.7374       152.1190         0.0398        -0.0301        74.7191         6.5738         2.6358         7.5626        -1.2853         0.1433        70.3900 
 1554.4796         9.7414       149.2849         0.0341        -0.0301        74.3951         6.6986         2.6511         7.7266        -1.2837         0.1409        70.3903 
 1554.6320         9.7336       146.6964         0.0294        -0.0285        73.6845         6.8168         2.6583         7.9383        -0.9596         0.1356        70.3905 
 1554.7844         9.7185       142.8776         0.0291        -0.0277        72.9185         6.9990         2.6599         8.1808        -0.4261         0.1298        70.3903 
 1554.9368         9.7092       138.9526         0.0285        -0.0285        72.5775         7.1967         2.6607         8.4336        -0.0544         0.1273        70.3904 
 1555.0892         9.7007       134.4194         0.0278        -0.0332        72.5201         7.4394         2.6628         8.7628         0.1842         0.1268        70.3904 
 1555.2416         9.6874       130.6968         0.0225        -0.0347        72.3884         7.6513         2.6673         9.0658         0.2831         0.1259        70.3904 
 1555.3940         9.6665       126.6785         0.0203        -0.0363        72.0791         7.8940         2.6730         9.4002         0.1293         0.1235        70.3905 
 1555.5464         9.6413       122.7627         0.0220        -0.0363        69.4822         8.1458         2.6748         9.6480        -0.0579         0.1041        70.3903 
 1555.6988         9.6191       118.1461         0.0278        -0.0363        68.4427         8.4641         2.6703         9.8660        -0.3590         0.0963        70.3904 
