~VERSION INFORMATION
 VERS.                 2.0:   CWLS LOG ASCII STANDARD - VERSION 2.0
 WRAP.                  NO:   SINGLE LINE PER DEPTH STEP
~WELL INFORMATION
#MNEM.UNIT       DATA           DESCRIPTION MNEMONIC
#---------    -------------   --------------------------
 STRT.M         308.0000                      : START DEPTH
 STOP.M         2001.0116                     : STOP DEPTH
 STEP.M         0.1524                        : STEP VALUE
 NULL.          -999.0000                     : NULL VALUE
 SRVC.          PYPOZO                        : Service Company/Logging company
 DATE.          08/07/2025                    : LAS file Creation Date
 WELL    .      JANO-1                         : Well Name
 COMP    .      PYPOZO 2.0                    : Company
 FLD     .      UNKNOWN                       : Field
 LOC     .      UNKNOWN                       : Location
 LATI    .      0                             : Latitude/Northing
 LONG    .      0                             : Longitude/Easting
 APDAT   .      0                             : Elevation Above Permanent Datum
~CURVE INFORMATION
#MNEM          UNIT     API CODE   Curve Type Comments
#---------- ---------- ----------  ---------- --------
 DEPTH     .M                    : Depth      
 CALI      .IN                         : CALI       
 CILD      .MM/M                       : CILD       
 DPHI      .V/V                        : DPHI       
 DRHO      .G/C3                       : DRHO       
 DT        .US/F                       : DT         
 ILD       .OHMM                       : ILD        
 RHOB      .G/C3                       : RHOB       
 SN        .OHMM                       : SN         
 SP        .MV                         : SP         
 SPHI      .V/V                        : SPHI       
 TEMP      .DEGC                       : TEMP       
~A Log data section
# ...
  756.6656         9.2974       525.4491      -999.0000      -999.0000       106.6748         1.8258      -999.0000         2.0669       -27.0941         0.3829      -999.0000 
  756.8180         9.2376       525.4491      -999.0000      -999.0000       106.4306         1.8264      -999.0000         2.0563       -26.9106         0.3810      -999.0000 
  756.9704         9.1360       525.4491      -999.0000      -999.0000       106.0765         1.8269      -999.0000         2.0383       -26.7905         0.3784      -999.0000 
  757.1228         9.0455       525.4491      -999.0000      -999.0000       105.7881         1.8275      -999.0000         2.0251       -26.7710         0.3762      -999.0000 
  757.2752         8.9807       526.4471      -999.0000      -999.0000       105.9377         1.8280      -999.0000         1.9808       -26.6379         0.3773      -999.0000 
  757.4276         8.9447       527.4451      -999.0000      -999.0000       106.3498         1.8286      -999.0000         1.9829       -26.7934         0.3804      -999.0000 
  757.5800         8.9264       531.4371      -999.0000      -999.0000       106.9482         1.8291      -999.0000         2.0103       -27.3902         0.3849      -999.0000 
  757.7324         8.9235       534.4311      -999.0000      -999.0000       107.6950         1.8433      -999.0000         2.0410       -27.8417         0.3905      -999.0000 
  757.8848         8.9236       542.4152      -999.0000      -999.0000       108.1088         1.8603      -999.0000         2.0167       -28.2933         0.3936      -999.0000 
  758.0372         8.9237       545.4092      -999.0000      -999.0000       107.5741         1.8608      -999.0000         1.9909       -28.5940         0.3896      -999.0000 
  758.1896         8.9238       549.4012      -999.0000      -999.0000       106.7096         1.8613      -999.0000         1.9341       -28.7440         0.3831      -999.0000 
  758.3420         8.9239       552.3952      -999.0000      -999.0000       106.1606         1.8619      -999.0000         1.9056       -28.4413         0.3790      -999.0000 
  758.4944         8.9240       556.3872      -999.0000      -999.0000       105.6933         1.8625      -999.0000         1.9009       -27.9878         0.3755      -999.0000 
  758.6468         8.9240       558.3832      -999.0000      -999.0000       105.4770         1.8630      -999.0000         1.9120       -27.6852         0.3739      -999.0000 
  758.7992         8.9241       557.3852      -999.0000      -999.0000       106.1989         1.8635      -999.0000         1.9276       -27.3826         0.3793      -999.0000 
  758.9516         8.9242       554.3912      -999.0000      -999.0000       107.3802         1.8566      -999.0000         1.9108       -27.1397         0.3882      -999.0000 
  759.1040         8.9370       549.3003      -999.0000      -999.0000       108.2561         1.8347      -999.0000         1.9029       -27.0793         0.3947      -999.0000 
  759.2564         8.9401       546.4072      -999.0000      -999.0000       109.2522         1.8352      -999.0000         1.8734       -27.2348         0.4022      -999.0000 
  759.4088         8.9402       544.4112      -999.0000      -999.0000       109.9370         1.8357      -999.0000         1.8830       -27.8244         0.4073      -999.0000 
  759.5612         8.9529       544.4112      -999.0000      -999.0000       110.2390         1.8363      -999.0000         1.8982       -28.4139         0.4096      -999.0000 
  759.7136         8.9687       545.4092      -999.0000      -999.0000       110.3200         1.8368      -999.0000         1.9157       -28.7934         0.4102      -999.0000 
  759.8660         8.9718       546.4072      -999.0000      -999.0000       109.8270         1.8374      -999.0000         1.9467       -29.0357         0.4065      -999.0000 
  760.0184         8.9845       547.8502      -999.0000      -999.0000       108.5343         1.8379      -999.0000         1.9478       -28.2940         0.3968      -999.0000 
  760.1708         9.0003       548.4032      -999.0000      -999.0000       106.7825         1.8384      -999.0000         1.9208       -27.5980         0.3837      -999.0000 
  760.3232         9.0034       549.4012      -999.0000      -999.0000       105.8745         1.8390      -999.0000         1.8881       -27.3409         0.3769      -999.0000 
  760.4756         9.0035       550.3992      -999.0000      -999.0000       106.7484         1.8395      -999.0000         1.8704       -27.0710         0.3834      -999.0000 
  760.6280         9.0036       550.3992      -999.0000      -999.0000       108.2377         1.8401      -999.0000         1.8863       -27.0506         0.3946      -999.0000 
  760.7804         9.0037       549.4012      -999.0000      -999.0000       109.9137         1.8406      -999.0000         1.9040       -26.9052         0.4071      -999.0000 
  760.9328         9.0037       544.4112      -999.0000      -999.0000       111.6832         1.8412      -999.0000         1.9110       -26.6092         0.4204      -999.0000 
  761.0852         9.0038       546.4072      -999.0000      -999.0000       112.2134         1.8418      -999.0000         1.9333       -26.1624         0.4244      -999.0000 
  761.2376         9.0039       546.4072      -999.0000      -999.0000       111.5025         1.8423      -999.0000         1.9437       -26.0106         0.4191      -999.0000 
  761.3900         9.0004       547.4052      -999.0000      -999.0000       110.5690         1.8429      -999.0000         1.9351       -26.0097         0.4121      -999.0000 
  761.5424         8.9906       553.3932      -999.0000      -999.0000       110.0285         1.8434      -999.0000         1.9143       -26.1596         0.4080      -999.0000 
  761.6948         8.9759       557.3852      -999.0000      -999.0000       109.1807         1.8439      -999.0000         1.8872       -26.1586         0.4017      -999.0000 
  761.8472         8.9730       564.3713      -999.0000      -999.0000       107.5940         1.8445      -999.0000         1.8390       -26.3086         0.3898      -999.0000 
  761.9996         8.9731       567.1881      -999.0000      -999.0000       107.1504         1.8150      -999.0000         1.7742       -26.4585         0.3864      -999.0000 
  762.1520         8.9732       570.3593      -999.0000      -999.0000       108.0288         1.8004      -999.0000         1.7538       -26.4575         0.3930      -999.0000 
  762.3044         8.9606       572.3553      -999.0000      -999.0000       108.6957         1.7861      -999.0000         1.7839       -26.1549         0.3980      -999.0000 
  762.4568         8.9577       573.3533      -999.0000      -999.0000       109.2289         1.7866      -999.0000         1.8090       -25.8523         0.4020      -999.0000 
  762.6092         8.9579       573.3533      -999.0000      -999.0000       109.6986         1.7872      -999.0000         1.8313       -25.8515         0.4055      -999.0000 
  762.7616         8.9579       572.3553      -999.0000      -999.0000       110.2046         1.7878      -999.0000         1.8233       -26.0807         0.4093      -999.0000 
  762.9140         8.9580       572.0094      -999.0000      -999.0000       110.7390         1.7883      -999.0000         1.8087       -26.1514         0.4133      -999.0000 
  763.0664         8.9511       571.3573      -999.0000      -999.0000       112.6610         1.7888      -999.0000         1.8259       -26.3013         0.4277      -999.0000 
  763.2188         8.9438       571.3573      -999.0000      -999.0000       113.5303         1.7893      -999.0000         1.8340       -26.2406         0.4343      -999.0000 
  763.3712         8.9426       570.3593      -999.0000      -999.0000       114.4489         1.7900      -999.0000         1.8258       -26.1486         0.4411      -999.0000 
  763.5236         8.9427       571.3573      -999.0000      -999.0000       115.7078         1.7905      -999.0000         1.8093       -26.1476         0.4506      -999.0000 
