~VERSION INFORMATION
 VERS.                 2.0:   CWLS LOG ASCII STANDARD - VERSION 2.0
 WRAP.                  NO:   SINGLE LINE PER DEPTH STEP
~WELL INFORMATION
#MNEM.UNIT       DATA           DESCRIPTION MNEMONIC
#---------    -------------   --------------------------
 STRT.M         308.0000                      : START DEPTH
 STOP.M         2001.0116                     : STOP DEPTH
 STEP.M         0.1524                        : STEP VALUE
 NULL.          -999.0000                     : NULL VALUE
 SRVC.          PYPOZO                        : Service Company/Logging company
 DATE.          08/07/2025                    : LAS file Creation Date
 WELL    .      JANO-1                         : Well Name
 COMP    .      PYPOZO 2.0                    : Company
 FLD     .      UNKNOWN                       : Field
 LOC     .      UNKNOWN                       : Location
 LATI    .      0                             : Latitude/Northing
 LONG    .      0                             : Longitude/Easting
 APDAT   .      0                             : Elevation Above Permanent Datum
~CURVE INFORMATION
#MNEM          UNIT     API CODE   Curve Type Comments
#---------- ---------- ----------  ---------- --------
 DEPTH     .M                    : Depth      
 CALI      .IN                         : CALI       
 CILD      .MM/M                       : CILD       
 DPHI      .V/V                        : DPHI       
 DRHO      .G/C3                       : DRHO       
 DT        .US/F                       : DT         
 ILD       .OHMM                       : ILD        
 RHOB      .G/C3                       : RHOB       
 SN        .OHMM                       : SN         
 SP        .MV                         : SP         
 SPHI      .V/V                        : SPHI       
 TEMP      .DEGC                       : TEMP       
~A Log data section
# ...
 1773.1736        10.0166       121.4211         0.0581        -0.0105        68.1503         8.2358         2.6107         9.4293         0.6628         0.0941        82.7138 
 1773.3260         9.9641       116.9933         0.0629        -0.0184        68.0429         8.5475         2.6025         9.8172         0.5087         0.0933        82.6685 
 1773.4784         9.9001       113.6764         0.0504        -0.0250        68.0280         8.7969         2.6238        10.1821         0.5109         0.0932        82.6324 
 1773.6308         9.8646       111.3078         0.0353        -0.0332        68.3169         8.9841         2.6497        10.4739         0.3570         0.0953        82.6108 
 1773.7832         9.8623       108.6673         0.0250        -0.0417        69.2676         9.2024         2.6673        10.6205         0.3590         0.1025        82.5859 
 1773.9356         9.8861       105.4530         0.0265        -0.0430        70.0784         9.4829         2.6647        10.7127         0.3609         0.1085        82.5613 
 1774.0880         9.9098       103.4115         0.0404        -0.0323        70.6116         9.6701         2.6409        10.7741         0.2067         0.1125        82.5375 
 1774.2404         9.9225       102.0919         0.0558        -0.0219        71.1140         9.7951         2.6145        10.8677         0.1157         0.1163        82.5144 
 1774.3928         9.9397       100.8970         0.0706        -0.0144        71.0519         9.9111         2.5892        10.9302         0.0548         0.1158        82.4914 
 1774.5452         9.9499        99.3720         0.0802        -0.0098        70.7694        10.0632         2.5729        10.9927         0.0567         0.1137        82.4684 
 1774.6976         9.9503        97.3009         0.0823        -0.0038        70.2768        10.2774         2.5692        11.0862        -0.0972         0.1100        82.4454 
 1774.8500         9.9507        95.1891         0.0695         0.0037        69.1419        10.5054         2.5912        11.2109        -0.0953         0.1015        82.4226 
 1775.0024         9.9543        92.1209         0.0441         0.0075        66.8766        10.8553         2.6346        11.2424         0.0623         0.0845        82.4025 
 1775.1548         9.9632        91.5332         0.0352        -0.0022        64.5122        10.9250         2.6498        11.8953         0.0633         0.0668        82.3826 
 1775.3072         9.9692        88.9545         0.0344        -0.0240        64.0677        11.2417         2.6511        12.4240         0.0643         0.0635        82.3628 
 1775.4596         9.9754        87.3568         0.0418        -0.0315        64.3194        11.4473         2.6385        12.9528         0.0652         0.0654        82.3430 
 1775.6120         9.9757        86.3185         0.0487        -0.0298        64.5671        11.5850         2.6267        13.4252         0.0661         0.0672        82.3232 
 1775.7644         9.9781        85.8038         0.0539        -0.0269        64.8000        11.6545         2.6178        14.0841         0.0671         0.0690        82.3031 
 1775.9168         9.9523        85.1687         0.0554        -0.0229        64.9702        11.7414         2.6153        15.1440         0.0680         0.0702        82.2837 
 1776.0692         9.8752        84.7178         0.0519        -0.0133        65.1882        11.8039         2.6212        15.5140         0.0690         0.0719        82.2632 
 1776.2216         9.8038        84.2701         0.0451        -0.0220        65.2957        11.8666         2.6329        15.3445         0.0700         0.0727        82.2533 
 1776.3740         9.7418        83.8279         0.0326        -0.0302        65.4360        11.9292         2.6543        14.9387         0.0709         0.0737        82.2432 
 1776.5264         9.6968        83.8357         0.0248        -0.0351        65.5286        11.9281         2.6676        14.3219         0.2276         0.0744        82.2337 
 1776.6788         9.6726        84.4987         0.0180        -0.0348        65.4807        11.8345         2.6793        13.7650         0.2285         0.0741        82.2239 
 1776.8312         9.6424        86.7544         0.0143        -0.0318        65.4357        11.5268         2.6855        13.2911         0.2295         0.0737        82.2141 
 1776.9836         9.6242        89.1480         0.0134        -0.0287        65.3062        11.2173         2.6871        13.1395         0.2304         0.0728        82.2043 
 1777.1360         9.6080        91.4169         0.0139        -0.0258        65.1309        10.9389         2.6863        13.0851         0.2314         0.0714        82.1919 
 1777.2884         9.6026        92.9895         0.0152        -0.0387        64.8514        10.7539         2.6840        13.1261         0.2324         0.0694        82.1785 
 1777.4408         9.5962        93.7901         0.0161        -0.0477        64.5486        10.6621         2.6825        13.2486         0.3891         0.0671        82.1652 
 1777.5932         9.6004        92.9636         0.0165        -0.0459        64.1974        10.7569         2.6817        13.3733         0.3901         0.0644        82.1519 
 1777.7456         9.5941        92.1506         0.0170        -0.0393        63.9312        10.8518         2.6809        13.5886         0.5468         0.0625        82.1385 
 1777.8980         9.5754        91.0929         0.0181        -0.0333        63.7109        10.9778         2.6790        13.8343         0.5478         0.0608        82.1253 
 1778.0504         9.5616        90.5674         0.0202        -0.0306        63.5472        11.0415         2.6755        14.0835         0.7045         0.0596        82.1118 
 1778.2028         9.5531        89.7956         0.0253        -0.0318        63.4586        11.1364         2.6668        14.3327         0.7055         0.0589        82.0987 
 1778.3552         9.5521        89.2849         0.0319        -0.0387        63.3211        11.2001         2.6554        14.5509         0.7064         0.0579        82.0857 
 1778.5076         9.5650        88.8818         0.0344        -0.0447        63.2292        11.2509         2.6511        14.8001         0.7074         0.0572        82.0775 
 1778.6600         9.5746        88.3900         0.0322        -0.0493        63.1515        11.3135         2.6549        14.9872         0.5524         0.0566        82.0644 
 1778.8124         9.5827        88.1438         0.0285        -0.0508        63.1366        11.3451         2.6613        15.1122         0.5535         0.0565        82.0516 
 1778.9648         9.5845        87.7771         0.0253        -0.0508        63.1366        11.3925         2.6668        15.1440         0.5543         0.0565        82.0385 
 1779.1172         9.5848        87.4179         0.0212        -0.0492        63.3877        11.4393         2.6737        15.0827         0.5553         0.0584        82.0254 
 1779.2696         9.5850        87.2776         0.0182        -0.0445        63.6983        11.4577         2.6788        14.8661         0.4005         0.0607        82.0124 
 1779.4220         9.5790        87.2654         0.0183        -0.0523        64.2598        11.4593         2.6787        14.6246         0.4014         0.0649        82.0025 
 1779.5744         9.5715        87.2539         0.0228        -0.0546        65.2522        11.4608         2.6710        14.4253         0.4023         0.0724        82.0064 
 1779.7268         9.5766        87.2425         0.0274        -0.0538        65.9380        11.4623         2.6632        14.2134         0.4033         0.0775        82.0096 
 1779.8792         9.5973        87.2311         0.0278        -0.0499        66.0802        11.4638         2.6624        13.9856         0.4043         0.0786        82.0133 
 1780.0316         9.6471        86.9830         0.0242        -0.0447        66.0242        11.4965         2.6687        13.7864         0.4052         0.0781        82.0166 
