~VERSION INFORMATION
 VERS.                 2.0:   CWLS LOG ASCII STANDARD - VERSION 2.0
 WRAP.                  NO:   SINGLE LINE PER DEPTH STEP
~WELL INFORMATION
#MNEM.UNIT       DATA           DESCRIPTION MNEMONIC
#---------    -------------   --------------------------
 STRT.M         308.0000                      : START DEPTH
 STOP.M         2001.0116                     : STOP DEPTH
 STEP.M         0.1524                        : STEP VALUE
 NULL.          -999.0000                     : NULL VALUE
 SRVC.          PYPOZO                        : Service Company/Logging company
 DATE.          08/07/2025                    : LAS file Creation Date
 WELL    .      JANO-1                         : Well Name
 COMP    .      PYPOZO 2.0                    : Company
 FLD     .      UNKNOWN                       : Field
 LOC     .      UNKNOWN                       : Location
 LATI    .      0                             : Latitude/Northing
 LONG    .      0                             : Longitude/Easting
 APDAT   .      0                             : Elevation Above Permanent Datum
~CURVE INFORMATION
#MNEM          UNIT     API CODE   Curve Type Comments
#---------- ---------- ----------  ---------- --------
 DEPTH     .M                    : Depth      
 CALI      .IN                         : CALI       
 CILD      .MM/M                       : CILD       
 DPHI      .V/V                        : DPHI       
 DRHO      .G/C3                       : DRHO       
 DT        .US/F                       : DT         
 ILD       .OHMM                       : ILD        
 RHOB      .G/C3                       : RHOB       
 SN        .OHMM                       : SN         
 SP        .MV                         : SP         
 SPHI      .V/V                        : SPHI       
 TEMP      .DEGC                       : TEMP       
~A Log data section
# ...
  868.8320         8.9887       507.4850      -999.0000      -999.0000       102.3103         1.9535      -999.0000         1.9826       -26.8326         0.3502      -999.0000 
  868.9844         8.9990       521.4571      -999.0000      -999.0000       103.8487         1.9970      -999.0000         1.9664       -26.5309         0.3617      -999.0000 
  869.1368         9.0014       541.4172      -999.0000      -999.0000       106.3743         2.0420      -999.0000         1.9776       -26.2293         0.3806      -999.0000 
  869.2892         9.0017       559.3812      -999.0000      -999.0000       110.0797         2.0420      -999.0000         1.8831       -26.6817         0.4084      -999.0000 
  869.4416         9.0020       569.3613      -999.0000      -999.0000       113.2220         2.0420      -999.0000         1.8184       -27.1342         0.4319      -999.0000 
  869.5940         9.0023       578.3433      -999.0000      -999.0000       114.2568         2.0420      -999.0000         1.7506       -27.2851         0.4397      -999.0000 
  869.7464         9.0026       593.7449      -999.0000      -999.0000       114.4265         2.0120      -999.0000         1.6877       -27.2851         0.4410      -999.0000 
  869.8988         9.0155       602.5664      -999.0000      -999.0000       112.6679         1.9820      -999.0000         1.6857       -26.9079         0.4278      -999.0000 
  870.0512         9.0188       611.3880      -999.0000      -999.0000       107.1173         1.9520      -999.0000         1.7164       -26.7507         0.3862      -999.0000 
  870.2036         9.0318       618.2635      -999.0000      -999.0000       104.9556         1.9219      -999.0000         1.7407       -27.1085         0.3700      -999.0000 
  870.3560         9.0351       622.2555      -999.0000      -999.0000       106.3679         1.9052      -999.0000         1.7469       -27.2851         0.3806      -999.0000 
  870.5084         9.0354       620.2595      -999.0000      -999.0000       107.6349         1.8619      -999.0000         1.7326       -27.4359         0.3901      -999.0000 
  870.6608         9.0357       608.2834      -999.0000      -999.0000       108.9106         1.8481      -999.0000         1.6976       -27.2851         0.3996      -999.0000 
  870.8132         9.0360       601.2974      -999.0000      -999.0000       109.2896         1.8018      -999.0000         1.6882       -27.2487         0.4025      -999.0000 
  870.9656         9.0362       588.0717      -999.0000      -999.0000       109.5709         1.8018      -999.0000         1.7158       -27.1342         0.4046      -999.0000 
  871.1180         9.0365       577.3453      -999.0000      -999.0000       110.8233         1.8018      -999.0000         1.7481       -26.9834         0.4140      -999.0000 
  871.2704         9.0368       565.3693      -999.0000      -999.0000       112.1735         1.7940      -999.0000         1.7949       -26.9834         0.4241      -999.0000 
  871.4228         9.0371       559.3812      -999.0000      -999.0000       114.1214         1.7654      -999.0000         1.8577       -26.8326         0.4387      -999.0000 
  871.5752         9.0374       555.3892      -999.0000      -999.0000       114.7494         1.7417      -999.0000         1.9153       -26.8326         0.4434      -999.0000 
  871.7276         9.0305       553.3932      -999.0000      -999.0000       114.4996         1.7417      -999.0000         1.9573       -26.8326         0.4415      -999.0000 
  871.8800         9.0236       552.8523      -999.0000      -999.0000       113.4510         1.7417      -999.0000         1.9373       -26.8326         0.4337      -999.0000 
  872.0324         9.0352       554.7049      -999.0000      -999.0000       110.6831         1.7417      -999.0000         1.8977       -27.2851         0.4129      -999.0000 
  872.1848         9.0385       557.3852      -999.0000      -999.0000       107.2600         1.7417      -999.0000         1.8460       -28.4917         0.3873      -999.0000 
  872.3372         9.0493       560.3792      -999.0000      -999.0000       105.0230         1.7417      -999.0000         1.8091       -29.0950         0.3705      -999.0000 
  872.4896         9.0716       566.3673      -999.0000      -999.0000       103.2119         1.7590      -999.0000         1.8086       -29.1303         0.3569      -999.0000 
  872.6420         9.0971       566.3673      -999.0000      -999.0000       102.6907         1.7718      -999.0000         1.8334       -28.6425         0.3530      -999.0000 
  872.7944         9.0984       562.3752      -999.0000      -999.0000       102.9312         1.7736      -999.0000         1.8393       -28.1900         0.3548      -999.0000 
  872.9468         9.0856       559.9606      -999.0000      -999.0000       104.0611         1.8018      -999.0000         1.8569       -27.8884         0.3633      -999.0000 
  873.0992         9.0582       557.3852      -999.0000      -999.0000       105.6896         1.8018      -999.0000         1.8767       -27.7376         0.3755      -999.0000 
  873.2516         9.0429       551.3972      -999.0000      -999.0000       106.7435         1.8018      -999.0000         1.8991       -27.5037         0.3834      -999.0000 
  873.4040         9.0554       547.4052      -999.0000      -999.0000       107.5038         1.8018      -999.0000         1.9134       -27.4359         0.3891      -999.0000 
  873.5564         9.0698       543.4132      -999.0000      -999.0000       107.7498         1.8246      -999.0000         1.9137       -27.2851         0.3909      -999.0000 
  873.7088         9.0863       540.4192      -999.0000      -999.0000       107.6401         1.8318      -999.0000         1.8951       -27.2851         0.3901      -999.0000 
  873.8612         9.1278       535.4291      -999.0000      -999.0000       107.1603         1.8619      -999.0000         1.8732       -27.2851         0.3865      -999.0000 
  874.0136         9.1742       540.4192      -999.0000      -999.0000       106.0041         1.8619      -999.0000         1.8929       -27.1342         0.3778      -999.0000 
  874.1660         9.2085       535.4291      -999.0000      -999.0000       104.8791         1.8619      -999.0000         1.9225       -27.1342         0.3694      -999.0000 
  874.3184         9.2273       537.4251      -999.0000      -999.0000       104.2953         1.8660      -999.0000         1.9504       -26.9834         0.3650      -999.0000 
  874.4708         9.2306       541.4172      -999.0000      -999.0000       103.8299         1.8919      -999.0000         1.9757       -26.9834         0.3615      -999.0000 
  874.6232         9.1929       541.4172      -999.0000      -999.0000       103.2390         1.8919      -999.0000         1.9949       -26.9834         0.3571      -999.0000 
  874.7756         9.1463       539.7435      -999.0000      -999.0000       102.8694         1.8919      -999.0000         1.9620       -26.8326         0.3543      -999.0000 
  874.9280         9.1123       538.1717      -999.0000      -999.0000       102.8104         1.8919      -999.0000         1.9443       -26.8326         0.3539      -999.0000 
  875.0804         9.1287       536.5998      -999.0000      -999.0000       103.3130         1.8919      -999.0000         1.9127       -26.8326         0.3577      -999.0000 
  875.2328         9.1501       535.0280      -999.0000      -999.0000       103.9346         1.8919      -999.0000         1.9322       -26.6817         0.3623      -999.0000 
  875.3852         9.1415       533.4331      -999.0000      -999.0000       104.4306         1.8919      -999.0000         1.9797       -26.6821         0.3660      -999.0000 
  875.5376         9.1134       531.4371      -999.0000      -999.0000       104.7714         1.9219      -999.0000         1.9760       -26.6833         0.3686      -999.0000 
  875.6900         9.1003       530.4391      -999.0000      -999.0000       104.9569         1.9219      -999.0000         1.9491       -26.6844         0.3700      -999.0000 
