~VERSION INFORMATION
 VERS.                 2.0:   CWLS LOG ASCII STANDARD - VERSION 2.0
 WRAP.                  NO:   SINGLE LINE PER DEPTH STEP
~WELL INFORMATION
#MNEM.UNIT       DATA           DESCRIPTION MNEMONIC
#---------    -------------   --------------------------
 STRT.M         308.0000                      : START DEPTH
 STOP.M         2001.0116                     : STOP DEPTH
 STEP.M         0.1524                        : STEP VALUE
 NULL.          -999.0000                     : NULL VALUE
 SRVC.          PYPOZO                        : Service Company/Logging company
 DATE.          08/07/2025                    : LAS file Creation Date
 WELL    .      JANO-1                         : Well Name
 COMP    .      PYPOZO 2.0                    : Company
 FLD     .      UNKNOWN                       : Field
 LOC     .      UNKNOWN                       : Location
 LATI    .      0                             : Latitude/Northing
 LONG    .      0                             : Longitude/Easting
 APDAT   .      0                             : Elevation Above Permanent Datum
~CURVE INFORMATION
#MNEM          UNIT     API CODE   Curve Type Comments
#---------- ---------- ----------  ---------- --------
 DEPTH     .M                    : Depth      
 CALI      .IN                         : CALI       
 CILD      .MM/M                       : CILD       
 DPHI      .V/V                        : DPHI       
 DRHO      .G/C3                       : DRHO       
 DT        .US/F                       : DT         
 ILD       .OHMM                       : ILD        
 RHOB      .G/C3                       : RHOB       
 SN        .OHMM                       : SN         
 SP        .MV                         : SP         
 SPHI      .V/V                        : SPHI       
 TEMP      .DEGC                       : TEMP       
~A Log data section
  308.0000        10.4084         4.4910      -999.0000      -999.0000        93.8773         0.2102      -999.0000         0.2187        -0.2677         0.2869      -999.0000 
  308.1524        10.3527         7.4850      -999.0000      -999.0000        94.1430         2.3023      -999.0000         0.2982        -0.2683         0.2889      -999.0000 
  308.3048        10.3888       303.8922      -999.0000      -999.0000        94.4872         3.6566      -999.0000         3.0815        -0.2696         0.2915      -999.0000 
  308.4572        10.4297       275.3965      -999.0000      -999.0000        94.4028         4.1850      -999.0000         3.5189        -0.4614         0.2909      -999.0000 
  308.6096        10.4493       221.7542      -999.0000      -999.0000        93.9953         4.4878      -999.0000         3.9563        -1.0106         0.2878      -999.0000 
  308.7620        10.4087       168.1119      -999.0000      -999.0000        93.5285         4.6246      -999.0000         4.1551        -2.6087         0.2843      -999.0000 
  308.9144        10.1319       114.4696      -999.0000      -999.0000        93.8149         4.6547      -999.0000         4.4334        -4.3548         0.2865      -999.0000 
  309.0668         9.6791        60.8273      -999.0000      -999.0000        94.2797         4.6847      -999.0000         4.5527        -5.1038         0.2900      -999.0000 
  309.2192         9.3376         7.1850      -999.0000      -999.0000        94.5563         4.7147      -999.0000         4.7913        -5.2562         0.2920      -999.0000 
  309.3716         9.2406       -37.4251      -999.0000      -999.0000        94.6629         4.7147      -999.0000         4.8310        -5.2578         0.2928      -999.0000 
  309.5240         9.2316        81.8150      -999.0000      -999.0000        94.6120         4.7447      -999.0000         4.7913        -5.4103         0.2924      -999.0000 
  309.6764         9.2443       184.7932      -999.0000      -999.0000        92.8111         4.8102      -999.0000         4.7867        -5.5624         0.2789      -999.0000 
  309.8288         9.2852       214.6596      -999.0000      -999.0000        92.1005         5.1380      -999.0000         4.8716        -5.5639         0.2736      -999.0000 
  309.9812         9.2563       212.4252      -999.0000      -999.0000        92.7656         5.4828      -999.0000         5.0357        -5.5654         0.2786      -999.0000 
  310.1336         9.2076       207.3635      -999.0000      -999.0000        93.5472         5.4032      -999.0000         5.1793        -5.5670         0.2845      -999.0000 
  310.2860         9.1873       215.3991      -999.0000      -999.0000        94.3384         4.8902      -999.0000         5.1568        -5.5685         0.2904      -999.0000 
  310.4384         9.1958       195.4661      -999.0000      -999.0000        95.3014         4.4517      -999.0000         5.0350        -5.5700         0.2976      -999.0000 
  310.5908         9.2522       179.4193      -999.0000      -999.0000        95.2973         4.2643      -999.0000         4.9542        -5.5716         0.2976      -999.0000 
  310.7432         9.3013       177.2233      -999.0000      -999.0000        94.3332         4.4471      -999.0000         4.9164        -5.5731         0.2904      -999.0000 
  310.8956         9.3099       189.1218      -999.0000      -999.0000        93.5581         4.6246      -999.0000         5.0019        -5.5747         0.2845      -999.0000 
  311.0480         9.3076       200.0998      -999.0000      -999.0000        92.9858         4.7447      -999.0000         5.0961        -5.5763         0.2803      -999.0000 
  311.2004         9.2812       210.0798      -999.0000      -999.0000        93.0062         4.8348      -999.0000         5.1144        -5.5779         0.2804      -999.0000 
  311.3528         9.2393       217.0659      -999.0000      -999.0000        93.4744         4.8949      -999.0000         5.0580        -5.5795         0.2839      -999.0000 
  311.5052         9.1808       225.0499      -999.0000      -999.0000        94.1423         4.9249      -999.0000         4.9910        -5.5808         0.2889      -999.0000 
  311.6576         9.1311       219.0619      -999.0000      -999.0000        94.5891         4.9249      -999.0000         4.9159        -5.5823         0.2923      -999.0000 
  311.8100         9.0588       213.0739      -999.0000      -999.0000        94.8256         4.9249      -999.0000         4.9173        -5.5838         0.2940      -999.0000 
  311.9624         9.0312       209.0818      -999.0000      -999.0000        94.9221         4.9249      -999.0000         4.9843        -5.7888         0.2948      -999.0000 
  312.1148         9.0155       206.0878      -999.0000      -999.0000        94.9644         4.9249      -999.0000         5.1303        -5.9287         0.2951      -999.0000 
  312.2672         9.0252       203.0938      -999.0000      -999.0000        94.9704         4.9249      -999.0000         5.2245        -6.1917         0.2951      -999.0000 
  312.4196         9.0636       200.0998      -999.0000      -999.0000        94.9913         4.9249      -999.0000         5.1150        -6.1933         0.2953      -999.0000 
  312.5720         9.1066       201.0978      -999.0000      -999.0000        95.1353         4.9249      -999.0000         5.0361        -6.1948         0.2964      -999.0000 
  312.7244         9.1393       205.0898      -999.0000      -999.0000        95.4108         4.9249      -999.0000         4.9052        -6.1964         0.2984      -999.0000 
  312.8768         9.1518       207.0858      -999.0000      -999.0000        95.8354         4.9249      -999.0000         4.9597        -6.1980         0.3016      -999.0000 
  313.0292         9.1490       210.0798      -999.0000      -999.0000        96.8325         4.9249      -999.0000         5.0457        -6.1996         0.3091      -999.0000 
  313.1816         9.1236       211.1692      -999.0000      -999.0000        97.5605         4.9249      -999.0000         5.0563        -6.2012         0.3145      -999.0000 
  313.3340         9.1086       214.1685      -999.0000      -999.0000        97.4928         4.8949      -999.0000         5.0398        -6.2025         0.3140      -999.0000 
  313.4864         9.1228       214.1507      -999.0000      -999.0000        97.0079         4.8770      -999.0000         4.9385        -6.2040         0.3104      -999.0000 
  313.6388         9.1609       214.1186      -999.0000      -999.0000        96.0869         4.8649      -999.0000         4.9085        -6.2055         0.3035      -999.0000 
  313.7912         9.1434       211.0891      -999.0000      -999.0000        95.2021         4.8518      -999.0000         5.0173        -6.2071         0.2969      -999.0000 
  313.9436         9.1503       208.0716      -999.0000      -999.0000        93.9705         4.8348      -999.0000         5.0295        -6.2086         0.2876      -999.0000 
  314.0960         9.2546       208.0722      -999.0000      -999.0000        93.4656         4.8348      -999.0000         5.0243        -6.2101         0.2838      -999.0000 
  314.2484         9.3336       210.0864      -999.0000      -999.0000        93.6458         4.8348      -999.0000         4.9860        -6.2117         0.2852      -999.0000 
  314.4008         9.2916       211.0778      -999.0000      -999.0000        94.1297         4.8048      -999.0000         4.9818        -6.2132         0.2888      -999.0000 
  314.5532         9.2533       210.0798      -999.0000      -999.0000        94.7513         4.8048      -999.0000         4.9471        -6.2148         0.2935      -999.0000 
  314.7056         9.2473       209.0818      -999.0000      -999.0000        95.4233         4.8048      -999.0000         4.8350        -6.2164         0.2985      -999.0000 
  314.8580         9.2671       211.0778      -999.0000      -999.0000        95.8850         4.7748      -999.0000         4.7889        -6.2180         0.3020      -999.0000 
