~VERSION INFORMATION
 VERS.                 2.0:   CWLS LOG ASCII STANDARD - VERSION 2.0
 WRAP.                  NO:   SINGLE LINE PER DEPTH STEP
~WELL INFORMATION
#MNEM.UNIT       DATA           DESCRIPTION MNEMONIC
#---------    -------------   --------------------------
 STRT.M         403.0000                      : START DEPTH
 STOP.M         3050.0356                     : STOP DEPTH
 STEP.M         0.1524                        : STEP VALUE
 NULL.          -999.0000                     : NULL VALUE
 SRVC.          PYPOZO                        : Service Company/Logging company
 DATE.          03/07/2025                    : LAS file Creation Date
 WELL    .      PALMA SOLA NORTE-1             : Well Name
 COMP    .      PYPOZO 2.0                    : Company
 FLD     .      UNKNOWN                       : Field
 LOC     .      UNKNOWN                       : Location
 LATI    .      0                             : Latitude/Northing
 LONG    .      0                             : Longitude/Easting
 APDAT   .      0                             : Elevation Above Permanent Datum
~CURVE INFORMATION
#MNEM          UNIT     API CODE   Curve Type Comments
#---------- ---------- ----------  ---------- --------
 DEPTH     .M                    : Depth      
 CALI      .IN                         : CALI       
 CILD      .MM/M                       : CILD       
 DT        .US/F                       : DT         
 GR        .GAPI                       : GR         
 ILD       .OHMM                       : ILD        
 MINV      .OHMM                       : MINV       
 MNOR      .OHMM                       : MNOR       
 NEUT      .NAPI                       : NEUT       
 SN        .OHMM                       : SN         
 SP        .MV                         : SP         
 SPHI      .V/V                        : SPHI       
~A Log data section
# ...
 1111.0504      -999.0000       224.4741       110.3269        49.2304         4.6347      -999.0000      -999.0000       693.6176         3.7456       -42.9141         0.4597 
 1111.2028      -999.0000       227.0766        94.7827        49.7464         4.6144      -999.0000      -999.0000       702.9341         3.7602       -42.9267         0.3529 
 1111.3552      -999.0000       229.6790       107.4402        51.0046         4.5941      -999.0000      -999.0000       696.4320         3.7747       -42.9393         0.4398 
 1111.5076      -999.0000       232.2815        93.2203        52.3103         4.5738      -999.0000      -999.0000       686.7964         3.7893       -42.9520         0.3422 
 1111.6600      -999.0000       234.8839       107.8261        53.0478         4.5535      -999.0000      -999.0000       677.1596         3.8039       -42.9646         0.4425 
 1111.8124      -999.0000       237.4864        95.9740        53.2207         4.5332      -999.0000      -999.0000       670.7850         3.8185       -42.9773         0.3611 
 1111.9648      -999.0000       240.0888        97.1676        53.2808         4.5129      -999.0000      -999.0000       668.9853         3.8331       -42.9899         0.3693 
 1112.1172      -999.0000       240.0888        90.7952        53.6583         4.5129      -999.0000      -999.0000       667.3823         3.8331       -42.9899         0.3255 
 1112.2696      -999.0000       235.2704        86.3512        54.4980         4.5852      -999.0000      -999.0000       666.2670         3.8817       -43.0164         0.2950 
 1112.4220      -999.0000       230.4520        89.7965        55.6155         4.6574      -999.0000      -999.0000       670.0892         3.9303       -43.0428         0.3187 
 1112.5744      -999.0000       225.6336        97.6141        56.6142         4.7297      -999.0000      -999.0000       679.7188         3.9789       -43.0693         0.3723 
 1112.7268      -999.0000       220.8152        95.6036        55.9892         4.8019      -999.0000      -999.0000       689.3439         4.0275       -43.0957         0.3585 
 1112.8792      -999.0000       215.9968       114.0070        52.9579         4.8742      -999.0000      -999.0000       694.0792         4.0761       -43.1222         0.4849 
 1113.0316      -999.0000       215.9968        89.0413        50.2659         4.8742      -999.0000      -999.0000       683.7419         4.0761       -43.1222         0.3135 
 1113.1840      -999.0000       215.2794        95.6759        50.2893         4.8887      -999.0000      -999.0000       664.1055         4.0859       -43.0719         0.3590 
 1113.3364      -999.0000       214.5621       100.0216        51.1018         4.9032      -999.0000      -999.0000       642.8907         4.0957       -43.0216         0.3889 
 1113.4888      -999.0000       213.8447        87.5347        50.2620         4.9177      -999.0000      -999.0000       612.9695         4.1056       -42.9714         0.3031 
 1113.6412      -999.0000       213.1274        86.2559        48.2966         4.9321      -999.0000      -999.0000       582.0829         4.1154       -42.9211         0.2943 
 1113.7936      -999.0000       212.4101        88.4792        46.8279         4.9466      -999.0000      -999.0000       557.7599         4.1252       -42.8708         0.3096 
 1113.9460      -999.0000       211.6927       100.5396        46.7215         4.9611      -999.0000      -999.0000       541.3514         4.1351       -42.8205         0.3924 
 1114.0984      -999.0000       211.6927        91.9666        48.4191         4.9611      -999.0000      -999.0000       533.9684         4.1351       -42.8205         0.3336 
 1114.2508      -999.0000       209.3944        93.8015        51.0841         5.0057      -999.0000      -999.0000       534.1354         4.1285       -42.7986         0.3462 
 1114.4032      -999.0000       207.0961        95.5110        52.4239         5.0502      -999.0000      -999.0000       538.0790         4.1219       -42.7766         0.3579 
 1114.5556      -999.0000       204.7978       112.9148        51.9372         5.0948      -999.0000      -999.0000       544.4271         4.1154       -42.7547         0.4774 
 1114.7080      -999.0000       202.4995       127.0174        50.6236         5.1394      -999.0000      -999.0000       552.0965         4.1088       -42.7328         0.5743 
 1114.8604      -999.0000       200.2012       116.5033        49.9688         5.1839      -999.0000      -999.0000       559.8414         4.1023       -42.7109         0.5021 
 1115.0128      -999.0000       200.2012       105.9770        49.7376         5.1839      -999.0000      -999.0000       569.7354         4.1023       -42.7109         0.4298 
 1115.1652      -999.0000       203.0530        95.5701        49.0238         5.0963      -999.0000      -999.0000       582.3935         4.0045       -42.8338         0.3583 
 1115.3176      -999.0000       205.9047        90.6876        48.0183         5.0087      -999.0000      -999.0000       597.0037         3.9068       -42.9568         0.3248 
 1115.4700      -999.0000       208.7565       111.0124        47.9605         4.9210      -999.0000      -999.0000       613.8796         3.8090       -43.0798         0.4644 
 1115.6224      -999.0000       211.6082       123.5987        49.4143         4.8334      -999.0000      -999.0000       629.3498         3.7113       -43.2028         0.5508 
 1115.7748      -999.0000       214.4600       116.3286        51.5280         4.7458      -999.0000      -999.0000       635.8999         3.6136       -43.3258         0.5009 
 1115.9272      -999.0000       217.3118       107.9425        52.2557         4.6581      -999.0000      -999.0000       633.7781         3.5158       -43.4488         0.4433 
 1116.0796      -999.0000       217.3118        97.1164        50.8081         4.6581      -999.0000      -999.0000       634.6032         3.5158       -43.4488         0.3689 
 1116.2320      -999.0000       223.9826        93.0153        49.5577         4.5678      -999.0000      -999.0000       646.1034         3.4952       -43.4042         0.3408 
 1116.3844      -999.0000       230.6534        90.1727        49.9842         4.4774      -999.0000      -999.0000       671.3160         3.4746       -43.3596         0.3212 
 1116.5368      -999.0000       237.3242        89.0080        50.9830         4.3870      -999.0000      -999.0000       708.1965         3.4540       -43.3151         0.3132 
 1116.6892      -999.0000       243.9950        90.3834        52.0962         4.2966      -999.0000      -999.0000       743.8908         3.4334       -43.2705         0.3227 
 1116.8416      -999.0000       250.6658        91.6180        53.2015         4.2062      -999.0000      -999.0000       755.6249         3.4129       -43.2260         0.3312 
 1116.9940      -999.0000       257.3366        92.4727        53.2674         4.1159      -999.0000      -999.0000       743.7060         3.3923       -43.1814         0.3370 
 1117.1464      -999.0000       257.3366        93.7760        52.2509         4.1159      -999.0000      -999.0000       726.8793         3.3923       -43.1814         0.3460 
 1117.2988      -999.0000       255.9868        97.6905        51.5951         4.1429      -999.0000      -999.0000       705.7640         3.4070       -43.1392         0.3729 
 1117.4512      -999.0000       254.6370        98.6045        51.8576         4.1700      -999.0000      -999.0000       666.1705         3.4217       -43.0969         0.3792 
 1117.6036      -999.0000       253.2872        90.6392        52.6151         4.1970      -999.0000      -999.0000       614.9533         3.4364       -43.0546         0.3244 
 1117.7560      -999.0000       251.9373        89.9997        53.1697         4.2241      -999.0000      -999.0000       582.5805         3.4511       -43.0124         0.3201 
 1117.9084      -999.0000       250.5875        90.7326        52.9521         4.2512      -999.0000      -999.0000       577.5582         3.4658       -42.9701         0.3251 
