~VERSION INFORMATION
 VERS.                 2.0:   CWLS LOG ASCII STANDARD - VERSION 2.0
 WRAP.                  NO:   SINGLE LINE PER DEPTH STEP
~WELL INFORMATION
#MNEM.UNIT       DATA           DESCRIPTION MNEMONIC
#---------    -------------   --------------------------
 STRT.M         403.0000                      : START DEPTH
 STOP.M         3050.0356                     : STOP DEPTH
 STEP.M         0.1524                        : STEP VALUE
 NULL.          -999.0000                     : NULL VALUE
 SRVC.          PYPOZO                        : Service Company/Logging company
 DATE.          03/07/2025                    : LAS file Creation Date
 WELL    .      PALMA SOLA NORTE-1             : Well Name
 COMP    .      PYPOZO 2.0                    : Company
 FLD     .      UNKNOWN                       : Field
 LOC     .      UNKNOWN                       : Location
 LATI    .      0                             : Latitude/Northing
 LONG    .      0                             : Longitude/Easting
 APDAT   .      0                             : Elevation Above Permanent Datum
~CURVE INFORMATION
#MNEM          UNIT     API CODE   Curve Type Comments
#---------- ---------- ----------  ---------- --------
 DEPTH     .M                    : Depth      
 CALI      .IN                         : CALI       
 CILD      .MM/M                       : CILD       
 DT        .US/F                       : DT         
 GR        .GAPI                       : GR         
 ILD       .OHMM                       : ILD        
 MINV      .OHMM                       : MINV       
 MNOR      .OHMM                       : MNOR       
 NEUT      .NAPI                       : NEUT       
 SN        .OHMM                       : SN         
 SP        .MV                         : SP         
 SPHI      .V/V                        : SPHI       
~A Log data section
# ...
 1812.0904         8.8882        72.4857        81.2295        13.1636        13.8813        20.4112        19.7015       966.8454        12.1341       -47.9780         0.1671 
 1812.2428         8.9457       105.6325        83.5734        12.6924        11.9496        20.4112        19.8261       980.8622        11.1793       -47.2104         0.1708 
 1812.3952         8.9992       138.7793        84.4161        13.1343        10.0178        20.4112        10.0356      1021.0549        10.2244       -46.4427         0.0405 
 1812.5476         9.0263       171.9262        84.7369        13.9392         8.0860        16.0770        20.6667      1067.3828         9.2695       -45.6751         0.0705 
 1812.7000         8.9474       205.0730        83.4481        14.7562         6.1543        20.4112        20.2195      1113.7146         8.3147       -44.9075         0.1561 
 1812.8524         8.9194       238.2198        81.6677        15.5729         4.2225        20.4112        20.3190      1160.0374         7.3598       -44.1398         0.2259 
 1813.0048         8.9256       238.2198        78.6290        16.3898         4.2225        12.8586        20.3912      1206.3726         7.3598       -44.1398         0.1862 
 1813.1572         8.9472       227.6263        78.6532        17.1039         4.4824        17.9539         7.5125      1247.8562         7.8477       -44.0015         0.1632 
 1813.3096         8.9651       217.0327        77.2642        17.0292         4.7423        20.4112        20.3912      1266.6428         8.3356       -43.8632         0.1300 
 1813.4620         8.9442       206.4391        75.9840        15.7849         5.0023        20.4112        20.3912      1256.6161         8.8234       -43.7249         0.2246 
 1813.6144         8.9578       195.8455        83.2111        14.2987         5.2622        20.4112         8.1094      1237.1582         9.3113       -43.5867         0.2372 
 1813.7668         9.0007       185.2519        86.3427        13.6919         5.5221         9.8927        13.0131      1217.6985         9.7992       -43.4484         0.2174 
 1813.9192         9.0255       174.6583        80.8258        14.2525         5.7820        14.7964        20.3912      1198.2405        10.2871       -43.3101         0.1302 
 1814.0716         9.0074       174.6583        81.9265        15.2048         5.7820        20.4112        20.3912      1178.7808        10.2871       -43.3101         0.1437 
 1814.2240         8.9849       168.0552        83.0943        16.1217         6.0536        20.4112        20.3912      1159.3229        10.1345       -43.4157         0.1950 
 1814.3764         9.0004       161.4521        83.4316        16.9021         6.3252        13.1852         1.1936      1139.8412         9.9819       -43.5213         0.2718 
 1814.5288         9.1010       154.8491        82.2431        17.5873         6.5968        17.9177         7.7092      1124.7129         9.8293       -43.6269         0.2574 
 1814.6812         9.1416       148.2460        79.9566        18.0940         6.8684        20.4112        20.3912      1122.4138         9.6768       -43.7325         0.2798 
 1814.8336         9.0627       141.6429        76.9901        17.7013         7.1400        15.6848        20.3912      1141.8221         9.5242       -43.8381         0.2559 
 1814.9860         9.0227       135.0398        73.3761        16.2309         7.4116        20.4112        20.3912      1182.9454         9.3716       -43.9437         0.2175 
 1815.1384         9.0008       135.0398        74.8137        14.4212         7.4116        20.4112        20.3912      1204.1183         9.3716       -43.9437         0.1983 
 1815.2908         9.0380       137.4354        76.2002        12.9667         7.2898        20.4112        20.3912      1175.5712         9.4019       -43.7360         0.1773 
 1815.4432         8.9571       139.8310        77.3315        12.5024         7.1680        20.4112         6.9128      1128.6699         9.4323       -43.5282         0.1947 
 1815.5956         8.9676       142.2265        78.8490        12.9038         7.0462        10.0802        10.5015      1081.7725         9.4626       -43.3205         0.2108 
 1815.7480         8.9290       144.6221        79.6931        13.3992         6.9244        10.6620        11.0832      1045.2336         9.4929       -43.1128         0.1331 
 1815.9004         8.8771       147.0176        78.3362        13.5454         6.8026        11.1033        11.1234      1047.6846         9.5233       -42.9051         0.2176 
 1816.0528         8.9525       147.0176        77.2009        13.5248         6.8026        12.8108        17.4423      1093.9432         9.5233       -42.9051         0.2130 
 1816.2052         9.0161       143.1733        78.3057        13.6875         7.0232        17.4824        12.8686      1153.7710        10.6299       -43.4119         0.1976 
 1816.3576         9.0228       139.3289        79.0770        13.6526         7.2437        12.9488        12.9288      1213.6038        11.7365       -43.9188         0.1807 
 1816.5100         9.0357       135.4845        77.4493        12.8022         7.4642        13.0090        15.0824      1273.4315        12.8431       -44.4256         0.1570 
 1816.6624         9.1451       131.6402        76.5873        12.0164         7.6848        13.3501        18.3450      1335.7443        13.9498       -44.9325         0.1729 
 1816.8148         9.2560       127.7958        77.7087        12.4800         7.9053        18.3651         2.4774      1370.1855        15.0564       -45.4393         0.2198 
 1816.9672         9.2936       123.9515        77.3843        13.7636         8.1259         2.5057         4.4835      1343.3163        16.1630       -45.9462         0.2048 
 1817.1196         9.3165       123.9515        77.5335        15.1934         8.1259         4.5035         5.0853      1289.6715        16.1630       -45.9462         0.1996 
 1817.2720         9.1409       112.1986        77.0665        16.1403         9.5846         5.8074         6.3701      1234.4460        17.0505       -46.7300         0.1781 
 1817.4244         9.1502       100.4458        78.0658        16.1161        11.0433         7.8536         7.8736      1179.2159        17.9379       -47.5139         0.2446 
 1817.5768         9.1347        88.6930        77.6335        16.6307        12.5020         7.5727         0.9328      1123.9907        18.8254       -48.2977         0.2392 
 1817.7292         9.2400        76.9401        74.8588        19.0799        13.9607         0.6118         0.9930      1078.3187        19.7129       -49.0816         0.2140 
 1817.8816         9.1914        65.1873        72.6513        22.4354        15.4194         1.0130         1.5547      1067.6000        20.6004       -49.8654         0.2207 
 1818.0340         9.1359        65.1873        73.6724        24.2589        15.4194         1.6349         7.0607      1095.3982        20.6004       -49.8654         0.1821 
 1818.1864         9.1025        63.1928        75.0874        24.6404        15.9828         8.7931        17.1682      1135.0137        21.1157       -50.0996         0.1497 
 1818.3388         9.1216        61.1982        75.8479        24.6364        16.5463        20.3912        20.3711      1169.4427        21.6310       -50.3337         0.1135 
 1818.4912         9.1694        59.2037        72.3811        21.3636        17.1098        20.3912        15.2076      1191.7997        22.1463       -50.5679         0.1377 
 1818.6436         9.1173        57.2091        72.0138        16.0909        17.6732        20.3912        19.2678      1205.5305        22.6616       -50.8020         0.1979 
 1818.7960         9.0156        55.2146        70.8740        15.9091        18.2367        19.2879        18.9997      1217.6998        23.1769       -51.0362         0.1706 
 1818.9484         9.0933        53.2201        70.0995        12.1296        18.8002        19.1474        19.2888      1230.8543        23.6922       -51.2703         0.1399 
