~VERSION INFORMATION
 VERS.                 2.0:   CWLS LOG ASCII STANDARD - VERSION 2.0
 WRAP.                  NO:   SINGLE LINE PER DEPTH STEP
~WELL INFORMATION
#MNEM.UNIT       DATA           DESCRIPTION MNEMONIC
#---------    -------------   --------------------------
 STRT.M         403.0000                      : START DEPTH
 STOP.M         3050.0356                     : STOP DEPTH
 STEP.M         0.1524                        : STEP VALUE
 NULL.          -999.0000                     : NULL VALUE
 SRVC.          PYPOZO                        : Service Company/Logging company
 DATE.          03/07/2025                    : LAS file Creation Date
 WELL    .      PALMA SOLA NORTE-1             : Well Name
 COMP    .      PYPOZO 2.0                    : Company
 FLD     .      UNKNOWN                       : Field
 LOC     .      UNKNOWN                       : Location
 LATI    .      0                             : Latitude/Northing
 LONG    .      0                             : Longitude/Easting
 APDAT   .      0                             : Elevation Above Permanent Datum
~CURVE INFORMATION
#MNEM          UNIT     API CODE   Curve Type Comments
#---------- ---------- ----------  ---------- --------
 DEPTH     .M                    : Depth      
 CALI      .IN                         : CALI       
 CILD      .MM/M                       : CILD       
 DT        .US/F                       : DT         
 GR        .GAPI                       : GR         
 ILD       .OHMM                       : ILD        
 MINV      .OHMM                       : MINV       
 MNOR      .OHMM                       : MNOR       
 NEUT      .NAPI                       : NEUT       
 SN        .OHMM                       : SN         
 SP        .MV                         : SP         
 SPHI      .V/V                        : SPHI       
~A Log data section
# ...
 1461.5704      -999.0000       307.3688        93.8695        53.1591         3.3593      -999.0000      -999.0000       588.4270         3.4544       -38.2904         0.3466 
 1461.7228      -999.0000       312.4691        91.2536        52.7818         3.2968      -999.0000      -999.0000       577.1332         3.3812       -38.3195         0.3287 
 1461.8752      -999.0000       317.5694        89.4622        52.8361         3.2344      -999.0000      -999.0000       571.0049         3.3081       -38.3487         0.3164 
 1462.0276      -999.0000       317.5694        87.9159        52.7128         3.2344      -999.0000      -999.0000       571.3161         3.3081       -38.3487         0.3057 
 1462.1800      -999.0000       321.8176        85.1397        52.1588         3.2073      -999.0000      -999.0000       576.7317         3.3243       -38.3650         0.2867 
 1462.3324      -999.0000       326.0658        86.9923        51.6495         3.1802      -999.0000      -999.0000       586.0239         3.3405       -38.3813         0.2994 
 1462.4848      -999.0000       330.3139        90.6533        51.7852         3.1532      -999.0000      -999.0000       598.3443         3.3567       -38.3976         0.3245 
 1462.6372      -999.0000       334.5621        93.3657        52.5852         3.1261      -999.0000      -999.0000       602.8963         3.3728       -38.4139         0.3432 
 1462.7896      -999.0000       338.8102        92.9372        53.2834         3.0990      -999.0000      -999.0000       590.6073         3.3890       -38.4302         0.3402 
 1462.9420      -999.0000       343.0584        93.0792        53.4108         3.0720      -999.0000      -999.0000       569.6984         3.4052       -38.4465         0.3412 
 1463.0944      -999.0000       343.0584        92.9949        52.8207         3.0720      -999.0000      -999.0000       548.7410         3.4052       -38.4465         0.3406 
 1463.2468      -999.0000       337.5038        90.6796        51.4192         3.1192      -999.0000      -999.0000       534.4026         3.4394       -38.5672         0.3247 
 1463.3992      -999.0000       331.9492        87.7970        49.7015         3.1665      -999.0000      -999.0000       534.3628         3.4736       -38.6879         0.3049 
 1463.5516      -999.0000       326.3946        87.9286        48.3089         3.2138      -999.0000      -999.0000       553.1393         3.5078       -38.8086         0.3058 
 1463.7040      -999.0000       320.8400        90.8820        47.7062         3.2611      -999.0000      -999.0000       581.9507         3.5420       -38.9294         0.3261 
 1463.8564      -999.0000       315.2855        89.5068        47.7026         3.3083      -999.0000      -999.0000       610.3990         3.5762       -39.0501         0.3167 
 1464.0088      -999.0000       315.2855        88.3667        48.2662         3.3083      -999.0000      -999.0000       645.5642         3.5762       -39.0501         0.3088 
 1464.1612      -999.0000       315.1261        89.5369        49.3017         3.3111      -999.0000      -999.0000       678.4591         3.5707       -38.9649         0.3169 
 1464.3136      -999.0000       314.9668        89.7597        50.2936         3.3139      -999.0000      -999.0000       697.0133         3.5652       -38.8797         0.3184 
 1464.4660      -999.0000       314.8075        88.9107        50.8053         3.3167      -999.0000      -999.0000       707.6386         3.5598       -38.7945         0.3126 
 1464.6184      -999.0000       314.6482        89.5239        50.8732         3.3195      -999.0000      -999.0000       713.5328         3.5543       -38.7093         0.3168 
 1464.7708      -999.0000       314.4888        91.1994        50.7379         3.3222      -999.0000      -999.0000       710.6316         3.5488       -38.6241         0.3283 
 1464.9232      -999.0000       314.3295        90.8646        51.1380         3.3250      -999.0000      -999.0000       678.1325         3.5433       -38.5389         0.3260 
 1465.0756      -999.0000       314.3295        93.5507        52.1698         3.3250      -999.0000      -999.0000       609.2468         3.5433       -38.5389         0.3444 
 1465.2280      -999.0000       311.3528        93.7316        52.3620         3.3576      -999.0000      -999.0000       539.6054         3.5367       -38.4797         0.3457 
 1465.3804      -999.0000       308.3760        87.8636        51.2871         3.3901      -999.0000      -999.0000       492.9775         3.5301       -38.4204         0.3054 
 1465.5328      -999.0000       305.3993        86.6736        49.4254         3.4227      -999.0000      -999.0000       468.3342         3.5235       -38.3612         0.2972 
 1465.6852      -999.0000       302.4226        86.7130        47.6226         3.4552      -999.0000      -999.0000       455.8350         3.5169       -38.3019         0.2975 
 1465.8376      -999.0000       299.4458        86.1858        46.8223         3.4877      -999.0000      -999.0000       463.6479         3.5104       -38.2427         0.2939 
 1465.9900      -999.0000       296.4691        88.4144        46.6304         3.5203      -999.0000      -999.0000       492.7994         3.5038       -38.1834         0.3092 
 1466.1424      -999.0000       296.4691        87.4456        46.2520         3.5203      -999.0000      -999.0000       514.4008         3.5038       -38.1834         0.3025 
 1466.2948      -999.0000       299.7644        88.3798        46.0180         3.4779      -999.0000      -999.0000       523.9470         3.4929       -38.3864         0.3089 
 1466.4472      -999.0000       303.0597        86.0145        46.1008         3.4356      -999.0000      -999.0000       529.6895         3.4820       -38.5893         0.2927 
 1466.5996      -999.0000       306.3551        84.5213        46.3854         3.3932      -999.0000      -999.0000       533.5154         3.4711       -38.7923         0.2824 
 1466.7520      -999.0000       309.6504        81.7372        46.6478         3.3509      -999.0000      -999.0000       535.3634         3.4602       -38.9953         0.2633 
 1466.9044      -999.0000       312.9457        80.6694        46.3810         3.3085      -999.0000      -999.0000       528.4329         3.4494       -39.1982         0.2560 
 1467.0568      -999.0000       312.9457        79.9936        45.7718         3.3085      -999.0000      -999.0000       509.0950         3.4494       -39.1982         0.2513 
 1467.2092      -999.0000       309.9063        86.0672        46.3137         3.3387      -999.0000      -999.0000       490.6651         3.4990       -39.0729         0.2930 
 1467.3616      -999.0000       306.8668        93.3690        48.2326         3.3688      -999.0000      -999.0000       479.8102         3.5486       -38.9477         0.3432 
 1467.5140      -999.0000       303.8274        97.5801        49.6360         3.3989      -999.0000      -999.0000       476.3988         3.5983       -38.8224         0.3721 
 1467.6664      -999.0000       300.7880        96.3450        49.9999         3.4290      -999.0000      -999.0000       482.3542         3.6479       -38.6971         0.3636 
 1467.8188      -999.0000       297.7485        97.6824        50.0223         3.4591      -999.0000      -999.0000       498.8173         3.6975       -38.5718         0.3728 
 1467.9712      -999.0000       294.7091        95.3766        50.0203         3.4892      -999.0000      -999.0000       522.1458         3.7472       -38.4465         0.3570 
 1468.1236      -999.0000       294.7091        93.1129        50.0183         3.4892      -999.0000      -999.0000       543.2408         3.7472       -38.4465         0.3414 
 1468.2760      -999.0000       296.6373        88.6029        50.0704         3.4679      -999.0000      -999.0000       559.1131         3.6419       -38.4497         0.3105 
 1468.4284      -999.0000       298.5655        85.2137        50.2166         3.4467      -999.0000      -999.0000       568.8426         3.5366       -38.4530         0.2872 
