~VERSION INFORMATION
 VERS.                 2.0:   CWLS LOG ASCII STANDARD - VERSION 2.0
 WRAP.                  NO:   SINGLE LINE PER DEPTH STEP
~WELL INFORMATION
#MNEM.UNIT       DATA           DESCRIPTION MNEMONIC
#---------    -------------   --------------------------
 STRT.M         403.0000                      : START DEPTH
 STOP.M         3050.0356                     : STOP DEPTH
 STEP.M         0.1524                        : STEP VALUE
 NULL.          -999.0000                     : NULL VALUE
 SRVC.          PYPOZO                        : Service Company/Logging company
 DATE.          03/07/2025                    : LAS file Creation Date
 WELL    .      PALMA SOLA NORTE-1             : Well Name
 COMP    .      PYPOZO 2.0                    : Company
 FLD     .      UNKNOWN                       : Field
 LOC     .      UNKNOWN                       : Location
 LATI    .      0                             : Latitude/Northing
 LONG    .      0                             : Longitude/Easting
 APDAT   .      0                             : Elevation Above Permanent Datum
~CURVE INFORMATION
#MNEM          UNIT     API CODE   Curve Type Comments
#---------- ---------- ----------  ---------- --------
 DEPTH     .M                    : Depth      
 CALI      .IN                         : CALI       
 CILD      .MM/M                       : CILD       
 DT        .US/F                       : DT         
 GR        .GAPI                       : GR         
 ILD       .OHMM                       : ILD        
 MINV      .OHMM                       : MINV       
 MNOR      .OHMM                       : MNOR       
 NEUT      .NAPI                       : NEUT       
 SN        .OHMM                       : SN         
 SP        .MV                         : SP         
 SPHI      .V/V                        : SPHI       
~A Log data section
# ...
  578.2600      -999.0000       466.2257       121.0380        57.4216         2.3122      -999.0000      -999.0000       396.2686         2.1350       -42.2607         0.5332 
  578.4124      -999.0000       470.8158       132.5618        55.6809         2.2869      -999.0000      -999.0000       393.8233         2.0890       -42.1902         0.6124 
  578.5648      -999.0000       475.4060       118.7386        54.2668         2.2616      -999.0000      -999.0000       400.0348         2.0430       -42.1197         0.5174 
  578.7172      -999.0000       479.9962       118.3210        54.0852         2.2364      -999.0000      -999.0000       412.1547         1.9970       -42.0491         0.5146 
  578.8696      -999.0000       484.5863       118.3839        55.0148         2.2111      -999.0000      -999.0000       423.2734         1.9510       -41.9786         0.5150 
  579.0220      -999.0000       484.5863       119.9544        56.9838         2.2111      -999.0000      -999.0000       424.0885         1.9510       -41.9786         0.5258 
  579.1744      -999.0000       495.2649       121.1113        59.0378         2.1540      -999.0000      -999.0000       416.7800         1.9507       -41.6892         0.5337 
  579.3268      -999.0000       505.9435       122.4329        59.3295         2.0969      -999.0000      -999.0000       409.8965         1.9504       -41.3998         0.5428 
  579.4792      -999.0000       516.6221       123.1637        58.5657         2.0398      -999.0000      -999.0000       404.0295         1.9502       -41.1104         0.5478 
  579.6316      -999.0000       527.3007       122.9845        58.5515         1.9827      -999.0000      -999.0000       402.1488         1.9499       -40.8210         0.5466 
  579.7840      -999.0000       537.9793       118.8840        59.3448         1.9256      -999.0000      -999.0000       417.0066         1.9496       -40.5317         0.5184 
  579.9364      -999.0000       548.6579       116.2988        60.4272         1.8685      -999.0000      -999.0000       454.8113         1.9494       -40.2423         0.5007 
  580.0888      -999.0000       548.6579       114.5300        61.4957         1.8685      -999.0000      -999.0000       486.1660         1.9494       -40.2423         0.4885 
  580.2412      -999.0000       541.3187       112.7530        62.2865         1.9183      -999.0000      -999.0000       489.1307         1.9685       -40.6166         0.4763 
  580.3936      -999.0000       533.9795       112.1853        62.1562         1.9681      -999.0000      -999.0000       480.3843         1.9876       -40.9908         0.4724 
  580.5460      -999.0000       526.6403       114.9030        60.6079         2.0180      -999.0000      -999.0000       473.0476         2.0066       -41.3651         0.4911 
  580.6984      -999.0000       519.3011       117.7394        58.9013         2.0678      -999.0000      -999.0000       468.2234         2.0257       -41.7394         0.5106 
  580.8508      -999.0000       511.9618       122.8336        58.5328         2.1176      -999.0000      -999.0000       464.7514         2.0448       -42.1137         0.5456 
  581.0032      -999.0000       511.9618       132.4928        59.3577         2.1176      -999.0000      -999.0000       462.7736         2.0448       -42.1137         0.6119 
  581.1556      -999.0000       508.3258       125.2140        61.0226         2.1349      -999.0000      -999.0000       462.2654         2.0393       -42.0372         0.5619 
  581.3080      -999.0000       504.6897       122.1617        62.0095         2.1522      -999.0000      -999.0000       462.4220         2.0337       -41.9607         0.5409 
  581.4604      -999.0000       501.0537       123.6383        61.3172         2.1695      -999.0000      -999.0000       462.5140         2.0282       -41.8842         0.5511 
  581.6128      -999.0000       497.4177       124.3659        60.1059         2.1868      -999.0000      -999.0000       462.5140         2.0227       -41.8077         0.5561 
  581.7652      -999.0000       493.7816       123.6325        58.9440         2.2041      -999.0000      -999.0000       457.8511         2.0171       -41.7312         0.5510 
  581.9176      -999.0000       490.1456       123.4134        57.7820         2.2214      -999.0000      -999.0000       438.2886         2.0116       -41.6547         0.5495 
  582.0700      -999.0000       490.1456       123.9719        56.8811         2.2214      -999.0000      -999.0000       413.0035         2.0116       -41.6547         0.5534 
  582.2224      -999.0000       494.9601       123.8667        56.7116         2.1964      -999.0000      -999.0000       404.6736         2.0080       -41.6788         0.5527 
  582.3748      -999.0000       499.7747       125.1523        56.9894         2.1715      -999.0000      -999.0000       410.3626         2.0043       -41.7030         0.5615 
  582.5272      -999.0000       504.5892       125.2389        56.6936         2.1465      -999.0000      -999.0000       418.4905         2.0007       -41.7271         0.5621 
  582.6796      -999.0000       509.4038       123.7633        55.6052         2.1215      -999.0000      -999.0000       429.8653         1.9971       -41.7513         0.5519 
  582.8320      -999.0000       514.2183       124.2945        54.5599         2.0966      -999.0000      -999.0000       446.8227         1.9935       -41.7754         0.5556 
  582.9844      -999.0000       519.0328       123.7793        54.6133         2.0716      -999.0000      -999.0000       463.3146         1.9899       -41.7996         0.5521 
  583.1368      -999.0000       519.0328       122.4843        55.9114         2.0716      -999.0000      -999.0000       474.8311         1.9899       -41.7996         0.5432 
  583.2892      -999.0000       512.7864       122.5797        56.5682         2.1016      -999.0000      -999.0000       481.2513         2.0103       -41.9017         0.5438 
  583.4416      -999.0000       506.5400       121.9219        55.8089         2.1316      -999.0000      -999.0000       485.3996         2.0307       -42.0039         0.5393 
  583.5940      -999.0000       500.2937       123.4446        55.4187         2.1616      -999.0000      -999.0000       488.0677         2.0511       -42.1061         0.5498 
  583.7464      -999.0000       494.0473       127.1586        56.5108         2.1916      -999.0000      -999.0000       488.7702         2.0715       -42.2083         0.5753 
  583.8988      -999.0000       487.8009       132.5468        59.1810         2.2216      -999.0000      -999.0000       488.7358         2.0919       -42.3105         0.6123 
  584.0512      -999.0000       487.8009       142.0236        62.6086         2.2216      -999.0000      -999.0000       487.5582         2.0919       -42.3105         0.6774 
  584.2036      -999.0000       484.1330       138.6333        64.1666         2.2361      -999.0000      -999.0000       484.3326         2.0922       -42.2612         0.6541 
  584.3560      -999.0000       480.4651       123.5654        63.0063         2.2507      -999.0000      -999.0000       479.1979         2.0924       -42.2119         0.5506 
  584.5084      -999.0000       476.7972       121.2497        60.9928         2.2653      -999.0000      -999.0000       473.6149         2.0927       -42.1626         0.5347 
  584.6608      -999.0000       473.1293       123.2176        58.9904         2.2799      -999.0000      -999.0000       468.7151         2.0929       -42.1133         0.5482 
  584.8132      -999.0000       469.4614       122.6680        56.3210         2.2945      -999.0000      -999.0000       457.8419         2.0931       -42.0640         0.5444 
  584.9656      -999.0000       465.7935       122.7787        52.7330         2.3091      -999.0000      -999.0000       435.5367         2.0934       -42.0147         0.5452 
  585.1180      -999.0000       465.7935       124.7731        50.1183         2.3091      -999.0000      -999.0000       413.1259         2.0934       -42.0147         0.5589 
