~VERSION INFORMATION
 VERS.                 2.0:   CWLS LOG ASCII STANDARD - VERSION 2.0
 WRAP.                  NO:   SINGLE LINE PER DEPTH STEP
~WELL INFORMATION
#MNEM.UNIT       DATA           DESCRIPTION MNEMONIC
#---------    -------------   --------------------------
 STRT.M         403.0000                      : START DEPTH
 STOP.M         3050.0356                     : STOP DEPTH
 STEP.M         0.1524                        : STEP VALUE
 NULL.          -999.0000                     : NULL VALUE
 SRVC.          PYPOZO                        : Service Company/Logging company
 DATE.          03/07/2025                    : LAS file Creation Date
 WELL    .      PALMA SOLA NORTE-1             : Well Name
 COMP    .      PYPOZO 2.0                    : Company
 FLD     .      UNKNOWN                       : Field
 LOC     .      UNKNOWN                       : Location
 LATI    .      0                             : Latitude/Northing
 LONG    .      0                             : Longitude/Easting
 APDAT   .      0                             : Elevation Above Permanent Datum
~CURVE INFORMATION
#MNEM          UNIT     API CODE   Curve Type Comments
#---------- ---------- ----------  ---------- --------
 DEPTH     .M                    : Depth      
 CALI      .IN                         : CALI       
 CILD      .MM/M                       : CILD       
 DT        .US/F                       : DT         
 GR        .GAPI                       : GR         
 ILD       .OHMM                       : ILD        
 MINV      .OHMM                       : MINV       
 MNOR      .OHMM                       : MNOR       
 NEUT      .NAPI                       : NEUT       
 SN        .OHMM                       : SN         
 SP        .MV                         : SP         
 SPHI      .V/V                        : SPHI       
~A Log data section
# ...
 2162.6104        10.0838         3.3465        66.2934        10.8833       305.0363         3.0191         2.7382      1949.6198        76.8688       -32.7598         0.1176 
 2162.7628        10.4916         3.1819        65.3056        10.8182       318.5857         2.6164         1.9358      2006.9654        75.7627       -32.7307         0.1033 
 2162.9152        10.8962         3.0173        64.2219        10.2727       332.1352         1.9759         1.9358      2064.3418        74.6566       -32.7015         0.0382 
 2163.0676        10.9393         3.0173        64.2391         9.5455       332.1352         1.1936         1.1735      2095.0764        74.6566       -32.7015         0.0141 
 2163.2200        10.8724         3.0036        66.3755         9.4352       333.8092         1.3741         1.1735      2068.8127        73.5998       -32.8231         0.0187 
 2163.3724        10.6876         2.9899        65.8747         9.3636       335.4832         1.1936         3.7050      2010.7455        72.5430       -32.9447        -0.0307 
 2163.5248        10.1867         2.9762        64.3632         9.3636       337.1572         3.3801         5.9278      1947.7679        71.4862       -33.0662        -0.0476 
 2163.6772        10.0902         2.9624        63.9624         9.4745       338.8312         2.8185         3.2559      1884.7142        70.4294       -33.1878        -0.0534 
 2163.8296        10.0747         2.9487        64.6893         9.7914       340.5052         3.7412         3.7212      1821.6254        69.3726       -33.3094         0.0644 
 2163.9820        10.1634         2.9350        66.1481        10.5847       342.1792         2.5248         1.5547      1797.9908        68.3158       -33.4309         0.0568 
 2164.1344        10.3329         2.9350        66.1370        12.2727       342.1792         1.5747         2.3990      1891.7745        68.3158       -33.4309         0.0544 
 2164.2868        10.1854         3.0432        65.3623        13.0167       331.4561         2.7382         2.6780      2081.8076        67.4979       -33.3636         0.0523 
 2164.4392         9.8829         3.1515        64.4495        13.6261       320.7329         2.6981         2.6379      2239.3872        66.6800       -33.2963         0.1059 
 2164.5916         9.5176         3.2597        63.3544        13.2633       310.0097         3.8415         6.0481      2315.8528        65.8620       -33.2289         0.1002 
 2164.7440         9.3675         3.3679        62.8681        11.8737       299.2865         3.7813         3.6209      2354.3752        65.0441       -33.1616         0.0914 
 2164.8964         9.3197         3.4761        63.9094        10.3622       288.5634         3.5228         3.5005      2364.6360        64.2261       -33.0943         0.0571 
 2165.0488         9.4625         3.4761        64.1720         9.9091       288.5634         3.6418         3.6209      2332.4094        64.2261       -33.0943        -0.0065 
 2165.2012         9.6178         4.3722        67.3816        10.6364       259.3168         2.7374         3.6409      2246.3552        62.1002       -32.6877        -0.0313 
 2165.3536         9.8522         5.2682        65.2805        11.5455       230.0702         1.2349         3.9207      2129.1282        59.9742       -32.2811        -0.0415 
 2165.5060         9.7993         6.1643        64.1123        11.8768       200.8237         1.5675         4.2828      2020.5468        57.8482       -31.8746         0.0470 
 2165.6584         9.6652         7.0604        68.5723        12.0909       171.5771         2.1818         4.7242      1941.8522        55.7222       -31.4680         0.0629 
 2165.8108         9.6529         7.9564        71.0444        11.9919       142.3305         1.5359         1.4544      1892.8385        53.5962       -31.0614         0.0124 
 2165.9632         9.3280         8.8525        68.0953        11.9091       113.0839         3.8495         7.1505      1874.9625        51.4703       -30.6549        -0.0215 
 2166.1156         9.1224         8.8525        66.8908        12.1558       113.0839         7.9325         9.9176      1864.4060        51.4703       -30.6549         0.1147 
 2166.2680         9.1256         9.1172        66.5387        11.8663       110.1364        10.1007        10.7760      1827.8085        51.2443       -30.5876         0.1008 
 2166.4204         9.1220         9.3818        70.5547        10.4545       107.1888        10.9591        11.6650      1741.5637        51.0184       -30.5203         0.1009 
 2166.5728         9.1060         9.6465        70.2924         9.9219       104.2413        11.6851         6.2086      1640.2406        50.7925       -30.4531         0.0882 
 2166.7252         9.0541         9.9112        68.4525         9.3024       101.2937         6.2287         7.2615      1591.5272        50.5665       -30.3858         0.0797 
 2166.8776         8.9608        10.1759        70.8968         8.8137        98.3461         7.8624        10.3560      1602.9148        50.3406       -30.3185         0.1351 
 2167.0300         8.8430        10.1759        70.7021         8.5311        98.3461        11.1836         8.5545      1649.4526        50.3406       -30.3185         0.1365 
 2167.1824         8.8948        13.2877        74.0833         8.8069        87.7368         5.4891         5.3260      1700.5341        50.4306       -30.3618         0.1498 
 2167.3348         8.9346        16.3996        71.7379         9.3888        77.1275         6.2354         9.0876      1732.9585        50.5205       -30.4051         0.0667 
 2167.4872         8.9778        19.5114        70.3681        10.0909        66.5182         9.7727        12.2267      1747.2321        50.6104       -30.4483         0.0570 
 2167.6396         8.9427        22.6233        69.8227        10.6364        55.9089        12.2003        11.7537      1775.8029        50.7004       -30.4916        -0.0227 
 2167.7920         8.8910        25.7351        62.2244        11.1898        45.2996        11.3307        17.0481      1836.0081        50.7903       -30.5349        -0.0679 
 2167.9444         8.8621        28.8470        67.5131        11.8073        34.6903        16.2309         5.1484      1911.7707        50.8803       -30.5781        -0.0328 
 2168.0968         8.8892        28.8470        76.0329        12.2897        34.6903         6.2729         8.8958      1989.8023        50.8803       -30.5781         0.1865 
 2168.2492         8.9497        25.4888        70.4764        12.5661        31.3075         9.9260        12.6433      2064.9031        50.4840       -30.4308         0.0995 
 2168.4016         8.9149        22.1307        63.3604        12.7601        27.9248        13.5289        16.3791      2093.2412        50.0877       -30.2834         0.0275 
 2168.5540         8.8863        18.7726        62.3294        13.2257        24.5420        16.4074        11.8255      2045.2493        49.6914       -30.1360        -0.0059 
 2168.7064         8.9416        15.4145        62.7364        14.6364        21.1593        12.4789        15.0705      1973.9175        49.2951       -29.9886         0.0055 
 2168.8588         8.9978        12.0563        63.2196        15.3837        17.7766        15.3593        17.1010      1904.4706        48.8989       -29.8412         0.1064 
 2169.0112         8.9699        12.0563        64.4216        16.3974        17.7766        17.4213        19.1316      1838.6061        48.8989       -29.8412         0.0690 
 2169.1636         8.9629        11.4488        66.1056        17.0000        17.1076        19.5080        20.3511      1824.6847        47.6903       -29.8624         0.0941 
 2169.3160         8.9616        10.8413        61.7787        16.2603        16.4387        20.4267        20.3511      1892.9847        46.4818       -29.8836         0.0624 
 2169.4684         9.0061        10.2338        62.2780        15.8451        15.7698        20.5223        20.3511      1983.7582        45.2733       -29.9049         0.0068 
