~VERSION INFORMATION
 VERS.                 2.0:   CWLS LOG ASCII STANDARD - VERSION 2.0
 WRAP.                  NO:   SINGLE LINE PER DEPTH STEP
~WELL INFORMATION
#MNEM.UNIT       DATA           DESCRIPTION MNEMONIC
#---------    -------------   --------------------------
 STRT.M         403.0000                      : START DEPTH
 STOP.M         3050.0356                     : STOP DEPTH
 STEP.M         0.1524                        : STEP VALUE
 NULL.          -999.0000                     : NULL VALUE
 SRVC.          PYPOZO                        : Service Company/Logging company
 DATE.          03/07/2025                    : LAS file Creation Date
 WELL    .      PALMA SOLA NORTE-1             : Well Name
 COMP    .      PYPOZO 2.0                    : Company
 FLD     .      UNKNOWN                       : Field
 LOC     .      UNKNOWN                       : Location
 LATI    .      0                             : Latitude/Northing
 LONG    .      0                             : Longitude/Easting
 APDAT   .      0                             : Elevation Above Permanent Datum
~CURVE INFORMATION
#MNEM          UNIT     API CODE   Curve Type Comments
#---------- ---------- ----------  ---------- --------
 DEPTH     .M                    : Depth      
 CALI      .IN                         : CALI       
 CILD      .MM/M                       : CILD       
 DT        .US/F                       : DT         
 GR        .GAPI                       : GR         
 ILD       .OHMM                       : ILD        
 MINV      .OHMM                       : MINV       
 MNOR      .OHMM                       : MNOR       
 NEUT      .NAPI                       : NEUT       
 SN        .OHMM                       : SN         
 SP        .MV                         : SP         
 SPHI      .V/V                        : SPHI       
~A Log data section
  403.0000      -999.0000       998.9940      -999.0000         2.3350         0.4217      -999.0000      -999.0000         2.8200         0.0120        32.9909      -999.0000 
  403.1524      -999.0000       998.9940      -999.0000         6.6091         0.4217      -999.0000      -999.0000         2.8200         0.0120        32.9909      -999.0000 
  403.3048      -999.0000       848.9030      -999.0000        10.9529         0.5376      -999.0000      -999.0000         2.8200         0.0120        31.9720      -999.0000 
  403.4572      -999.0000       698.8121      -999.0000        15.5936         0.6534      -999.0000      -999.0000         3.0176         0.0121        30.9531      -999.0000 
  403.6096      -999.0000       548.7211      -999.0000        23.0337         0.7693      -999.0000      -999.0000         4.6494         0.0121        29.9342      -999.0000 
  403.7620      -999.0000       398.6301      -999.0000        29.4905         0.8852      -999.0000      -999.0000         9.9342         0.0121        28.9153      -999.0000 
  403.9144      -999.0000       248.5392      -999.0000        35.9474         1.0010      -999.0000      -999.0000        27.5570         0.0122        27.8964      -999.0000 
  404.0668      -999.0000       248.5392      -999.0000        41.3635         1.0010      -999.0000      -999.0000        98.1456         0.0122        27.8964      -999.0000 
  404.2192      -999.0000       201.1524      -999.0000        42.8637         1.1040      -999.0000      -999.0000       261.2676         0.1572        24.1532      -999.0000 
  404.3716      -999.0000       153.7656      -999.0000        41.0128         1.2069      -999.0000      -999.0000       383.3113         0.3023        20.4101      -999.0000 
  404.5240      -999.0000       106.3788      -999.0000        39.1619         1.3098      -999.0000      -999.0000       379.0296         0.4473        16.6669      -999.0000 
  404.6764      -999.0000        58.9920      -999.0000        37.3108         1.4127      -999.0000      -999.0000       380.2677         0.5923        12.9238      -999.0000 
  404.8288      -999.0000        11.6052      -999.0000        36.0326         1.5157      -999.0000      -999.0000       388.6947         0.7374         9.1806      -999.0000 
  404.9812      -999.0000       -35.7816      -999.0000        36.1514         1.6186      -999.0000      -999.0000       389.3684         0.8824         5.4375      -999.0000 
  405.1336      -999.0000       -35.7816      -999.0000        36.7998         1.6186      -999.0000      -999.0000       378.6413         0.8824         5.4375      -999.0000 
  405.2860      -999.0000       -38.4169      -999.0000        36.7655         4.4544      -999.0000      -999.0000       366.0452         1.2040        -4.1157      -999.0000 
  405.4384      -999.0000       -41.0521      -999.0000        37.0731         7.2902      -999.0000      -999.0000       354.3551         1.5256       -13.6688      -999.0000 
  405.5908      -999.0000       -43.6873      -999.0000        38.7215        10.1259      -999.0000      -999.0000       352.6376         1.8471       -23.2220      -999.0000 
  405.7432      -999.0000       -46.3226      -999.0000        40.9369        12.9617      -999.0000      -999.0000       368.3632         2.1687       -32.7751      -999.0000 
  405.8956      -999.0000       -48.9578      -999.0000        43.1523        15.7975      -999.0000      -999.0000       388.4741         2.4903       -42.3283      -999.0000 
  406.0480      -999.0000       -48.9578      -999.0000        45.3466        15.7975      -999.0000      -999.0000       397.0972         2.4903       -42.3283      -999.0000 
  406.2004      -999.0000        42.0669      -999.0000        46.4583        13.5200      -999.0000      -999.0000       387.4898         2.4543       -42.8246      -999.0000 
  406.3528      -999.0000       133.0916      -999.0000        46.3772        11.2426      -999.0000      -999.0000       368.4939         2.4183       -43.3210      -999.0000 
  406.5052      -999.0000       224.1163      -999.0000        47.2907         8.9651      -999.0000      -999.0000       353.5781         2.3823       -43.8173      -999.0000 
  406.6576      -999.0000       315.1411      -999.0000        49.2297         6.6876      -999.0000      -999.0000       343.1696         2.3463       -44.3137      -999.0000 
  406.8100      -999.0000       406.1658      -999.0000        50.8472         4.4101      -999.0000      -999.0000       337.5603         2.3103       -44.8101      -999.0000 
  406.9624      -999.0000       497.1905      -999.0000        51.8213         2.1327      -999.0000      -999.0000       339.3173         2.2744       -45.3064      -999.0000 
  407.1148      -999.0000       497.1905      -999.0000        52.4761         2.1327      -999.0000      -999.0000       350.0035         2.2744       -45.3064      -999.0000 
  407.2672      -999.0000       513.7288      -999.0000        52.8030         2.0920      -999.0000      -999.0000       367.9388         2.2359       -43.9118      -999.0000 
  407.4196      -999.0000       530.2671      -999.0000        52.9142         2.0513      -999.0000      -999.0000       385.3516         2.1975       -42.5171      -999.0000 
  407.5720      -999.0000       546.8055      -999.0000        53.0076         2.0106      -999.0000      -999.0000       395.4391         2.1591       -41.1225      -999.0000 
  407.7244      -999.0000       563.3438       141.1234        53.2733         1.9699      -999.0000      -999.0000       398.5056         2.1206       -39.7278         0.6712 
  407.8768      -999.0000       579.8821       141.1234        53.6783         1.9293      -999.0000      -999.0000       397.0196         2.0822       -38.3332         0.6712 
  408.0292      -999.0000       579.8821       141.1234        53.0651         1.9293      -999.0000      -999.0000       391.4173         2.0822       -38.3332         0.6712 
  408.1816      -999.0000       590.6911       141.1234        50.6941         1.8857      -999.0000      -999.0000       383.1673         2.0512       -38.6042         0.6712 
  408.3340      -999.0000       601.5000       141.1234        48.2103         1.8421      -999.0000      -999.0000       375.2947         2.0203       -38.8752         0.6712 
  408.4864      -999.0000       612.3090       141.1234        46.9782         1.7986      -999.0000      -999.0000       370.7125         1.9893       -39.1462         0.6712 
  408.6388      -999.0000       623.1180       141.1234        47.1685         1.7550      -999.0000      -999.0000       368.8745         1.9583       -39.4172         0.6712 
  408.7912      -999.0000       633.9270       141.1234        47.9609         1.7114      -999.0000      -999.0000       368.4661         1.9274       -39.6882         0.6712 
  408.9436      -999.0000       644.7359       141.1234        48.4822         1.6679      -999.0000      -999.0000       368.4412         1.8964       -39.9592         0.6712 
  409.0960      -999.0000       644.7359       141.1234        48.7577         1.6679      -999.0000      -999.0000       368.0840         1.8964       -39.9592         0.6712 
  409.2484      -999.0000       640.9085       141.1234        48.9029         1.6914      -999.0000      -999.0000       366.6354         1.9127       -39.9453         0.6712 
  409.4008      -999.0000       637.0811       141.1234        48.7121         1.7150      -999.0000      -999.0000       364.5718         1.9291       -39.9314         0.6712 
  409.5532      -999.0000       633.2536       141.1234        48.0140         1.7385      -999.0000      -999.0000       363.1556         1.9454       -39.9175         0.6712 
  409.7056      -999.0000       629.4262       141.1234        47.1885         1.7621      -999.0000      -999.0000       363.0016         1.9617       -39.9036         0.6712 
  409.8580      -999.0000       625.5988       141.1234        49.6553         1.7856      -999.0000      -999.0000       365.5407         1.9780       -39.8897         0.6712 
