~VERSION INFORMATION
 VERS.                 2.0:   CWLS LOG ASCII STANDARD - VERSION 2.0
 WRAP.                  NO:   SINGLE LINE PER DEPTH STEP
~WELL INFORMATION
#MNEM.UNIT       DATA           DESCRIPTION MNEMONIC
#---------    -------------   --------------------------
 STRT.M         403.0000                      : START DEPTH
 STOP.M         3050.0356                     : STOP DEPTH
 STEP.M         0.1524                        : STEP VALUE
 NULL.          -999.0000                     : NULL VALUE
 SRVC.          PYPOZO                        : Service Company/Logging company
 DATE.          03/07/2025                    : LAS file Creation Date
 WELL    .      PALMA SOLA NORTE-1             : Well Name
 COMP    .      PYPOZO 2.0                    : Company
 FLD     .      UNKNOWN                       : Field
 LOC     .      UNKNOWN                       : Location
 LATI    .      0                             : Latitude/Northing
 LONG    .      0                             : Longitude/Easting
 APDAT   .      0                             : Elevation Above Permanent Datum
~CURVE INFORMATION
#MNEM          UNIT     API CODE   Curve Type Comments
#---------- ---------- ----------  ---------- --------
 DEPTH     .M                    : Depth      
 CALI      .IN                         : CALI       
 CILD      .MM/M                       : CILD       
 DT        .US/F                       : DT         
 GR        .GAPI                       : GR         
 ILD       .OHMM                       : ILD        
 MINV      .OHMM                       : MINV       
 MNOR      .OHMM                       : MNOR       
 NEUT      .NAPI                       : NEUT       
 SN        .OHMM                       : SN         
 SP        .MV                         : SP         
 SPHI      .V/V                        : SPHI       
~A Log data section
# ...
 1286.3104      -999.0000       190.3839       130.8927        33.7998         5.4425      -999.0000      -999.0000       567.7193         6.0689       -42.5412         0.6009 
 1286.4628      -999.0000       183.8094       128.0704        34.2090         5.6145      -999.0000      -999.0000       552.9033         6.0724       -42.6768         0.5815 
 1286.6152      -999.0000       177.2349       164.0543        35.2718         5.7865      -999.0000      -999.0000       568.8872         6.0759       -42.8124         0.8287 
 1286.7676      -999.0000       170.6604       142.0291        35.9140         5.9585      -999.0000      -999.0000       599.8339         6.0794       -42.9480         0.6774 
 1286.9200      -999.0000       164.0858       134.4394        35.5964         6.1305      -999.0000      -999.0000       625.4735         6.0829       -43.0836         0.6253 
 1287.0724      -999.0000       164.0858       116.6875        35.5131         6.1305      -999.0000      -999.0000       644.5683         6.0829       -43.0836         0.5033 
 1287.2248      -999.0000       167.5466        85.4275        35.6520         6.0227      -999.0000      -999.0000       658.4147         6.0153       -43.0243         0.2887 
 1287.3772      -999.0000       171.0073        86.2577        35.2928         5.9149      -999.0000      -999.0000       667.5847         5.9478       -42.9651         0.2944 
 1287.5296      -999.0000       174.4681        93.6790        35.6653         5.8070      -999.0000      -999.0000       676.3006         5.8802       -42.9059         0.3453 
 1287.6820      -999.0000       177.9288        89.3573        36.2670         5.6992      -999.0000      -999.0000       685.7277         5.8126       -42.8467         0.3156 
 1287.8344      -999.0000       181.3895        91.4142        36.5057         5.5913      -999.0000      -999.0000       693.9263         5.7451       -42.7874         0.3298 
 1287.9868      -999.0000       184.8503       103.7641        36.7330         5.4835      -999.0000      -999.0000       700.7647         5.6775       -42.7282         0.4146 
 1288.1392      -999.0000       184.8503        86.4694        37.2896         5.4835      -999.0000      -999.0000       706.7544         5.6775       -42.7282         0.2958 
 1288.2916      -999.0000       189.5449        81.5129        38.1713         5.3766      -999.0000      -999.0000       712.6399         5.6613       -42.6070         0.2618 
 1288.4440      -999.0000       194.2395        81.3448        39.3456         5.2697      -999.0000      -999.0000       711.7086         5.6451       -42.4857         0.2606 
 1288.5964      -999.0000       198.9342        82.2355        40.9915         5.1628      -999.0000      -999.0000       701.4939         5.6289       -42.3645         0.2667 
 1288.7488      -999.0000       203.6288        79.1759        42.9572         5.0558      -999.0000      -999.0000       688.5353         5.6126       -42.2432         0.2457 
 1288.9012      -999.0000       208.3234        94.6210        43.9054         4.9489      -999.0000      -999.0000       675.8113         5.5964       -42.1220         0.3518 
 1289.0536      -999.0000       208.3234       115.9655        42.8989         4.9489      -999.0000      -999.0000       672.4040         5.5964       -42.1220         0.4984 
 1289.2060      -999.0000       206.1089       113.1488        41.1290         5.0062      -999.0000      -999.0000       689.7041         5.6782       -42.1175         0.4790 
 1289.3584      -999.0000       203.8944        98.6301        39.7001         5.0634      -999.0000      -999.0000       718.7762         5.7599       -42.1131         0.3793 
 1289.5108      -999.0000       201.6799        84.9521        39.1405         5.1206      -999.0000      -999.0000       746.5201         5.8417       -42.1086         0.2854 
 1289.6632      -999.0000       199.4654        83.7762        39.1753         5.1779      -999.0000      -999.0000       768.9720         5.9234       -42.1042         0.2773 
 1289.8156      -999.0000       197.2509        83.8985        39.9393         5.2351      -999.0000      -999.0000       791.8600         6.0051       -42.0998         0.2781 
 1289.9680      -999.0000       195.0364        84.9276        41.3546         5.2924      -999.0000      -999.0000       812.5380         6.0869       -42.0953         0.2852 
 1290.1204      -999.0000       195.0364        81.7493        42.3137         5.2924      -999.0000      -999.0000       818.4543         6.0869       -42.0953         0.2634 
 1290.2728      -999.0000       190.9932        86.5606        42.8666         5.3676      -999.0000      -999.0000       808.5093         6.1096       -42.1017         0.2964 
 1290.4252      -999.0000       186.9501        78.5340        43.7094         5.4428      -999.0000      -999.0000       796.1866         6.1323       -42.1081         0.2413 
 1290.5776      -999.0000       182.9069        77.3091        44.5082         5.5180      -999.0000      -999.0000       783.1754         6.1550       -42.1145         0.2329 
 1290.7300      -999.0000       178.8638        79.4282        44.6740         5.5932      -999.0000      -999.0000       769.4578         6.1777       -42.1208         0.2474 
 1290.8824      -999.0000       174.8206        84.5880        44.0435         5.6684      -999.0000      -999.0000       759.1176         6.2004       -42.1272         0.2829 
 1291.0348      -999.0000       174.8206        78.0386        43.2309         5.6684      -999.0000      -999.0000       753.0582         6.2004       -42.1272         0.2379 
 1291.1872      -999.0000       175.3619        77.4646        42.9554         5.6913      -999.0000      -999.0000       753.4919         6.3101       -42.3079         0.2340 
 1291.3396      -999.0000       175.9032        80.0529        43.2951         5.7143      -999.0000      -999.0000       767.5629         6.4197       -42.4886         0.2517 
 1291.4920      -999.0000       176.4445        81.5155        44.1127         5.7373      -999.0000      -999.0000       793.1651         6.5293       -42.6693         0.2618 
 1291.6444      -999.0000       176.9858        91.8108        45.2431         5.7602      -999.0000      -999.0000       817.1925         6.6389       -42.8501         0.3325 
 1291.7968      -999.0000       177.5271        89.4954        45.6023         5.7832      -999.0000      -999.0000       830.1274         6.7486       -43.0308         0.3166 
 1291.9492      -999.0000       178.0684        80.8337        44.4410         5.8062      -999.0000      -999.0000       824.5013         6.8582       -43.2115         0.2571 
 1292.1016      -999.0000       178.0684        78.4479        43.0672         5.8062      -999.0000      -999.0000       811.0416         6.8582       -43.2115         0.2407 
 1292.2540      -999.0000       172.6374        80.9586        42.0547         5.9968      -999.0000      -999.0000       810.5560         6.8239       -43.0691         0.2580 
 1292.4064      -999.0000       167.2064        83.9829        41.7097         6.1875      -999.0000      -999.0000       817.3901         6.7897       -42.9268         0.2787 
 1292.5588      -999.0000       161.7754        82.4071        41.5763         6.3781      -999.0000      -999.0000       822.3901         6.7555       -42.7845         0.2679 
 1292.7112      -999.0000       156.3444        81.5827        40.9091         6.5688      -999.0000      -999.0000       822.8836         6.7212       -42.6421         0.2622 
 1292.8636      -999.0000       150.9133        81.4165        39.9649         6.7594      -999.0000      -999.0000       818.2737         6.6870       -42.4998         0.2611 
 1293.0160      -999.0000       150.9133        79.8094        39.0087         6.7594      -999.0000      -999.0000       814.0492         6.6870       -42.4998         0.2501 
 1293.1684      -999.0000       154.6119        85.8668        38.0525         6.6059      -999.0000      -999.0000       811.0920         6.7112       -42.6222         0.2917 
