~VERSION INFORMATION
 VERS.                 2.0:   CWLS LOG ASCII STANDARD - VERSION 2.0
 WRAP.                  NO:   SINGLE LINE PER DEPTH STEP
~WELL INFORMATION
#MNEM.UNIT       DATA           DESCRIPTION MNEMONIC
#---------    -------------   --------------------------
 STRT.M         403.0000                      : START DEPTH
 STOP.M         3050.0356                     : STOP DEPTH
 STEP.M         0.1524                        : STEP VALUE
 NULL.          -999.0000                     : NULL VALUE
 SRVC.          PYPOZO                        : Service Company/Logging company
 DATE.          03/07/2025                    : LAS file Creation Date
 WELL    .      PALMA SOLA NORTE-1             : Well Name
 COMP    .      PYPOZO 2.0                    : Company
 FLD     .      UNKNOWN                       : Field
 LOC     .      UNKNOWN                       : Location
 LATI    .      0                             : Latitude/Northing
 LONG    .      0                             : Longitude/Easting
 APDAT   .      0                             : Elevation Above Permanent Datum
~CURVE INFORMATION
#MNEM          UNIT     API CODE   Curve Type Comments
#---------- ---------- ----------  ---------- --------
 DEPTH     .M                    : Depth      
 CALI      .IN                         : CALI       
 CILD      .MM/M                       : CILD       
 DT        .US/F                       : DT         
 GR        .GAPI                       : GR         
 ILD       .OHMM                       : ILD        
 MINV      .OHMM                       : MINV       
 MNOR      .OHMM                       : MNOR       
 NEUT      .NAPI                       : NEUT       
 SN        .OHMM                       : SN         
 SP        .MV                         : SP         
 SPHI      .V/V                        : SPHI       
~A Log data section
# ...
 1987.3504         9.1180         7.4207        61.7482        14.6364       135.1808         2.6981         2.9589      2087.3164        59.5207       -51.7803         0.1164 
 1987.5028         9.0814         7.5127        64.6445        15.4982       133.5569         3.4002         2.3571      2105.4917        59.4084       -51.7502         0.0996 
 1987.6552         9.0132         7.6047        65.6880        16.5051       131.9331         3.8014         4.9649      2113.6186        59.2961       -51.7201         0.0127 
 1987.8076         9.1155         7.6967        70.9482        16.7151       130.3092         4.9850        20.3109      2097.3933        59.1837       -51.6900        -0.0199 
 1987.9600         9.1458         7.7886        68.4169        15.7047       128.6854        20.3310        20.3109      2063.8088        59.0714       -51.6599        -0.0274 
 1988.1124         9.0592         7.7886        62.9173        14.1084       128.6854        20.3310         4.8646      2026.3751        59.0714       -51.6599        -0.0561 
 1988.2648         9.1569         8.0714        64.8827        12.4941       124.6814         4.8847         5.3059      1988.9446        59.5657       -51.6538         0.0236 
 1988.4172         9.2896         8.3542        61.2439        10.4545       120.6775        20.3310         4.6038      1951.5110        60.0599       -51.6476         0.0673 
 1988.5696         9.2816         8.6370        62.7385         8.6364       116.6735        20.3310        20.3109      1913.9354        60.5542       -51.6415         0.0923 
 1988.7220         9.3995         8.9198        60.5789         7.8530       112.6696        20.3310         4.0622      1902.8291        61.0485       -51.6354         0.0928 
 1988.8744         9.4937         9.2026        61.5062         7.3636       108.6656         3.7308         3.7100      1941.8519        61.5427       -51.6293         0.1195 
 1989.0268         9.3262         9.2026        62.4894         7.1612       108.6656         4.0809        20.6803      1995.9193        61.5427       -51.6293         0.1592 
 1989.1792         9.2220         8.9905        62.9419         6.6599       111.5706        20.5976        19.9896      2032.6685        62.1556       -51.8759         0.2069 
 1989.3316         9.1165         8.7785        63.9355         6.9567       114.4756        20.6885        20.6665      2047.3273        62.7685       -52.1226         0.1869 
 1989.4840         9.1614         8.5664        65.7713         8.0909       117.3806        20.0448        20.5607      2055.3672        63.3815       -52.3693         0.1621 
 1989.6364         9.2721         8.3543        69.1699         8.6364       120.2855        20.1368        20.4047      2065.5217        63.9944       -52.6159         0.1480 
 1989.7888         9.3285         8.1423        69.7008         8.8523       123.1905        20.2689        20.6342      2078.7617        64.6073       -52.8626         0.1144 
 1989.9412         9.2795         7.9302        62.2518        10.0816       126.0955        20.2551        20.8566      2098.9961        65.2202       -53.1093         0.0291 
 1990.0936         9.1665         7.9302        62.4499        13.4612       126.0955        20.5108        12.5688      2128.8450        65.2202       -53.1093        -0.0155 
 1990.2460         8.9442         7.8796        61.8740        16.1161       126.9271         9.2177         9.1575      2164.4998        66.0609       -52.9826        -0.0782 
 1990.3984         8.9756         7.8290        62.6994        16.7560       127.7587        20.3511        20.3310      2201.3975        66.9017       -52.8558        -0.0645 
 1990.5508         8.9764         7.7783        63.6240        17.4771       128.5903        20.3511        16.6399      2228.4167        67.7424       -52.7291        -0.0254 
 1990.7032         8.9568         7.7277        64.1015        19.3636       129.4219        16.6600        16.6199      2219.0027        68.5831       -52.6024         0.0169 
 1990.8556         8.9241         7.6771        64.7950        19.9091       130.2535        16.6199        20.3310      2169.1226        69.4239       -52.4757         0.0658 
 1991.0080         8.8795         7.6771        65.4598        19.1241       130.2535        20.3511        20.3310      2114.1489        69.4239       -52.4757         0.1421 
 1991.1604         8.8598         7.5095        64.9279        17.7418       133.5744        20.3511        20.3310      2081.9500        70.2751       -52.4992         0.1343 
 1991.3128         8.8631         7.3419        63.7948        16.3102       136.8954        20.3511        12.8084      2071.1157        71.1262       -52.5227         0.1136 
 1991.4652         8.8590         7.1744        63.7433        15.7953       140.2163        12.8084        20.3310      2066.0310        71.9774       -52.5462         0.1242 
 1991.6176         8.8811         7.0068        64.1634        15.9791       143.5372        20.3511        14.6776      2060.4815        72.8286       -52.5697         0.1445 
 1991.7700         8.9080         6.8392        64.2535        16.2727       146.8582        12.2132        20.3310      2044.7534        73.6798       -52.5932         0.0539 
 1991.9224         8.9238         6.6716        65.5656        16.0909       150.1791        20.3511        20.3310      2007.1143        74.5310       -52.6167        -0.0416 
 1992.0748         8.9165         6.6716        67.7672        15.5498       150.1791        20.3511        20.3310      1950.8020        74.5310       -52.6167        -0.0286 
 1992.2272         8.8975         6.4022        68.5038        14.6804       158.1293        20.3511        15.6673      1884.2341        75.5121       -52.6071        -0.0235 
 1992.3796         8.8675         6.1328        63.9247        13.4209       166.0796         2.8185         2.5978      1825.6106        76.4931       -52.5975         0.1187 
 1992.5320         8.8635         5.8634        60.1372        11.9553       174.0298        20.3511        21.7044      1788.2454        77.4741       -52.5878         0.0934 
 1992.6844         8.9071         5.5939        61.3606        10.4036       181.9800        20.3511         4.0687      1760.9779        78.4552       -52.5782         0.0156 
 1992.8368         9.0114         5.3245        62.4048         8.9841       189.9302        20.3511        22.0113      1764.2233        79.4362       -52.5685        -0.0579 
 1992.9892         9.0634         5.0551        62.3285         7.5455       197.8805        20.3511        18.6884      1814.0930        80.4172       -52.5589        -0.0579 
 1993.1416         9.0206         5.0551        65.2208         6.6364       197.8805        20.3511        16.3821      1875.8059        80.4172       -52.5589        -0.0206 
 1993.2940         8.9851         5.1903        60.6149         6.4116       193.4211        11.0832        21.5413      1935.3602        81.4467       -52.5540         0.0137 
 1993.4464         8.9818         5.3254        60.8276         6.3625       188.9618        20.3511        12.7191      1994.9098        82.4762       -52.5492         0.0009 
 1993.5988         8.9820         5.4605        62.4112         7.5761       184.5025         8.1983        20.3310      2054.4641        83.5057       -52.5443        -0.0080 
 1993.7512         8.9664         5.5957        62.2128        10.6226       180.0432        20.3511        20.3310      2114.0068        84.5352       -52.5394        -0.0181 
 1993.9036         8.9035         5.7308        61.5990        13.8029       175.5838        20.3511        20.3310      2176.5398        85.5647       -52.5346         0.1046 
 1994.0560         8.8673         5.7308        61.2534        16.8182       175.5838        13.9419         4.1625      2221.6475        85.5647       -52.5346         0.0862 
 1994.2084         8.9124         5.4294        61.2126        18.8182       188.8183         4.1825        20.3310      2225.2607        85.8184       -52.3006         0.0683 
