~VERSION INFORMATION
 VERS.                 2.0:   CWLS LOG ASCII STANDARD - VERSION 2.0
 WRAP.                  NO:   SINGLE LINE PER DEPTH STEP
~WELL INFORMATION
#MNEM.UNIT       DATA           DESCRIPTION MNEMONIC
#---------    -------------   --------------------------
 STRT.M         403.0000                      : START DEPTH
 STOP.M         3050.0356                     : STOP DEPTH
 STEP.M         0.1524                        : STEP VALUE
 NULL.          -999.0000                     : NULL VALUE
 SRVC.          PYPOZO                        : Service Company/Logging company
 DATE.          03/07/2025                    : LAS file Creation Date
 WELL    .      PALMA SOLA NORTE-1             : Well Name
 COMP    .      PYPOZO 2.0                    : Company
 FLD     .      UNKNOWN                       : Field
 LOC     .      UNKNOWN                       : Location
 LATI    .      0                             : Latitude/Northing
 LONG    .      0                             : Longitude/Easting
 APDAT   .      0                             : Elevation Above Permanent Datum
~CURVE INFORMATION
#MNEM          UNIT     API CODE   Curve Type Comments
#---------- ---------- ----------  ---------- --------
 DEPTH     .M                    : Depth      
 CALI      .IN                         : CALI       
 CILD      .MM/M                       : CILD       
 DT        .US/F                       : DT         
 GR        .GAPI                       : GR         
 ILD       .OHMM                       : ILD        
 MINV      .OHMM                       : MINV       
 MNOR      .OHMM                       : MNOR       
 NEUT      .NAPI                       : NEUT       
 SN        .OHMM                       : SN         
 SP        .MV                         : SP         
 SPHI      .V/V                        : SPHI       
~A Log data section
# ...
  753.5200      -999.0000       274.2624       133.5607        49.6717         3.8116      -999.0000      -999.0000       579.3057         3.4571       -42.7430         0.6192 
  753.6724      -999.0000       278.7548       159.7076        47.1583         3.7655      -999.0000      -999.0000       555.5640         3.4132       -42.7417         0.7988 
  753.8248      -999.0000       283.2472       120.6753        44.4034         3.7194      -999.0000      -999.0000       535.4806         3.3693       -42.7404         0.5307 
  753.9772      -999.0000       287.7396       136.7687        43.5254         3.6733      -999.0000      -999.0000       527.2397         3.3254       -42.7391         0.6413 
  754.1296      -999.0000       287.7396       122.5703        44.8603         3.6733      -999.0000      -999.0000       527.3196         3.3254       -42.7391         0.5438 
  754.2820      -999.0000       290.8374       118.5861        46.9532         3.6292      -999.0000      -999.0000       529.9067         3.2752       -42.8163         0.5164 
  754.4344      -999.0000       293.9353       143.9414        49.0441         3.5851      -999.0000      -999.0000       532.9863         3.2249       -42.8935         0.6905 
  754.5868      -999.0000       297.0331       122.6905        50.8286         3.5410      -999.0000      -999.0000       535.9658         3.1746       -42.9707         0.5446 
  754.7392      -999.0000       300.1310       108.4300        51.9928         3.4969      -999.0000      -999.0000       540.7475         3.1243       -43.0479         0.4466 
  754.8916      -999.0000       303.2288       124.0407        52.5136         3.4528      -999.0000      -999.0000       546.9069         3.0740       -43.1252         0.5539 
  755.0440      -999.0000       303.2288       148.6261        51.1121         3.4528      -999.0000      -999.0000       551.1638         3.0740       -43.1252         0.7227 
  755.1964      -999.0000       311.5940       140.0444        48.0516         3.3782      -999.0000      -999.0000       554.7105         3.0531       -42.9904         0.6638 
  755.3488      -999.0000       319.9591       144.2338        46.4329         3.3036      -999.0000      -999.0000       559.1885         3.0323       -42.8557         0.6925 
  755.5012      -999.0000       328.3243       116.2314        46.2524         3.2290      -999.0000      -999.0000       564.1188         3.0114       -42.7209         0.5002 
  755.6536      -999.0000       336.6894       130.5219        47.0525         3.1545      -999.0000      -999.0000       573.3409         2.9906       -42.5862         0.5984 
  755.8060      -999.0000       345.0546       150.1359        48.0603         3.0799      -999.0000      -999.0000       586.7457         2.9697       -42.4514         0.7331 
  755.9584      -999.0000       353.4198       121.2869        49.6985         3.0053      -999.0000      -999.0000       589.9443         2.9488       -42.3167         0.5349 
  756.1108      -999.0000       353.4198       139.7395        51.8229         3.0053      -999.0000      -999.0000       578.8691         2.9488       -42.3167         0.6617 
  756.2632      -999.0000       347.1691       130.8535        52.3479         3.0745      -999.0000      -999.0000       568.3107         2.9832       -42.4854         0.6006 
  756.4156      -999.0000       340.9185       124.2311        51.8375         3.1437      -999.0000      -999.0000       561.4501         3.0175       -42.6540         0.5552 
  756.5680      -999.0000       334.6679       144.7231        52.4090         3.2129      -999.0000      -999.0000       558.8114         3.0518       -42.8227         0.6959 
  756.7204      -999.0000       328.4172       131.9833        54.0976         3.2821      -999.0000      -999.0000       563.5357         3.0861       -42.9914         0.6084 
  756.8728      -999.0000       322.1666       120.0409        56.1696         3.3513      -999.0000      -999.0000       577.9346         3.1205       -43.1601         0.5264 
  757.0252      -999.0000       322.1666       155.5505        58.2749         3.3513      -999.0000      -999.0000       607.1595         3.1205       -43.1601         0.7703 
  757.1776      -999.0000       316.3188       143.6275        59.6452         3.4052      -999.0000      -999.0000       644.9343         3.1694       -43.2409         0.6884 
  757.3300      -999.0000       310.4710       158.5328        60.7729         3.4590      -999.0000      -999.0000       668.3129         3.2184       -43.3216         0.7907 
  757.4824      -999.0000       304.6232       151.6561        62.3434         3.5129      -999.0000      -999.0000       677.4041         3.2673       -43.4024         0.7435 
  757.6348      -999.0000       298.7755       143.2939        63.7429         3.5667      -999.0000      -999.0000       685.1200         3.3163       -43.4832         0.6861 
  757.7872      -999.0000       292.9277       155.3323        60.3791         3.6206      -999.0000      -999.0000       701.0682         3.3653       -43.5639         0.7688 
  757.9396      -999.0000       287.0799       144.3601        53.8989         3.6744      -999.0000      -999.0000       719.8221         3.4142       -43.6447         0.6934 
  758.0920      -999.0000       287.0799       140.7662        52.6859         3.6744      -999.0000      -999.0000       723.3724         3.4142       -43.6447         0.6687 
  758.2444      -999.0000       284.8692       144.9933        53.3011         3.7110      -999.0000      -999.0000       713.9556         3.4453       -43.6473         0.6978 
  758.3968      -999.0000       282.6585       151.2935        52.2963         3.7475      -999.0000      -999.0000       702.9451         3.4764       -43.6500         0.7410 
  758.5492      -999.0000       280.4477       149.4479        51.4308         3.7840      -999.0000      -999.0000       692.3795         3.5075       -43.6526         0.7284 
  758.7016      -999.0000       278.2370       133.5701        51.9884         3.8205      -999.0000      -999.0000       680.5534         3.5385       -43.6552         0.6193 
  758.8540      -999.0000       276.0263       129.8975        53.1473         3.8571      -999.0000      -999.0000       667.9681         3.5696       -43.6578         0.5941 
  759.0064      -999.0000       276.0263       136.1755        54.0630         3.8571      -999.0000      -999.0000       651.2857         3.5696       -43.6578         0.6372 
  759.1588      -999.0000       272.1491       144.2048        53.4868         3.9148      -999.0000      -999.0000       635.4869         3.5974       -43.6270         0.6923 
  759.3112      -999.0000       268.2719       152.0160        51.8651         3.9724      -999.0000      -999.0000       633.3183         3.6253       -43.5962         0.7460 
  759.4636      -999.0000       264.3948       132.5927        51.0340         4.0301      -999.0000      -999.0000       644.2741         3.6531       -43.5654         0.6126 
  759.6160      -999.0000       260.5176       139.8266        50.9108         4.0878      -999.0000      -999.0000       658.7027         3.6809       -43.5346         0.6623 
  759.7684      -999.0000       256.6405       146.9226        50.9747         4.1455      -999.0000      -999.0000       677.1404         3.7088       -43.5038         0.7110 
  759.9208      -999.0000       252.7633       141.7134        51.4004         4.2032      -999.0000      -999.0000       702.2946         3.7366       -43.4730         0.6752 
  760.0732      -999.0000       252.7633       132.8451        52.4182         4.2032      -999.0000      -999.0000       719.8491         3.7366       -43.4730         0.6143 
  760.2256      -999.0000       254.0531       127.1414        53.3753         4.1566      -999.0000      -999.0000       719.7515         3.7177       -43.4084         0.5751 
  760.3780      -999.0000       255.3430       133.1380        53.9412         4.1100      -999.0000      -999.0000       709.3328         3.6988       -43.3438         0.6163 
