~VERSION INFORMATION
 VERS.                 2.0:   CWLS LOG ASCII STANDARD - VERSION 2.0
 WRAP.                  NO:   SINGLE LINE PER DEPTH STEP
~WELL INFORMATION
#MNEM.UNIT       DATA           DESCRIPTION MNEMONIC
#---------    -------------   --------------------------
 STRT.M         403.0000                      : START DEPTH
 STOP.M         3050.0356                     : STOP DEPTH
 STEP.M         0.1524                        : STEP VALUE
 NULL.          -999.0000                     : NULL VALUE
 SRVC.          PYPOZO                        : Service Company/Logging company
 DATE.          03/07/2025                    : LAS file Creation Date
 WELL    .      PALMA SOLA NORTE-1             : Well Name
 COMP    .      PYPOZO 2.0                    : Company
 FLD     .      UNKNOWN                       : Field
 LOC     .      UNKNOWN                       : Location
 LATI    .      0                             : Latitude/Northing
 LONG    .      0                             : Longitude/Easting
 APDAT   .      0                             : Elevation Above Permanent Datum
~CURVE INFORMATION
#MNEM          UNIT     API CODE   Curve Type Comments
#---------- ---------- ----------  ---------- --------
 DEPTH     .M                    : Depth      
 CALI      .IN                         : CALI       
 CILD      .MM/M                       : CILD       
 DT        .US/F                       : DT         
 GR        .GAPI                       : GR         
 ILD       .OHMM                       : ILD        
 MINV      .OHMM                       : MINV       
 MNOR      .OHMM                       : MNOR       
 NEUT      .NAPI                       : NEUT       
 SN        .OHMM                       : SN         
 SP        .MV                         : SP         
 SPHI      .V/V                        : SPHI       
~A Log data section
# ...
 2870.6608         7.8319         7.5475        53.1475        64.4232       378.3621        35.8133        19.6070      1388.6928       159.5643      -105.2227         0.1396 
 2870.8132         7.8419         6.9314        53.5965        64.1554       363.4101        33.0552        20.9293      1392.2119       156.1963      -104.9789         0.1427 
 2870.9656         7.8462         5.6349        52.5261        64.0746       308.5403        42.6580        23.5941      1406.5796       166.8906       -56.2649         0.1353 
 2871.1180         7.8274         5.6349        52.0132        63.5766       308.5403        43.0508        26.4756      1409.0934       166.8906       -56.2649         0.1316 
 2871.2704         7.8317         7.2891        52.9568        63.5797       315.3231        42.2769        21.7159      1376.5906       148.4933      -104.5185         0.1383 
 2871.4228         7.8446         8.2629        53.5630        64.2712       282.1881        26.2913        18.6004      1356.2475       144.1582      -104.3019         0.1425 
 2871.5752         7.8541         9.2367        54.2051        65.5620       249.0532        28.3535        17.1391      1327.5461       139.8232      -104.0852         0.1470 
 2871.7276         7.8400        10.2105        54.3663        66.7690       215.9182        33.6388        15.2315      1308.4354       135.4881      -103.8686         0.1482 
 2871.8800         7.8244         7.5656        53.4179        67.6158       208.3542        27.3873        14.0663      1275.3023       156.0164       -55.6731         0.1416 
 2872.0324         7.8484         7.5656        52.2107        68.7468       208.3542        26.6413        13.2713      1266.8674       156.0164       -55.6731         0.1330 
 2872.1848         7.8729        12.4913        52.7082        68.7460       175.1874        27.8718        13.5538      1245.6267       127.1111      -103.6746         0.1365 
 2872.3372         7.9112        13.7983        54.1089        68.8593       167.5915        24.0135        11.0251      1200.4298       123.0690      -103.6974         0.1464 
 2872.4896         7.9277        15.1052        54.8734        68.4153       159.9956        22.2793        12.3254      1155.3496       119.0270      -103.7201         0.1517 
 2872.6420         7.9313        16.4122        56.7842        67.5985       152.3997        19.5676        12.5918      1100.7287       114.9850      -103.7428         0.1662 
 2872.7944         7.9134        17.7191        57.0506        66.8307       144.8038        20.8316        16.0581      1040.2707       110.9430      -103.7655         0.1670 
 2872.9468         7.8833        12.6462        47.2331        66.1713       195.0026        28.4766        14.4368       960.0546       133.4591       -55.1362         0.0852 
 2873.0992         7.8723        12.6462        53.9609        66.3897       195.0026        26.1152        14.7917       930.8254       133.4591       -55.1362         0.1453 
 2873.2516         7.8881        19.7992        53.7050        70.4758       130.7641        22.4713        14.5993       914.1683       104.0191      -103.4798         0.1447 
 2873.4040         7.8589        20.5723        55.3117        74.3489       124.3203        16.1346        14.8902       927.9090       101.1373      -103.1713         0.1555 
 2873.5564         7.8368        21.3454        50.0131        78.1162       117.8765        17.6893        15.9751       941.3415        98.2555      -102.8629         0.1670 
 2873.7088         7.8256        22.1184        58.2789        81.5123       111.4327        22.3650        13.5530       962.1296        95.3737      -102.5544         0.1758 
 2873.8612         7.8405        15.3779        59.6743        84.5315       129.4445        18.1343        14.3468       985.2062       114.4378       -55.1505         0.1856 
 2874.0136         7.8425        15.3779        60.2967        82.9185       129.4445        19.0316        14.6859      1008.6070       114.4378       -55.1505         0.1900 
 2874.1660         7.8410        23.9200        60.2867        82.6012        99.0034        19.7857        14.7049      1040.6098        89.2376      -102.6204         0.1899 
 2874.3184         7.8360        24.9485        60.3746        83.6755        93.0179        19.1106        14.4594      1098.9581        85.9834      -102.9949         0.1905 
 2874.4708         7.8216        25.9770        60.8414        86.0968        87.0324        18.3568        13.8394      1148.1610        82.7292      -103.3693         0.1938 
 2874.6232         7.7944        27.0056        64.0180        89.2156        81.0470        17.2503        15.1924      1199.8535        79.4749      -103.7437         0.2162 
 2874.7756         7.7788        28.0341        64.5374        92.1762        75.0615        15.7588        16.3846      1313.2853        76.2207      -104.1181         0.2199 
 2874.9280         7.7596        20.3877        65.0689        95.1035        93.2998        19.1197        16.1592      1356.1078        96.0741       -55.7858         0.2236 
 2875.0804         7.7682        20.3877        64.9799        98.9522        93.2998        24.7965        15.5533      1392.7171        96.0741       -55.7858         0.2231 
 2875.2328         7.7627        27.0714        63.4106        98.0636        59.7353        21.8117        14.6476      1397.2833        77.8730      -103.9159         0.2120 
 2875.3852         7.7738        25.0803        63.7607        96.8779        50.3946        22.7217        12.6114      1399.5276        82.7795      -103.3392         0.2144 
 2875.5376         7.7768        23.0891        64.0261        95.4981        41.0539        24.4213        13.3167      1381.2750        87.6861      -102.7625         0.2163 
 2875.6900         7.7780        21.0980        62.8566        94.5812        31.7132        26.4315        15.5689      1346.2726        92.5926      -102.1858         0.2081 
 2875.8424         7.7796        19.1069        60.7505        94.3613        22.3726        29.3077        15.2804      1320.8461        97.4991      -101.6091         0.1932 
 2875.9948         7.8019        15.7758        58.5608        94.0595        47.3749        33.3579        16.7631      1303.7787       103.0625       -53.6629         0.1778 
 2876.1472         7.8067        15.7758        55.8470        95.0422        47.3749        38.6870        19.4720      1287.2600       103.0625       -53.6629         0.1587 
 2876.2996         7.8043        17.9094        56.2360        96.9102        13.0414        44.4984        20.6266      1254.0724       102.6524      -101.4858         0.1614 
 2876.4520         7.7811        18.7032        59.2353        98.9075        13.0509        48.0098        20.3447      1233.6929       102.8992      -101.9391         0.1825 
 2876.6044         7.7696        19.4969        59.8339       100.0770        13.0604        49.1578        19.9833      1211.0557       103.1459      -102.3925         0.1867 
 2876.7568         7.8051        20.2906        59.6734       101.0072        13.0700        47.9749        21.0547      1192.7383       103.3927      -102.8458         0.1856 
 2876.9092         7.8345        16.1239        55.0988       101.0670        42.3134        45.6773        23.0301      1172.3602       101.9915       -54.4689         0.1534 
 2877.0616         7.8597        16.1239        52.7914        98.9337        42.3134        44.9350        44.7085      1161.3897       101.9915       -54.4689         0.1371 
 2877.2140         7.8895        19.0763        55.2500        96.3746        15.6520        38.1229        40.5600      1146.7547       105.2174      -103.7029         0.1545 
 2877.3664         7.9046        17.0682        53.3893        89.6900        18.2245        31.6585        34.1004      1140.4917       106.7954      -104.1066         0.1413 
 2877.5188         7.9138        15.0602        52.2386        87.5236        20.7970        25.1960        27.6408      1139.1866       108.3734      -104.5103         0.1332 
