~VERSION INFORMATION
 VERS.                 2.0:   CWLS LOG ASCII STANDARD - VERSION 2.0
 WRAP.                  NO:   SINGLE LINE PER DEPTH STEP
~WELL INFORMATION
#MNEM.UNIT       DATA           DESCRIPTION MNEMONIC
#---------    -------------   --------------------------
 STRT.M         403.0000                      : START DEPTH
 STOP.M         3050.0356                     : STOP DEPTH
 STEP.M         0.1524                        : STEP VALUE
 NULL.          -999.0000                     : NULL VALUE
 SRVC.          PYPOZO                        : Service Company/Logging company
 DATE.          03/07/2025                    : LAS file Creation Date
 WELL    .      PALMA SOLA NORTE-1             : Well Name
 COMP    .      PYPOZO 2.0                    : Company
 FLD     .      UNKNOWN                       : Field
 LOC     .      UNKNOWN                       : Location
 LATI    .      0                             : Latitude/Northing
 LONG    .      0                             : Longitude/Easting
 APDAT   .      0                             : Elevation Above Permanent Datum
~CURVE INFORMATION
#MNEM          UNIT     API CODE   Curve Type Comments
#---------- ---------- ----------  ---------- --------
 DEPTH     .M                    : Depth      
 CALI      .IN                         : CALI       
 CILD      .MM/M                       : CILD       
 DT        .US/F                       : DT         
 GR        .GAPI                       : GR         
 ILD       .OHMM                       : ILD        
 MINV      .OHMM                       : MINV       
 MNOR      .OHMM                       : MNOR       
 NEUT      .NAPI                       : NEUT       
 SN        .OHMM                       : SN         
 SP        .MV                         : SP         
 SPHI      .V/V                        : SPHI       
~A Log data section
# ...
 3045.9208         7.8261       136.6988        49.3373        47.7982        51.3942        11.6165         9.8459      2473.0387        49.5649        -3.7246         0.1158 
 3046.0732         7.8188       136.6988        49.5463        42.5731        51.3942         7.8182         8.1225      2494.1011        49.5649        -3.7246         0.1172 
 3046.2256         7.8174       136.3132        49.8645        40.6573        47.0195         5.3919        10.7738      2597.6814        47.8114        -3.5752         0.1195 
 3046.3780         7.8171       135.9277        49.9727        41.5420        42.6448         3.8213         6.4452      2714.9264        46.0578        -3.4259         0.1202 
 3046.5304         7.8170       135.5422        50.0151        42.9153        38.2700         3.3233         3.5595      2830.6917        44.3042        -3.2765         0.1205 
 3046.6828         7.8197       135.1566        50.0515        44.6992        33.8953         2.3594         2.6405      2949.5185        42.5507        -3.1272         0.1208 
 3046.8352         7.7933       134.7711        50.0904        46.9972        29.5205         2.3594         3.3233      3087.2991        40.7971        -2.9778         0.1211 
 3046.9876         7.7535       134.3856        50.0904        50.7790        25.1458         5.1085         2.3594      3137.5018        39.0436        -2.8285         0.1211 
 3047.1400         7.7560       134.3856        50.0904        54.4582        25.1458        10.1104         6.7959      3222.1383        39.0436        -2.8285         0.1211 
 3047.2924         7.7812       133.7133        50.0904        58.3160        26.3905         9.2905         9.5281      3234.7260        41.3670        -2.7618         0.1211 
 3047.4448         7.8206       133.0410        50.0904        61.9532        27.6353         8.5723         8.2637      3175.8599        43.6904        -2.6952         0.1211 
 3047.5972         7.8297       132.3687        50.0904        66.0414        28.8800         7.8815         6.5964      3091.7723        46.0138        -2.6286         0.1211 
 3047.7496         7.8532       131.6964        50.0904        68.0199        30.1248        10.5522         6.6968      2988.4766        48.3372        -2.5619         0.1211 
 3047.9020         7.8602       131.0241        50.0904        68.6806        31.3695         9.6421        10.5522      2851.2070        50.6606        -2.4953         0.1211 
 3048.0544         7.8371       131.0241      -999.0000        69.1868        31.3695         8.3635        10.4920      2698.7157        50.6606        -2.4953      -999.0000 
 3048.2068         7.8144       131.0241      -999.0000        70.1025        31.3695         6.8225         9.2519      2547.9106        50.6606        -2.4953      -999.0000 
 3048.3592         7.8120       131.0241      -999.0000        71.1355        31.3695         4.7746         8.2887      2440.7327        50.6606        -2.4953      -999.0000 
 3048.5116         7.8005       131.0241      -999.0000        71.9463        31.3695         5.1104         6.4098      2362.4309        50.6606        -2.4953      -999.0000 
 3048.6640         7.7944       131.0241      -999.0000        71.2507        31.3695         4.9699         4.6896      2287.3256        50.6606        -2.4953      -999.0000 
 3048.8164         7.7587       131.0241      -999.0000        71.0675        31.3695         4.4880         5.0919      2239.1678        50.6606        -2.4953      -999.0000 
 3048.9688         7.7378      -999.0000      -999.0000        71.7424      -999.0000         3.4892         3.9863      2219.1747      -999.0000      -999.0000      -999.0000 
 3049.1212         7.7414      -999.0000      -999.0000        72.2113      -999.0000         3.8095         4.5301      2235.3908      -999.0000      -999.0000      -999.0000 
 3049.2736         7.7615      -999.0000      -999.0000        72.4432      -999.0000         4.4500         6.8976      2255.6351      -999.0000      -999.0000      -999.0000 
 3049.4260         7.7937      -999.0000      -999.0000        72.5237      -999.0000         5.0340         6.4155      2287.4960      -999.0000      -999.0000      -999.0000 
 3049.5784         7.7972      -999.0000      -999.0000        71.5557      -999.0000         6.6697         5.4720      2309.7548      -999.0000      -999.0000      -999.0000 
 3049.7308         7.7981      -999.0000      -999.0000        70.3005      -999.0000         9.2438         4.3876      2336.2988      -999.0000      -999.0000      -999.0000 
 3049.8832         7.7926      -999.0000      -999.0000        68.8402      -999.0000        10.6079         9.1466      2339.5274      -999.0000      -999.0000      -999.0000 
 3050.0356         7.7754      -999.0000      -999.0000        68.1251      -999.0000        11.3839        10.6124      2338.3789      -999.0000      -999.0000      -999.0000 
