~VERSION INFORMATION
 VERS.                 2.0:   CWLS LOG ASCII STANDARD - VERSION 2.0
 WRAP.                  NO:   SINGLE LINE PER DEPTH STEP
~WELL INFORMATION
#MNEM.UNIT       DATA           DESCRIPTION MNEMONIC
#---------    -------------   --------------------------
 STRT.M         403.0000                      : START DEPTH
 STOP.M         3050.0356                     : STOP DEPTH
 STEP.M         0.1524                        : STEP VALUE
 NULL.          -999.0000                     : NULL VALUE
 SRVC.          PYPOZO                        : Service Company/Logging company
 DATE.          03/07/2025                    : LAS file Creation Date
 WELL    .      PALMA SOLA NORTE-1             : Well Name
 COMP    .      PYPOZO 2.0                    : Company
 FLD     .      UNKNOWN                       : Field
 LOC     .      UNKNOWN                       : Location
 LATI    .      0                             : Latitude/Northing
 LONG    .      0                             : Longitude/Easting
 APDAT   .      0                             : Elevation Above Permanent Datum
~CURVE INFORMATION
#MNEM          UNIT     API CODE   Curve Type Comments
#---------- ---------- ----------  ---------- --------
 DEPTH     .M                    : Depth      
 CALI      .IN                         : CALI       
 CILD      .MM/M                       : CILD       
 DT        .US/F                       : DT         
 GR        .GAPI                       : GR         
 ILD       .OHMM                       : ILD        
 MINV      .OHMM                       : MINV       
 MNOR      .OHMM                       : MNOR       
 NEUT      .NAPI                       : NEUT       
 SN        .OHMM                       : SN         
 SP        .MV                         : SP         
 SPHI      .V/V                        : SPHI       
~A Log data section
# ...
  928.7800      -999.0000       196.6867       109.8839        48.8280         5.2974      -999.0000      -999.0000       717.9797         5.0265       -42.8789         0.4566 
  928.9324      -999.0000       192.5543       115.0317        47.5599         5.3799      -999.0000      -999.0000       726.7761         5.0396       -42.9363         0.4920 
  929.0848      -999.0000       192.5543       126.2739        45.4520         5.3799      -999.0000      -999.0000       733.7994         5.0396       -42.9363         0.5692 
  929.2372      -999.0000       193.7073       113.1146        44.9649         5.3625      -999.0000      -999.0000       728.6284         5.0463       -42.9250         0.4788 
  929.3896      -999.0000       194.8603       123.8927        44.5182         5.3450      -999.0000      -999.0000       716.1617         5.0529       -42.9136         0.5528 
  929.5420      -999.0000       196.0133       119.8154        43.6459         5.3276      -999.0000      -999.0000       704.3572         5.0596       -42.9022         0.5248 
  929.6944      -999.0000       197.1664       103.9705        43.5417         5.3102      -999.0000      -999.0000       692.4835         5.0662       -42.8909         0.4160 
  929.8468      -999.0000       198.3194       129.2149        44.6037         5.2927      -999.0000      -999.0000       682.0501         5.0729       -42.8795         0.5894 
  929.9992      -999.0000       199.4724       117.7589        46.4881         5.2753      -999.0000      -999.0000       683.3100         5.0795       -42.8681         0.5107 
  930.1516      -999.0000       199.4724       105.6110        48.4325         5.2753      -999.0000      -999.0000       693.1287         5.0795       -42.8681         0.4273 
  930.3040      -999.0000       199.5875       135.4722        49.5378         5.2507      -999.0000      -999.0000       695.1519         5.0420       -42.9756         0.6324 
  930.4564      -999.0000       199.7027       128.4658        49.6230         5.2261      -999.0000      -999.0000       682.7497         5.0045       -43.0831         0.5842 
  930.6088      -999.0000       199.8178       138.0629        49.5994         5.2015      -999.0000      -999.0000       664.9020         4.9671       -43.1906         0.6502 
  930.7612      -999.0000       199.9329       129.5827        49.4804         5.1770      -999.0000      -999.0000       654.5807         4.9296       -43.2980         0.5919 
  930.9136      -999.0000       200.0480       136.0337        47.6258         5.1524      -999.0000      -999.0000       668.6227         4.8921       -43.4055         0.6362 
  931.0660      -999.0000       200.0480       130.9241        44.1968         5.1524      -999.0000      -999.0000       704.7996         4.8921       -43.4055         0.6011 
  931.2184      -999.0000       201.9131       129.3008        42.2458         5.1094      -999.0000      -999.0000       728.8116         4.9269       -43.3415         0.5900 
  931.3708      -999.0000       203.7782       135.6487        41.4474         5.0663      -999.0000      -999.0000       739.3571         4.9618       -43.2775         0.6336 
  931.5232      -999.0000       205.6433       131.0282        40.5613         5.0233      -999.0000      -999.0000       747.2734         4.9967       -43.2135         0.6018 
  931.6756      -999.0000       207.5084       124.3135        39.5824         4.9803      -999.0000      -999.0000       756.3121         5.0316       -43.1496         0.5557 
  931.8280      -999.0000       209.3735       118.8864        40.4028         4.9373      -999.0000      -999.0000       774.0855         5.0664       -43.0856         0.5185 
  931.9804      -999.0000       211.2386       140.1234        44.7788         4.8943      -999.0000      -999.0000       800.7058         5.1013       -43.0216         0.6643 
  932.1328      -999.0000       211.2386        99.0686        49.3897         4.8943      -999.0000      -999.0000       813.2610         5.1013       -43.0216         0.3823 
  932.2852      -999.0000       208.6287       110.4399        50.6811         4.9644      -999.0000      -999.0000       805.7193         5.1215       -43.0647         0.4604 
  932.4376      -999.0000       206.0188       122.4839        50.2905         5.0345      -999.0000      -999.0000       792.4531         5.1418       -43.1078         0.5432 
  932.5900      -999.0000       203.4089       134.5279        49.6257         5.1046      -999.0000      -999.0000       779.4152         5.1620       -43.1510         0.6259 
  932.7424      -999.0000       200.7990       146.5719        48.9194         5.1747      -999.0000      -999.0000       773.4121         5.1823       -43.1941         0.7086 
  932.8948      -999.0000       198.1891       157.0335        48.3147         5.2448      -999.0000      -999.0000       777.2947         5.2025       -43.2372         0.7805 
  933.0472      -999.0000       198.1891       129.5973        47.6391         5.2448      -999.0000      -999.0000       786.1555         5.2025       -43.2372         0.5920 
  933.1996      -999.0000       195.9728       123.3437        46.7488         5.3069      -999.0000      -999.0000       797.1545         5.2454       -43.2024         0.5491 
  933.3520      -999.0000       193.7566       125.9752        45.7783         5.3691      -999.0000      -999.0000       808.6797         5.2883       -43.1676         0.5671 
  933.5044      -999.0000       191.5403       132.1251        44.8079         5.4312      -999.0000      -999.0000       818.9797         5.3312       -43.1328         0.6094 
  933.6568      -999.0000       189.3240       121.1497        43.8374         5.4933      -999.0000      -999.0000       826.2741         5.3741       -43.0979         0.5340 
  933.8092      -999.0000       187.1078       112.1867        42.8670         5.5554      -999.0000      -999.0000       826.4205         5.4170       -43.0631         0.4724 
  933.9616      -999.0000       184.8915       124.5581        41.8965         5.6176      -999.0000      -999.0000       816.5953         5.4599       -43.0283         0.5574 
  934.1140      -999.0000       184.8915       119.0977        40.9260         5.6176      -999.0000      -999.0000       786.9262         5.4599       -43.0283         0.5199 
  934.2664      -999.0000       182.2510       120.9779        40.0692         5.6709      -999.0000      -999.0000       741.6228         5.4635       -43.0492         0.5328 
  934.4188      -999.0000       179.6105       129.0673        39.9237         5.7243      -999.0000      -999.0000       701.5073         5.4670       -43.0701         0.5884 
  934.5712      -999.0000       176.9700       137.1565        40.8083         5.7777      -999.0000      -999.0000       674.5032         5.4705       -43.0909         0.6439 
  934.7236      -999.0000       174.3294       136.0039        42.1059         5.8311      -999.0000      -999.0000       662.4904         5.4740       -43.1118         0.6360 
  934.8760      -999.0000       171.6889       122.9312        42.9111         5.8845      -999.0000      -999.0000       664.0201         5.4775       -43.1327         0.5462 
  935.0284      -999.0000       171.6889       129.8825        42.2862         5.8845      -999.0000      -999.0000       668.9207         5.4775       -43.1327         0.5940 
  935.1808      -999.0000       173.3093       125.8186        41.0002         5.8455      -999.0000      -999.0000       674.0769         5.4072       -43.1010         0.5661 
  935.3332      -999.0000       174.9297       129.7902        40.9269         5.8066      -999.0000      -999.0000       678.4547         5.3368       -43.0693         0.5933 
  935.4856      -999.0000       176.5501       122.0827        41.3938         5.7676      -999.0000      -999.0000       683.2466         5.2665       -43.0376         0.5404 
  935.6380      -999.0000       178.1705       132.1917        41.8293         5.7287      -999.0000      -999.0000       689.8465         5.1961       -43.0059         0.6098 
