~VERSION INFORMATION
 VERS.                 2.0:   CWLS LOG ASCII STANDARD - VERSION 2.0
 WRAP.                  NO:   SINGLE LINE PER DEPTH STEP
~WELL INFORMATION
#MNEM.UNIT       DATA           DESCRIPTION MNEMONIC
#---------    -------------   --------------------------
 STRT.M         403.0000                      : START DEPTH
 STOP.M         3050.0356                     : STOP DEPTH
 STEP.M         0.1524                        : STEP VALUE
 NULL.          -999.0000                     : NULL VALUE
 SRVC.          PYPOZO                        : Service Company/Logging company
 DATE.          03/07/2025                    : LAS file Creation Date
 WELL    .      PALMA SOLA NORTE-1             : Well Name
 COMP    .      PYPOZO 2.0                    : Company
 FLD     .      UNKNOWN                       : Field
 LOC     .      UNKNOWN                       : Location
 LATI    .      0                             : Latitude/Northing
 LONG    .      0                             : Longitude/Easting
 APDAT   .      0                             : Elevation Above Permanent Datum
~CURVE INFORMATION
#MNEM          UNIT     API CODE   Curve Type Comments
#---------- ---------- ----------  ---------- --------
 DEPTH     .M                    : Depth      
 CALI      .IN                         : CALI       
 CILD      .MM/M                       : CILD       
 DT        .US/F                       : DT         
 GR        .GAPI                       : GR         
 ILD       .OHMM                       : ILD        
 MINV      .OHMM                       : MINV       
 MNOR      .OHMM                       : MNOR       
 NEUT      .NAPI                       : NEUT       
 SN        .OHMM                       : SN         
 SP        .MV                         : SP         
 SPHI      .V/V                        : SPHI       
~A Log data section
# ...
 2337.8704         8.4206         6.2290        65.9984        18.4968       160.6255        20.9932        20.3995      1887.4689        62.7454       -25.8511        -0.0434 
 2338.0228         8.7600         6.2290        70.7274        18.6994       160.6255        20.0980        20.5120      1843.4554        62.7454       -25.8511         0.1105 
 2338.1752         8.7946         6.7271        69.9259        19.8057       152.1908        20.3637        20.5154      1807.2628        62.2450       -25.6313         0.0835 
 2338.3276         8.8535         7.2252        65.3718        20.9615       143.7560        20.3673        20.6274      1800.6674        61.7447       -25.4116         0.0071 
 2338.4800         8.9290         7.7233        64.4895        22.1175       135.3213        20.5771        20.2173      1801.1770        61.2444       -25.1919        -0.0634 
 2338.6324         8.8792         8.2215        66.4230        23.2494       126.8865        17.1031        18.5726      1792.7518        60.7441       -24.9721        -0.0422 
 2338.7848         8.8482         8.7196        71.5049        24.2165       118.4518        19.4290        20.4714      1742.7821        60.2437       -24.7524         0.0071 
 2338.9372         8.8550         9.2177        75.3622        24.9435       110.0170        20.4915        20.4714      1684.8096        59.7434       -24.5327         0.0444 
 2339.0896         8.9119         9.2177        73.8364        25.3916       110.0170         2.1931         2.2166      1711.2754        59.7434       -24.5327         0.0753 
 2339.2420         8.8359         8.8781        75.9383        24.9451       114.7078         2.2367         2.2768      1781.6211        59.4211       -24.6184         0.1076 
 2339.3944         8.7531         8.5386        80.5411        23.3832       119.3986         2.2969         6.7390      1853.8713        59.0987       -24.7041         0.1526 
 2339.5468         8.7167         8.1990        77.1691        21.4547       124.0893         7.6453        11.6685      1926.2089        58.7763       -24.7897         0.1620 
 2339.6992         8.7401         7.8595        76.4722        19.5257       128.7801        12.4765        16.5980      1982.3840        58.4540       -24.8754         0.0625 
 2339.8516         8.7790         7.5199        78.2844        18.0779       133.4708        17.5306        20.4714      1983.8217        58.1316       -24.9611         0.0939 
 2340.0040         8.7947         7.5199        84.2012        18.0988       133.4708        20.5634        20.4714      1928.5217        58.1316       -24.9611         0.1590 
 2340.1564         8.8076         7.7333        71.7413        19.5278       130.2410        20.4178        20.4714      1856.4058        57.1663       -24.9095         0.0953 
 2340.3088         8.7377         7.9467        68.7619        21.3601       127.0111        20.4409        20.4714      1784.2025        56.2009       -24.8578         0.0966 
 2340.4612         8.6986         8.1601        72.9272        22.7395       123.7813        20.4754        20.4714      1711.9591        55.2356       -24.8061         0.1663 
 2340.6136         8.6503         8.3735        70.0777        22.9232       120.5514        20.5455        20.4714      1639.8147        54.2702       -24.7544         0.1078 
 2340.7660         8.6558         8.5870        71.4422        22.3927       117.3216        20.4368        20.4714      1568.8938        53.3049       -24.7027         0.0860 
 2340.9184         8.6620         8.8004        80.1485        22.1966       114.0917        20.4915        20.4714      1555.4602        52.3395       -24.6511         0.1194 
 2341.0708         8.6632         8.8004        69.8248        22.1260       114.0917        20.4915        20.4714      1644.1420        52.3395       -24.6511         0.0176 
 2341.2232         8.6976         8.5957        71.7175        21.7843       117.0953        20.4915        20.4714      1749.3005        52.1577       -24.7052         0.0404 
 2341.3756         8.7148         8.3910        85.6562        21.4757       120.0990        12.2267        14.2310      1811.1511        51.9758       -24.7593         0.1466 
 2341.5280         8.7371         8.1863        86.4669        21.0534       123.1026        13.7981        14.9615      1830.0571        51.7940       -24.8134         0.1693 
 2341.6804         8.7417         7.9816        68.8829        20.3332       126.1062        15.2591        16.4226      1803.4784        51.6121       -24.8675         0.0669 
 2341.8328         8.7440         7.7769        64.7035        20.3964       129.1098        16.7201        17.8836      1744.6752        51.4303       -24.9217         0.0583 
 2341.9852         8.7768         7.5722        64.1526        22.0739       132.1135        18.1811        20.0751      1677.8308        51.2484       -24.9758         0.0044 
 2342.1376         8.7970         7.5722        72.7426        23.8557       132.1135        20.5115        13.4610      1611.0127        51.2484       -24.9758         0.0076 
 2342.2900         8.8004         7.8802        68.8597        24.4152       127.6384        13.6809        14.5134      1544.1138        50.1200       -25.1517        -0.0445 
 2342.4424         8.8174         8.1881        67.6788        24.3340       123.1634        14.7334        16.2187      1477.1779        48.9916       -25.3276        -0.0815 
 2342.5948         8.8170         8.4961        66.7704        24.4763       118.6884        16.2387        11.3641      1410.3335        47.8631       -25.5036        -0.0482 
 2342.7472         8.8005         8.8041        68.8211        25.4680       114.2134        11.7070        12.0725      1343.5154        46.7347       -25.6795         0.0047 
 2342.8996         8.7997         9.1121        68.1028        26.9002       109.7384        12.3288        13.3162      1276.6163        45.6063       -25.8554        -0.0306 
 2343.0520         8.8179         9.1121        66.9999        27.4005       109.7384        13.5725        14.5599      1218.2317        45.6063       -25.8554        -0.0559 
 2343.2044         8.8191         9.9023        69.7530        26.0369       103.9591        14.8161        15.8977      1208.2758        44.5930       -25.7511         0.0251 
 2343.3568         8.8416        10.6925        67.2132        22.9701        98.1799        15.9178        10.1986      1264.7599        43.5797       -25.6468         0.1797 
 2343.5092         8.8644        11.4827        67.2067        20.1070        92.4007         9.2778        12.4480      1343.7186        42.5665       -25.5425         0.1714 
 2343.6616         8.8577        12.2729        66.3007        18.5341        86.6215        13.3224        19.1959      1422.7214        41.5532       -25.4383         0.1410 
 2343.8140         8.8828        13.0631        64.0195        19.3664        80.8423        20.2106        15.4363      1501.6511        40.5399       -25.3340         0.0925 
 2343.9664         8.9058        13.8533        64.8997        23.7205        75.0631        15.4564        16.8642      1535.5848        39.5267       -25.2297         0.0627 
 2344.1188         8.9353        13.8533        65.7569        28.2932        75.0631        18.9857        20.3711      1470.1560        39.5267       -25.2297         0.0334 
 2344.2712         8.9068        16.0622        66.4572        30.4733        68.0833         5.2457        20.3711      1344.9043        38.4381       -25.0938         0.0677 
 2344.4236         8.8709        18.2710        66.1273        32.3638        61.1035        10.1000        20.3711      1258.0142        37.3496       -24.9579         0.1153 
 2344.5760         8.8606        20.4799        63.9186        34.9374        54.1238        14.7740        18.5403      1286.6030        36.2610       -24.8220         0.1836 
 2344.7284         8.8593        22.6887        62.9793        37.6891        47.1440        20.3912        20.3711      1393.4507        35.1725       -24.6861         0.1725 
