~VERSION INFORMATION
 VERS.                 2.0:   CWLS LOG ASCII STANDARD - VERSION 2.0
 WRAP.                  NO:   SINGLE LINE PER DEPTH STEP
~WELL INFORMATION
#MNEM.UNIT       DATA           DESCRIPTION MNEMONIC
#---------    -------------   --------------------------
 STRT.M         403.0000                      : START DEPTH
 STOP.M         3050.0356                     : STOP DEPTH
 STEP.M         0.1524                        : STEP VALUE
 NULL.          -999.0000                     : NULL VALUE
 SRVC.          PYPOZO                        : Service Company/Logging company
 DATE.          03/07/2025                    : LAS file Creation Date
 WELL    .      PALMA SOLA NORTE-1             : Well Name
 COMP    .      PYPOZO 2.0                    : Company
 FLD     .      UNKNOWN                       : Field
 LOC     .      UNKNOWN                       : Location
 LATI    .      0                             : Latitude/Northing
 LONG    .      0                             : Longitude/Easting
 APDAT   .      0                             : Elevation Above Permanent Datum
~CURVE INFORMATION
#MNEM          UNIT     API CODE   Curve Type Comments
#---------- ---------- ----------  ---------- --------
 DEPTH     .M                    : Depth      
 CALI      .IN                         : CALI       
 CILD      .MM/M                       : CILD       
 DT        .US/F                       : DT         
 GR        .GAPI                       : GR         
 ILD       .OHMM                       : ILD        
 MINV      .OHMM                       : MINV       
 MNOR      .OHMM                       : MNOR       
 NEUT      .NAPI                       : NEUT       
 SN        .OHMM                       : SN         
 SP        .MV                         : SP         
 SPHI      .V/V                        : SPHI       
~A Log data section
# ...
 2520.1408         7.7221        47.6648        60.1893        60.4683        33.0449        29.9347        29.7514      3069.6990        46.1849       -87.0571         0.1388 
 2520.2932         7.9757        47.0615        57.9946        66.5396        33.8967        31.0291        32.3982      3039.8425        47.1089       -86.6290         0.1458 
 2520.4456         7.9759        45.7934        61.5053        72.7417        35.9823        37.0186        37.9820      2698.3273        48.0329       -86.2008         0.1705 
 2520.5980         7.9709        43.7767        61.8606        76.8904        40.3451        35.8573        33.6333      2413.4907        48.9569       -85.6219         0.1730 
 2520.7504         7.9528        41.8746        61.4615        79.5838        45.7223        31.4149        29.1495      2170.2794        49.8809       -85.0415         0.1702 
 2520.9028         7.6487        40.7200        59.2967        81.4937        49.6065        26.9796        21.2270      1980.1080        50.8049       -84.3131         0.1335 
 2521.0552         7.6529        40.8300        56.9137        82.6549        49.0426        21.2917        23.9701      1812.2949        50.8049       -83.8689         0.1167 
 2521.2076         7.9799        39.0930        53.0010        86.5772        50.6583        23.1947        26.3800      2002.9489        53.0705       -83.2740         0.1107 
 2521.3600         8.0091        37.4543        52.2759        85.6130        52.2364        11.8771        12.5107      2182.3536        55.3360       -82.6131         0.1056 
 2521.5124         8.0317        36.1407        52.7253        77.3997        53.2613        18.3180        19.8138      2361.7582        57.6015       -81.9043         0.1087 
 2521.6648         8.0199        36.7885        54.7026        67.0198        51.4547        29.8499        32.4013      2541.1628        59.8670       -81.1954         0.1227 
 2521.8172         7.9862        42.3934        56.2940        63.1130        48.0023        44.7368        51.9940      2737.6379        62.1325       -80.4866         0.1339 
 2521.9696         7.6420        43.2363        67.2536        63.4870        49.5345        44.7354        26.6731      2632.4067        64.3980       -79.7778         0.1876 
 2522.1220         7.6333        42.0349        67.0184        72.5340        50.1225        29.6365        32.7432      2426.0967        64.3980       -79.3934         0.1860 
 2522.2744         7.9381        40.1660        55.5870        80.5924        50.5011        36.5528        23.5945      2203.9577        63.7961       -79.8184         0.1289 
 2522.4268         7.9394        39.1967        54.1854        88.7763        50.4120        31.7416        32.3917      2125.3458        63.1942       -80.1661         0.1191 
 2522.5792         7.9516        38.4344        53.9670        96.9817        50.2343        32.9972        40.1415      2103.6756        62.5923       -80.9410         0.1176 
 2522.7316         7.9720        37.5245        54.7809       105.2155        50.1645        35.7653        49.3749      2139.2061        61.9903       -80.9301         0.1233 
 2522.8840         7.6632        36.1745        60.0355       112.7798        50.4555        38.5060        59.0650      2155.8655        61.3884       -80.7843         0.1380 
 2523.0364         7.6685        33.6882        60.4315       113.0169        52.7663        37.1868        37.5533      2137.5513        61.3884       -80.4833         0.1409 
 2523.1888         7.9673        29.1353        55.7755       106.5707        57.7776        36.4759        28.1630      2077.4653        59.3606       -80.1189         0.1304 
 2523.3412         7.9364        25.3409        55.2764        96.7259        63.5707        33.9865        26.8858      2072.0338        57.3327       -79.9051         0.1269 
 2523.4936         7.8930        22.8789        54.0473        86.9360        67.6445        31.9869        29.1951      2098.3267        55.3048       -79.5402         0.1182 
 2523.6460         7.8886        21.9125        53.2310        74.8802        67.2969        30.9846        31.7886      2175.0525        53.2770       -79.3239         0.1125 
 2523.7984         7.8997        21.6107        54.5626        76.1864        65.1073        35.5273        38.7974      2258.6716        51.2491       -79.1073         0.1219 
 2523.9508         7.6339        21.3167        58.5151        80.7109        63.3274        24.0474        53.6755      2329.1866        49.2213       -78.7401         0.1274 
 2524.1032         7.6537        21.4887        59.1692        86.5512        62.9250        22.2813        22.5602      2356.1849        49.2213       -78.4471         0.1321 
 2524.2556         7.9586        27.4760        54.5230        91.3409        59.5679        28.9683        32.2016      2333.6926        44.2578       -78.2999         0.1216 
 2524.4080         7.9510        33.5771        54.7150        92.1799        56.0315        38.9752        39.7792      2272.8013        39.2943       -78.1527         0.1230 
 2524.5604         7.9323        40.1714        55.0245        91.7816        51.2279        38.7645        38.0638      2223.9714        34.3308       -78.0050         0.1252 
 2524.7128         7.9160        47.0134        54.7406        91.6965        45.7203        37.3893        36.6304      2176.0603        29.3673       -77.7076         0.1232 
 2524.8652         7.6214        53.9527        59.8696        90.7427        39.9520        37.3494        36.5191      2121.7869        24.4038       -77.5597         0.1368 
 2525.0176         7.6275        54.3016        61.5232        90.3580        39.0280        25.0195        24.7051      1989.5956        24.4038       -77.5389         0.1485 
 2525.1700         7.9317        50.1892        62.0761        90.1786        47.1351        24.2620        24.5072      1882.0719        26.4829       -77.5553         0.1749 
 2525.3224         7.9380        46.7860        64.9117        89.8828        52.7041        38.0957        39.3899      1755.1299        28.5621       -77.5423         0.1949 
 2525.4748         7.9399        44.4228        65.1565        89.4263        54.7573        26.5848        25.5652      1717.8368        30.6412       -77.6802         0.1967 
 2525.6272         7.9519        42.2129        61.1820        85.9262        55.8972        20.1021        19.1043      1815.8267        32.7203       -77.8181         0.1687 
 2525.7796         7.9914        40.5020        55.2823        84.1513        53.9030        12.4096        11.1794      1981.5060        34.7995       -77.8052         0.1271 
 2525.9320         7.6993        39.4220        60.4977        81.0926        49.1325        10.3416        10.6416      2142.5502        36.8786       -77.9432         0.1413 
 2526.0844         7.6518        40.9825        60.8179        79.6242        43.3640        33.3202        38.0279      2322.1934        36.8786       -78.1015         0.1436 
 2526.2368         7.9240        44.3039        57.4865        78.7032        38.1248        32.5593        16.4636      2327.3946        36.6283       -78.3242         0.1427 
 2526.3892         7.9520        49.5508        61.2112        82.3626        32.7552        30.6192        23.5645      2225.6632        36.3779       -78.5469         0.1690 
 2526.5416         7.8843        57.4696        70.3903        87.5881        28.3112        26.0798        30.9316      2088.5291        36.1276       -78.7697         0.2337 
 2526.6940         7.8735        61.8592        69.8353        90.6860        27.0604        36.4963        43.9654      1947.2064        35.8773       -78.8415         0.2298 
 2526.8464         7.8862        62.3208        61.2490        84.7024        27.7648        46.7325        31.0229      1904.0801        35.6269       -78.9134         0.1693 
 2526.9988         7.6004        61.2324        65.7937        76.3720        29.1372        36.3968        25.5578      1987.9907        35.3766       -78.9854         0.1789 
