~VERSION INFORMATION
 VERS.                 2.0:   CWLS LOG ASCII STANDARD - VERSION 2.0
 WRAP.                  NO:   SINGLE LINE PER DEPTH STEP
~WELL INFORMATION
#MNEM.UNIT       DATA           DESCRIPTION MNEMONIC
#---------    -------------   --------------------------
 STRT.M         403.0000                      : START DEPTH
 STOP.M         3050.0356                     : STOP DEPTH
 STEP.M         0.1524                        : STEP VALUE
 NULL.          -999.0000                     : NULL VALUE
 SRVC.          PYPOZO                        : Service Company/Logging company
 DATE.          03/07/2025                    : LAS file Creation Date
 WELL    .      PALMA SOLA NORTE-1             : Well Name
 COMP    .      PYPOZO 2.0                    : Company
 FLD     .      UNKNOWN                       : Field
 LOC     .      UNKNOWN                       : Location
 LATI    .      0                             : Latitude/Northing
 LONG    .      0                             : Longitude/Easting
 APDAT   .      0                             : Elevation Above Permanent Datum
~CURVE INFORMATION
#MNEM          UNIT     API CODE   Curve Type Comments
#---------- ---------- ----------  ---------- --------
 DEPTH     .M                    : Depth      
 CALI      .IN                         : CALI       
 CILD      .MM/M                       : CILD       
 DT        .US/F                       : DT         
 GR        .GAPI                       : GR         
 ILD       .OHMM                       : ILD        
 MINV      .OHMM                       : MINV       
 MNOR      .OHMM                       : MNOR       
 NEUT      .NAPI                       : NEUT       
 SN        .OHMM                       : SN         
 SP        .MV                         : SP         
 SPHI      .V/V                        : SPHI       
~A Log data section
# ...
 1636.8304        11.2242       178.4592        74.6671        31.4820         5.7573         4.7560         2.6386       932.3262         6.8704       -37.6136         0.2147 
 1636.9828        11.3152       179.0137        72.0621        36.8907         5.7413         3.0229         2.0244       904.8207         6.8405       -37.5449         0.1969 
 1637.1352        11.3477       179.0137        70.7503        41.0421         5.7413         2.0935         1.1735       882.7997         6.8405       -37.5449         0.1878 
 1637.2876        11.3202       161.9359        71.7447        42.3648         6.7133         1.3541         1.4945       872.2042         6.7373       -37.8648         0.1947 
 1637.4400        11.0874       144.8581        72.3603        43.3970         7.6852        14.8767        15.0171       874.2935         6.6340       -38.1848         0.1989 
 1637.5924        11.0356       127.7803        73.8315        44.8261         8.6572         8.8156         8.9560       901.2447         6.5307       -38.5047         0.2090 
 1637.7448        11.0015       110.7026        72.1043        41.3415         9.6291         7.8858         8.0263       944.8998         6.4274       -38.8247         0.1971 
 1637.8972        11.0489        93.6248        69.4880        34.0215        10.6011         6.2390         6.3795       966.7302         6.3242       -39.1446         0.1792 
 1638.0496        11.0638        93.6248        74.1769        31.5155        10.6011         4.3831         3.7412       972.4455         6.3242       -39.1446         0.2114 
 1638.2020        11.0874       165.8261        84.0239        31.3975         9.1603         6.8513         6.6615       974.8985         5.6941       -38.8853         0.2790 
 1638.3544        11.0766       238.0275        93.9728        30.5390         7.7195         4.6841         3.8760       974.6648         5.0640       -38.6260         0.3473 
 1638.5068        11.0524       310.2288       106.7560        29.4523         6.2787         5.0996         5.2400       971.5058         4.4339       -38.3667         0.4351 
 1638.6592        11.0071       382.4302       113.5845        29.2950         4.8379         6.7503         6.8907       966.1772         3.8038       -38.1074         0.4820 
 1638.8116        10.9735       454.6316       113.3501        31.6818         3.3970         5.9679         6.1083       961.5433         3.1737       -37.8481         0.4804 
 1638.9640        10.9154       526.8329       110.5329        34.0863         1.9562         8.2336         8.3740       964.7067         2.5436       -37.5888         0.4611 
 1639.1164        10.9069       526.8329       113.6152        33.1837         1.9562         5.1935         3.4604       993.2586         2.5436       -37.5888         0.4822 
 1639.2688        10.8577       522.9070       102.4737        32.2322         2.0078        11.7695         5.5608      1050.7653         3.0748       -37.6644         0.4057 
 1639.4212        10.7779       518.9811        90.8531        32.9712         2.0594        18.6058         9.8373      1114.9630         3.6059       -37.7399         0.3259 
 1639.5736        10.8018       515.0552        82.3760        34.2654         2.1109        16.9894        15.7372      1177.9307         4.1371       -37.8155         0.2677 
 1639.7260        10.8479       511.1293        83.1526        35.1168         2.1625        11.2344         3.8415      1222.9226         4.6682       -37.8910         0.2730 
 1639.8784        10.8531       507.2034        70.5932        35.7251         2.2141         4.0622         4.2026      1226.8549         5.1994       -37.9666         0.1868 
 1640.0308        10.8273       507.2034        72.9883        36.1960         2.2141        11.1567        11.2971      1204.4397         5.1994       -37.9666         0.2032 
 1640.1832        10.7709       449.2579        70.5807        36.3801         3.0948        18.9067        19.0471      1176.8760         5.3277       -38.0916         0.1867 
 1640.3356        10.7207       391.3124        71.0691        36.4073         3.9756        14.2441        14.3845      1149.3145         5.4560       -38.2165         0.1900 
 1640.4880        10.9903       333.3670        78.0026        35.9616         4.8564         9.1639         9.3680      1121.7507         5.5843       -38.3415         0.2377 
 1640.6404        11.4172       275.4215        83.1365        34.9952         5.7371         4.1441         4.3516      1094.1893         5.7126       -38.4664         0.2729 
 1640.7928        11.0564       217.4760        81.2361        34.2809         6.6179         0.3492         0.5316      1066.6256         5.8409       -38.5914         0.2599 
 1640.9452        12.5013       159.5306        84.2377        33.7735         7.4986         0.7272         0.8927      1039.0641         5.9692       -38.7164         0.2805 
 1641.0976        13.9290       159.5306        78.3623        33.2642         7.4986         1.2419         1.4142      1011.5004         5.9692       -38.7164         0.2401 
 1641.2500        13.8160       172.5602        76.9708        32.7578         6.9490         0.6388         0.7523       983.9389         6.0673       -38.9626         0.2306 
 1641.4024        12.9182       185.5898        79.8503        32.3452         6.3993         0.5573         0.8526       956.3751         6.1654       -39.2089         0.2503 
 1641.5548        11.0898       198.6195        77.5629        32.0648         5.8496         5.7602         6.1524       928.8074         6.2635       -39.4552         0.2346 
 1641.7072        10.6558       211.6491        74.7571        31.4751         5.3000        12.8859        13.3836       901.2383         6.3616       -39.7015         0.2154 
 1641.8596        10.6954       224.6787        75.1461        30.2918         4.7503        18.0359        18.6259       873.6874         6.4596       -39.9477         0.2180 
 1642.0120        10.7638       224.6787        76.0989        29.0489         4.7503         8.3397         8.8365       846.1259         6.4596       -39.9477         0.2246 
 1642.1644        10.8498       218.6076        76.1237        28.8449         4.8721         8.4435         9.0973       818.5621         6.5276       -39.8007         0.2248 
 1642.3168        10.9078       212.5365        75.2426        30.1372         4.9939         9.4607         2.3771       791.0007         6.5955       -39.6536         0.2187 
 1642.4692        10.8217       206.4653        75.9171        31.9469         5.1157         1.8687         5.1051       763.4370         6.6635       -39.5065         0.2233 
 1642.6216        10.8199       200.3942        75.0273        33.6163         5.2375         2.3898         9.8428       735.8755         6.7314       -39.3594         0.2172 
 1642.7740        10.8476       194.3230        74.9144        34.7033         5.3593         3.6806        14.5805       714.6707         6.7994       -39.2123         0.2164 
 1642.9264        10.7407       188.2519        76.2037        35.2117         5.4811         5.0885         1.3139       721.1803         6.8673       -39.0652         0.2253 
 1643.0788        10.5955       188.2519        74.9664        35.5368         5.4811         5.8955         3.5300       761.6494         6.8673       -39.0652         0.2168 
 1643.2312        10.5643       183.8754        72.1425        35.4291         5.6461         6.3089         6.4493       813.0657         6.9064       -38.9441         0.1974 
 1643.3836        10.5846       179.4990        68.9927        35.0491         5.8111         3.8415         3.5005       864.4863         6.9454       -38.8230         0.1758 
 1643.5360        10.5927       175.1225        68.8209        34.9100         5.9761         6.7289         6.7073       915.8967         6.9845       -38.7019         0.1746 
 1643.6884        10.6110       170.7461        71.4735        34.9595         6.1411         5.1856         4.6239       969.9178         7.0235       -38.5808         0.1928 
