~VERSION INFORMATION
 VERS.                 2.0:   CWLS LOG ASCII STANDARD - VERSION 2.0
 WRAP.                  NO:   SINGLE LINE PER DEPTH STEP
~WELL INFORMATION
#MNEM.UNIT       DATA           DESCRIPTION MNEMONIC
#---------    -------------   --------------------------
 STRT.M         403.0000                      : START DEPTH
 STOP.M         3050.0356                     : STOP DEPTH
 STEP.M         0.1524                        : STEP VALUE
 NULL.          -999.0000                     : NULL VALUE
 SRVC.          PYPOZO                        : Service Company/Logging company
 DATE.          03/07/2025                    : LAS file Creation Date
 WELL    .      PALMA SOLA NORTE-1             : Well Name
 COMP    .      PYPOZO 2.0                    : Company
 FLD     .      UNKNOWN                       : Field
 LOC     .      UNKNOWN                       : Location
 LATI    .      0                             : Latitude/Northing
 LONG    .      0                             : Longitude/Easting
 APDAT   .      0                             : Elevation Above Permanent Datum
~CURVE INFORMATION
#MNEM          UNIT     API CODE   Curve Type Comments
#---------- ---------- ----------  ---------- --------
 DEPTH     .M                    : Depth      
 CALI      .IN                         : CALI       
 CILD      .MM/M                       : CILD       
 DT        .US/F                       : DT         
 GR        .GAPI                       : GR         
 ILD       .OHMM                       : ILD        
 MINV      .OHMM                       : MINV       
 MNOR      .OHMM                       : MNOR       
 NEUT      .NAPI                       : NEUT       
 SN        .OHMM                       : SN         
 SP        .MV                         : SP         
 SPHI      .V/V                        : SPHI       
~A Log data section
# ...
 2695.4008         7.8201         1.7131        48.4548       149.6483       879.2291        55.1369        48.8803      3224.3777       369.4845       -96.8585         0.0934 
 2695.5532         7.8174         1.6647        47.6302       147.4799       866.3301        51.4104        54.2912      3161.6299       366.9520       -96.9272         0.0876 
 2695.7056         7.8184         1.6158        47.0114       143.9975       854.6314        44.2434        41.6750      3109.5820       364.4195       -96.6929         0.0833 
 2695.8580         7.5196         1.5641        51.1553       143.4012       847.2517        48.0465        46.3377      3078.5274       361.8869       -96.7616         0.0838 
 2696.0104         7.5143         1.5682        51.4689       156.9924       841.6327        51.6173        48.7082      3166.6645       361.8869       -96.7556         0.0860 
 2696.1628         7.8071         1.7811        48.0664       160.9488       837.5384        48.3893        49.6317      3345.5058       359.6018       -96.8226         0.0908 
 2696.3152         7.8120         1.9867        48.1673       163.9838       843.5201        43.0559        43.9951      3520.8358       357.3168       -96.8123         0.0915 
 2696.4676         7.8076         2.1868        47.1840       161.2350       857.4862        39.1679        38.7436      3654.3075       355.0317       -96.7339         0.0846 
 2696.6200         7.7886         2.3901        47.1224       162.1873       866.9914        44.4374        43.2396      3894.5339       352.7466       -96.6553         0.0842 
 2696.7724         7.7954         2.5957        46.7215       155.9819       873.4146        50.8926        48.7419      3980.0702       350.4616       -96.2733         0.0814 
 2696.9248         7.5036         2.8031        50.1543       147.3110       877.3210        56.8689        54.6429      4049.8056       348.1765       -95.8384         0.0769 
 2697.0772         7.5226         2.8025        50.3792       144.2878       878.2050        61.2992        62.6114      4188.1295       348.1765       -95.4847         0.0785 
 2697.2296         7.8432         2.5428        47.2532       144.6722       874.9601        55.2260        48.5425      4230.8936       345.7348       -95.5496         0.0851 
 2697.3820         7.8530         2.2941        48.1808       150.8809       855.6388        55.2936        53.1830      4220.9773       343.2930       -95.4976         0.0916 
 2697.5344         7.8353         2.0563        48.6868       158.8386       823.4587        53.7096        37.7056      4190.7093       340.8513       -95.6796         0.0952 
 2697.6868         7.8304         1.7992        48.9176       166.9455       817.4513        55.2905        56.8645      4046.3043       338.4096       -95.6163         0.0969 
 2697.8392         7.8300         1.5241        48.7985       175.2568       834.7155        55.3100        43.5272      3894.2523       335.9678       -95.6579         0.0960 
 2697.9916         7.5592         1.2466        51.0791       181.2351       856.3347        58.1938        57.5636      3742.2391       333.5261       -95.2680         0.0835 
 2698.1440         7.5589         1.2320        50.4885       175.1150       878.0088        60.6409        59.8249      3604.3081       333.5261       -95.4123         0.0793 
 2698.2964         7.8102         1.2756        47.2748       160.2008       880.4655        58.7499        38.3721      3479.1645       330.2252       -95.3076         0.0854 
 2698.4488         7.8005         1.3270        47.2723       135.8785       871.5762        56.3746        49.8098      3356.7713       326.9243       -95.3545         0.0854 
 2698.6012         7.8129         1.3904        47.2866       111.4879       845.9602        57.3156        56.0903      3290.6116       323.6234       -95.0980         0.0855 
 2698.7536         7.8087         1.4603        47.4618        94.1444       813.9048        59.0279        20.5217      3294.3274       320.3225       -94.8417         0.0867 
 2698.9060         7.5512         1.5092        53.1616        83.0754       809.7530        60.3632        47.8219      3317.9597       317.0217       -94.5854         0.0977 
 2699.0584         7.5590         1.5081        53.4967        81.9643       810.9653        38.4833        30.1015      3391.2942       317.0217       -94.5779         0.1001 
 2699.2108         7.8200         1.6242        55.5699        78.8719       766.1340        39.7950        37.2684      3486.6110       313.0562       -94.5503         0.1439 
 2699.3632         7.8320         1.6960        58.9217        79.2300       768.9939        47.8767        45.3535      3584.5023       309.0907       -94.5228         0.1675 
 2699.5156         7.8447         1.7375        62.9314        80.0213       806.3689        52.4967        50.0212      3674.1403       305.1252       -94.4953         0.1965 
 2699.6680         7.8522         1.7833        65.3511        82.9174       843.7439        57.5116        55.2683      3731.8080       301.1597       -94.3163         0.1550 
 2699.8204         7.8616         1.8374        47.6119        88.2322       873.4795        60.5884        60.3853      3762.5805       297.1942       -93.9857         0.0879 
 2699.9728         7.5589         1.9062        50.3881        96.6098       882.5714        57.8248        57.5652      3766.4828       293.2288       -93.9598         0.0787 
 2700.1252         7.5364         1.9058        53.1288       107.5510       883.1734        52.8366        52.6115      3698.4132       293.2288       -93.8029         0.0980 
 2700.2776         7.7745         1.9054        57.0732       119.3510       884.1179        40.9341        39.2646      3578.2060       290.1795       -94.0719         0.1546 
 2700.4300         7.7484         1.9269        58.3599       129.1834       852.9454        37.2634        18.1846      3571.4565       287.1303       -94.4093         0.1636 
 2700.5824         7.7636         2.0011        58.3670       131.4905       767.5733        35.1061        22.3178      3556.1908       284.0811       -94.4874         0.1637 
 2700.7348         7.7990         2.0905        58.4717       133.2890       688.5875        29.2378        27.6069      3472.2326       281.0319       -93.9158         0.1645 
 2700.8872         7.5270         2.1553        57.2293       141.4719       644.8928        35.8227        35.0274      3512.9426       277.9827       -94.0358         0.1267 
 2701.0396         7.5489         2.2157        55.3498       139.5061       612.1462        50.1292        47.5750      3468.7696       277.9827       -94.3340         0.1135 
 2701.1920         7.8208         2.2887        46.8298       141.1367       579.2658        58.2007        55.4127      3401.8000       281.8737       -94.2409         0.0825 
 2701.3444         7.7893         2.3785        51.7479        99.6751       546.4026        56.8339        56.5926      3398.1083       285.7646       -93.6985         0.1171 
 2701.4968         7.7935         2.3312        55.9980        92.4575       563.8565        52.7940        51.5076      3395.2700       289.6556       -93.1393         0.1471 
 2701.6492         7.7990         2.1931        56.1266        87.5701       626.9662        55.6171        55.1749      3371.5545       293.5466       -92.5670         0.1480 
 2701.8016         7.7810         2.1933        56.2340        86.0932       623.4893        57.6613        57.1860      3356.5874       297.4375       -92.2500         0.1488 
 2701.9540         7.5060         2.3450        60.2547        86.3937       560.1342        59.5849        59.2529      3402.3937       301.3285       -91.5206         0.1477 
 2702.1064         7.5106         2.6270        58.0443        86.7851       486.2638        35.9145        53.1312      3458.7914       301.3285       -90.9221         0.1321 
 2702.2588         7.7637         2.8221        45.6975        88.6364       493.0681        23.4871        23.2404      3511.1714       303.5400       -91.0958         0.0746 
