~VERSION INFORMATION
 VERS.                 2.0:   CWLS LOG ASCII STANDARD - VERSION 2.0
 WRAP.                  NO:   SINGLE LINE PER DEPTH STEP
~WELL INFORMATION
#MNEM.UNIT       DATA           DESCRIPTION MNEMONIC
#---------    -------------   --------------------------
 STRT.M         1000.0000                      : START DEPTH
 STOP.M         1500.0000                     : STOP DEPTH
 STEP.M         0.5000                        : STEP VALUE
 NULL.          -999.0000                     : NULL VALUE
 SRVC.          PYPOZO                        : Service Company/Logging company
 DATE.          02/07/2025                    : LAS file Creation Date
 WELL    .      TEST_WELL_1                    : Well Name
 COMP    .      PYPOZO 2.0                    : Company
 FLD     .      UNKNOWN                       : Field
 LOC     .      UNKNOWN                       : Location
 LATI    .      0                             : Latitude/Northing
 LONG    .      0                             : Longitude/Easting
 APDAT   .      0                             : Elevation Above Permanent Datum
~CURVE INFORMATION
#MNEM          UNIT     API CODE   Curve Type Comments
#---------- ---------- ----------  ---------- --------
 DEPTH     .M                    : Depth      
 CAL       .IN                         : CAL        
 DENS      .G/C3                       : DENS       
 GR        .GAPI                       : GR         
 NPHI      .V/V                        : NPHI       
 RES       .OHMM                       : RES        
 RT        .OHMM                       : RT         
 SP        .MV                         : SP         
~A Log data section
# ...
 1172.5000         9.2735      -999.0000        25.1790      -999.0000         5.6818         2.2271       -15.0070 
 1173.0000         9.1030      -999.0000        30.2647      -999.0000         5.9013         2.3204       -13.7199 
 1173.5000         9.4112      -999.0000        15.2170      -999.0000         5.6687         2.1237       -14.6385 
 1174.0000         9.7162      -999.0000        26.0590      -999.0000         5.7095         2.6677       -12.3413 
 1174.5000         9.2319      -999.0000        16.4451      -999.0000         5.6047         2.3296       -14.2757 
 1175.0000         9.4244      -999.0000         7.9514      -999.0000         5.4103         2.3823       -19.7344 
 1175.5000         8.9682      -999.0000        16.3790      -999.0000         5.7691         2.1784        -6.3491 
 1176.0000         9.0119      -999.0000        21.4569      -999.0000         5.4279         2.4175       -11.3102 
 1176.5000         9.2463      -999.0000        28.2240      -999.0000         5.6574         2.1186       -21.1634 
 1177.0000         9.6038      -999.0000        25.2283      -999.0000         5.5130         2.4958       -15.3594 
 1177.5000         9.4485      -999.0000        20.9871      -999.0000         5.8938         2.1491       -14.4730 
 1178.0000         8.7280      -999.0000        21.6640      -999.0000         5.4386         1.9379       -19.9278 
 1178.5000         9.0104      -999.0000        23.5574      -999.0000         5.6975         2.3627       -13.5522 
 1179.0000         9.3878      -999.0000        24.1054      -999.0000         5.8829         2.3078       -13.5754 
 1179.5000         9.4206      -999.0000        19.0355      -999.0000         5.3461         2.5022       -14.5822 
 1180.0000         9.2015      -999.0000        24.0042      -999.0000         5.3659         2.1016       -18.0030 
 1180.5000         9.0877      -999.0000        32.3903      -999.0000         5.5652         2.0813       -18.7884 
 1181.0000         9.0764      -999.0000        19.6274      -999.0000         5.3255         1.9799       -15.3644 
 1181.5000         9.7272      -999.0000        17.3430      -999.0000         5.4511         2.0585       -15.2992 
 1182.0000         9.0451      -999.0000        19.3962      -999.0000         5.4488         2.2166       -16.6491 
 1182.5000        10.0597      -999.0000        16.7922      -999.0000         5.5209         2.3233       -18.5970 
 1183.0000         8.8770      -999.0000        16.2902      -999.0000         5.6699         2.5402       -16.1470 
 1183.5000         9.6441      -999.0000        33.3302      -999.0000         5.5419         2.2942       -18.3436 
 1184.0000         9.2981      -999.0000         8.8674      -999.0000         5.4135         2.2613       -19.7406 
 1184.5000         9.0449      -999.0000        17.3591      -999.0000         5.2556         2.3274       -19.0611 
 1185.0000         9.6748      -999.0000        15.2838      -999.0000         5.6250         2.2156       -16.2461 
 1185.5000         9.4137      -999.0000        17.5072      -999.0000         5.5084         1.7441       -16.5129 
 1186.0000         9.2614      -999.0000        27.6539      -999.0000         5.5249         2.3641       -21.8682 
 1186.5000         8.9281      -999.0000        18.3673      -999.0000         5.5371         2.0733       -14.4898 
 1187.0000         9.0505      -999.0000        23.9011      -999.0000         5.3575         2.2996       -13.3784 
 1187.5000         9.1579      -999.0000        14.3144      -999.0000         5.5187         2.3200       -14.6664 
 1188.0000         9.3396      -999.0000        21.7721      -999.0000         5.3810         2.2092       -19.2353 
 1188.5000         9.0763      -999.0000         9.4965      -999.0000         5.3779         1.9671       -16.2396 
 1189.0000         8.9233      -999.0000        17.2781      -999.0000         5.6386         1.9610       -15.2938 
 1189.5000         9.0684      -999.0000        24.6009      -999.0000         5.2130         1.9962       -15.9423 
 1190.0000         9.6004      -999.0000        15.6159      -999.0000         5.2519         2.1669       -17.6880 
 1190.5000         9.2143      -999.0000        31.4328      -999.0000         5.2817         2.5213       -15.7054 
 1191.0000         9.1332      -999.0000        13.5862      -999.0000         5.2673         1.9515       -18.1481 
 1191.5000         9.2180      -999.0000        25.6334      -999.0000         5.2818         2.2609       -20.9610 
 1192.0000        10.0086      -999.0000        17.9177      -999.0000         5.4747         1.9557       -23.0565 
 1192.5000         8.9793      -999.0000        21.2459      -999.0000         5.0668         2.1372       -20.7292 
 1193.0000         9.1330      -999.0000         9.9447      -999.0000         5.2896         1.9194       -16.2932 
 1193.5000         8.8717      -999.0000        25.9420      -999.0000         5.5846         2.0487       -17.0491 
 1194.0000         8.6465      -999.0000        21.2655      -999.0000         5.2155         2.1142       -15.3725 
 1194.5000         9.0854      -999.0000        19.7714      -999.0000         5.3674         2.0650       -22.6746 
 1195.0000         9.6661      -999.0000        27.9911      -999.0000         5.3062         1.6884       -18.0334 
 1195.5000         8.6497      -999.0000        23.4920      -999.0000         5.1388         2.1965       -22.3571 
 1196.0000         9.1835      -999.0000        23.0397      -999.0000         5.1931         2.0789       -25.7815 
 1196.5000         8.8741      -999.0000        37.2906      -999.0000         5.1053         2.6111       -19.2251 
 1197.0000         9.3883      -999.0000        29.2643      -999.0000         5.0902         1.9540       -22.8910 
 1197.5000         8.9697      -999.0000        28.3504      -999.0000         5.1691         1.9151       -21.3219 
 1198.0000         8.7454      -999.0000        27.3695      -999.0000         5.3185         1.8426       -25.9683 
 1198.5000         8.9168      -999.0000        15.5706      -999.0000         5.1084         1.8668       -26.1484 
 1199.0000         8.7272      -999.0000        25.8100      -999.0000         5.2589         2.0949       -21.6496 
 1199.5000         9.1276      -999.0000        23.8817      -999.0000         5.1280         1.9658       -20.4407 
 1200.0000         8.7949      -999.0000        24.2290      -999.0000         4.8635         1.9911       -28.0657 
 1200.5000         8.7949      -999.0000        27.0911      -999.0000         5.1349         1.9895       -28.0657 
 1201.0000         8.7949      -999.0000        17.0031      -999.0000         4.8328         1.9064       -28.0657 
 1201.5000      -999.0000      -999.0000        21.1507      -999.0000         5.0080         2.3748      -999.0000 
 1202.0000      -999.0000      -999.0000        26.1623      -999.0000         5.3232         2.1454      -999.0000 
 1202.5000      -999.0000      -999.0000        21.1605      -999.0000         5.2032         2.2496      -999.0000 
 1203.0000      -999.0000      -999.0000        26.4161      -999.0000         5.3192         1.9166      -999.0000 
 1203.5000      -999.0000      -999.0000        16.4381      -999.0000         5.0158         2.0197      -999.0000 
 1204.0000      -999.0000      -999.0000        32.4083      -999.0000         5.1674         1.8613      -999.0000 
 1204.5000      -999.0000      -999.0000        47.4655      -999.0000         5.1593         1.9464      -999.0000 
 1205.0000      -999.0000      -999.0000         8.7375      -999.0000         5.1625         1.9932      -999.0000 
 1205.5000      -999.0000      -999.0000        22.7088      -999.0000         4.8288         2.0015      -999.0000 
 1206.0000      -999.0000      -999.0000        31.1274      -999.0000         4.8896         1.7700      -999.0000 
 1206.5000      -999.0000      -999.0000        46.1562      -999.0000         4.8433         2.2505      -999.0000 
