~VERSION INFORMATION
 VERS.                 2.0:   CWLS LOG ASCII STANDARD - VERSION 2.0
 WRAP.                  NO:   SINGLE LINE PER DEPTH STEP
~WELL INFORMATION
#MNEM.UNIT       DATA           DESCRIPTION MNEMONIC
#---------    -------------   --------------------------
 STRT.M         1000.0000                      : START DEPTH
 STOP.M         1500.0000                     : STOP DEPTH
 STEP.M         0.5000                        : STEP VALUE
 NULL.          -999.0000                     : NULL VALUE
 SRVC.          PYPOZO                        : Service Company/Logging company
 DATE.          02/07/2025                    : LAS file Creation Date
 WELL    .      TEST_WELL_1                    : Well Name
 COMP    .      PYPOZO 2.0                    : Company
 FLD     .      UNKNOWN                       : Field
 LOC     .      UNKNOWN                       : Location
 LATI    .      0                             : Latitude/Northing
 LONG    .      0                             : Longitude/Easting
 APDAT   .      0                             : Elevation Above Permanent Datum
~CURVE INFORMATION
#MNEM          UNIT     API CODE   Curve Type Comments
#---------- ---------- ----------  ---------- --------
 DEPTH     .M                    : Depth      
 CAL       .IN                         : CAL        
 DENS      .G/C3                       : DENS       
 GR        .GAPI                       : GR         
 NPHI      .V/V                        : NPHI       
 RES       .OHMM                       : RES        
 RT        .OHMM                       : RT         
 SP        .MV                         : SP         
~A Log data section
# ...
 1276.0000      -999.0000      -999.0000        74.5006      -999.0000         3.4466         2.8943      -999.0000 
 1276.5000      -999.0000      -999.0000        83.8296      -999.0000         3.1157         2.5236      -999.0000 
 1277.0000      -999.0000      -999.0000        65.6106      -999.0000         3.2351         3.1491      -999.0000 
 1277.5000      -999.0000      -999.0000        78.7168      -999.0000         3.3051         3.0281      -999.0000 
 1278.0000      -999.0000      -999.0000        71.7725      -999.0000         3.1895         3.0959      -999.0000 
 1278.5000      -999.0000      -999.0000        76.3204      -999.0000         3.1343         3.0569      -999.0000 
 1279.0000      -999.0000      -999.0000        66.9704      -999.0000         3.0723         2.9705      -999.0000 
 1279.5000      -999.0000      -999.0000        85.8817      -999.0000         3.0473         2.4741      -999.0000 
 1280.0000      -999.0000      -999.0000        69.0061      -999.0000         2.8098         2.7803      -999.0000 
 1280.5000      -999.0000      -999.0000        74.9172      -999.0000         3.2563         3.0429      -999.0000 
 1281.0000      -999.0000      -999.0000        78.7384      -999.0000         3.1151         2.8644      -999.0000 
 1281.5000      -999.0000      -999.0000        85.2339      -999.0000         3.2254         2.7702      -999.0000 
 1282.0000      -999.0000      -999.0000        77.4319      -999.0000         3.1795         3.2001      -999.0000 
 1282.5000      -999.0000      -999.0000        81.6072      -999.0000         2.8291         2.8864      -999.0000 
 1283.0000      -999.0000      -999.0000        81.3514      -999.0000         2.9942         2.9673      -999.0000 
 1283.5000      -999.0000      -999.0000        83.0850      -999.0000         2.7780         2.8301      -999.0000 
 1284.0000      -999.0000      -999.0000        90.3845      -999.0000         3.2810         3.0539      -999.0000 
 1284.5000      -999.0000      -999.0000        85.5991      -999.0000         2.7161         2.9419      -999.0000 
 1285.0000      -999.0000      -999.0000        79.2985      -999.0000         2.9503         2.8687      -999.0000 
 1285.5000      -999.0000      -999.0000        81.3648      -999.0000         2.9337         3.0082      -999.0000 
 1286.0000      -999.0000      -999.0000        79.7444      -999.0000         3.1398         3.2051      -999.0000 
 1286.5000      -999.0000      -999.0000        80.7425      -999.0000         2.9527         2.8605      -999.0000 
 1287.0000      -999.0000      -999.0000        89.2268      -999.0000         3.1748         3.2719      -999.0000 
 1287.5000      -999.0000      -999.0000        64.9714      -999.0000         3.2838         2.9962      -999.0000 
 1288.0000      -999.0000      -999.0000        83.2364      -999.0000         3.0551         2.9922      -999.0000 
 1288.5000      -999.0000      -999.0000       100.7418      -999.0000         3.1038         3.2258      -999.0000 
 1289.0000      -999.0000      -999.0000        79.2970      -999.0000         2.8245         3.2653      -999.0000 
 1289.5000      -999.0000      -999.0000        85.7438      -999.0000         2.9504         2.9255      -999.0000 
 1290.0000      -999.0000      -999.0000        87.9319      -999.0000         2.9019         3.1702      -999.0000 
 1290.5000      -999.0000      -999.0000        87.0145      -999.0000         2.8346         3.2202      -999.0000 
 1291.0000      -999.0000      -999.0000        87.8307      -999.0000         3.0433         3.1500      -999.0000 
 1291.5000      -999.0000      -999.0000        90.6123      -999.0000         2.9827         3.3678      -999.0000 
 1292.0000      -999.0000      -999.0000        89.1612      -999.0000         2.9989         3.3016      -999.0000 
 1292.5000      -999.0000      -999.0000        90.1623      -999.0000         2.8588         3.3644      -999.0000 
 1293.0000      -999.0000      -999.0000        98.1933      -999.0000         2.8538         3.4558      -999.0000 
 1293.5000      -999.0000      -999.0000        91.7792      -999.0000         2.9390         3.0653      -999.0000 
 1294.0000      -999.0000      -999.0000        87.3390      -999.0000         2.6480         3.1541      -999.0000 
 1294.5000      -999.0000      -999.0000        87.5213      -999.0000         2.8453         3.4378      -999.0000 
 1295.0000      -999.0000      -999.0000        98.0443      -999.0000         3.0288         3.3262      -999.0000 
 1295.5000      -999.0000      -999.0000        81.5348      -999.0000         2.6915         3.6153      -999.0000 
 1296.0000      -999.0000      -999.0000        94.2534      -999.0000         2.7822         3.5616      -999.0000 
 1296.5000      -999.0000      -999.0000        78.6685      -999.0000         2.7496         3.7968      -999.0000 
 1297.0000      -999.0000      -999.0000        87.9629      -999.0000         2.6787         3.1344      -999.0000 
 1297.5000      -999.0000      -999.0000        85.1683      -999.0000         2.8107         3.9507      -999.0000 
 1298.0000      -999.0000      -999.0000        94.0220      -999.0000         2.8619         3.7788      -999.0000 
 1298.5000      -999.0000      -999.0000        93.2774      -999.0000         2.8469         3.7853      -999.0000 
 1299.0000      -999.0000         2.3680       104.4883         0.2401         2.7563         3.4755      -999.0000 
 1299.5000      -999.0000         2.3680        91.2187         0.2401         3.0422         3.5664      -999.0000 
 1300.0000      -999.0000         2.3680        84.3945         0.2401         2.6501         3.7445      -999.0000 
 1300.5000      -999.0000         2.3565        82.2947         0.3318         2.7951         3.9583      -999.0000 
 1301.0000      -999.0000         2.2996        81.8169         0.2653         2.9222         3.9999      -999.0000 
 1301.5000      -999.0000         2.3681        77.9209         0.3065         2.4445         3.8819      -999.0000 
 1302.0000      -999.0000         2.3233       101.1925         0.2515         2.8131         3.6635      -999.0000 
 1302.5000      -999.0000         2.4312        84.7257         0.2956         2.7436         3.5214      -999.0000 
 1303.0000      -999.0000         2.3961       101.4357         0.2893         2.6150         3.8333      -999.0000 
 1303.5000      -999.0000         2.2854        92.2519         0.2464         3.0719         3.9958      -999.0000 
 1304.0000      -999.0000         2.2864        88.7165         0.2876         2.6980         3.8887      -999.0000 
 1304.5000      -999.0000         2.4074        97.2177         0.3093         2.6127         3.9143      -999.0000 
 1305.0000      -999.0000         2.2914        94.2884         0.2840         2.6134         3.5226      -999.0000 
 1305.5000      -999.0000         2.5032        90.8471         0.2306         2.7742         3.5988      -999.0000 
 1306.0000      -999.0000         2.3019        96.5709         0.2418         2.7359         3.6912      -999.0000 
 1306.5000      -999.0000         2.3931        95.9860         0.3034         2.5611         3.9728      -999.0000 
 1307.0000      -999.0000         2.3380       110.3958         0.2827         2.5436         3.9045      -999.0000 
 1307.5000      -999.0000         2.3823        79.7301         0.2984         2.8249         4.2061      -999.0000 
 1308.0000      -999.0000         2.3631       103.5839         0.2873         2.5081         3.9888      -999.0000 
 1308.5000      -999.0000         2.3366        88.2746         0.2856         2.5187         3.4980      -999.0000 
 1309.0000      -999.0000         2.4334        88.3191         0.3102         2.7484         3.8165      -999.0000 
 1309.5000      -999.0000         2.4097        89.2386         0.2400         2.6086         3.8900      -999.0000 
 1310.0000      -999.0000         2.4007        82.7685         0.2871         2.4529         3.9205      -999.0000 
