~VERSION INFORMATION
 VERS.                 2.0:   CWLS LOG ASCII STANDARD - VERSION 2.0
 WRAP.                  NO:   SINGLE LINE PER DEPTH STEP
~WELL INFORMATION
#MNEM.UNIT       DATA           DESCRIPTION MNEMONIC
#---------    -------------   --------------------------
 STRT.M         1000.0000                      : START DEPTH
 STOP.M         1500.0000                     : STOP DEPTH
 STEP.M         0.5000                        : STEP VALUE
 NULL.          -999.0000                     : NULL VALUE
 SRVC.          PYPOZO                        : Service Company/Logging company
 DATE.          02/07/2025                    : LAS file Creation Date
 WELL    .      TEST_WELL_1                    : Well Name
 COMP    .      PYPOZO 2.0                    : Company
 FLD     .      UNKNOWN                       : Field
 LOC     .      UNKNOWN                       : Location
 LATI    .      0                             : Latitude/Northing
 LONG    .      0                             : Longitude/Easting
 APDAT   .      0                             : Elevation Above Permanent Datum
~CURVE INFORMATION
#MNEM          UNIT     API CODE   Curve Type Comments
#---------- ---------- ----------  ---------- --------
 DEPTH     .M                    : Depth      
 CAL       .IN                         : CAL        
 DENS      .G/C3                       : DENS       
 GR        .GAPI                       : GR         
 NPHI      .V/V                        : NPHI       
 RES       .OHMM                       : RES        
 RT        .OHMM                       : RT         
 SP        .MV                         : SP         
~A Log data section
# ...
 1310.5000      -999.0000         2.2759        83.6761         0.2621         2.5836         3.8226      -999.0000 
 1311.0000      -999.0000         2.3979        95.0088         0.3433         2.5511         4.0192      -999.0000 
 1311.5000      -999.0000         2.3252        87.9447         0.2738         2.6103         4.2250      -999.0000 
 1312.0000      -999.0000         2.3675        92.7290         0.2923         2.6315         3.9594      -999.0000 
 1312.5000      -999.0000         2.3746       100.8847         0.2531         2.6323         4.2276      -999.0000 
 1313.0000      -999.0000         2.3229        79.6997         0.2761         2.3378         4.1591      -999.0000 
 1313.5000      -999.0000         2.3323        92.0766         0.2465         2.4125         3.8908      -999.0000 
 1314.0000      -999.0000         2.3725        95.8322         0.2465         2.6443         4.0239      -999.0000 
 1314.5000      -999.0000         2.3572       101.2161         0.2972         2.6890         4.4718      -999.0000 
 1315.0000      -999.0000         2.5106       109.2739         0.2802         2.5149         3.8766      -999.0000 
 1315.5000      -999.0000         2.3906       100.4525         0.1697         2.6685         4.4157      -999.0000 
 1316.0000      -999.0000         2.4975       111.0050         0.2748         2.3720         3.9547      -999.0000 
 1316.5000      -999.0000         2.3668        98.1605         0.3252         2.5162         4.5253      -999.0000 
 1317.0000      -999.0000         2.3530        97.1199         0.3152         2.4872         4.5779      -999.0000 
 1317.5000      -999.0000         2.4109       106.7812         0.3022         2.5102         4.3673      -999.0000 
 1318.0000      -999.0000         2.4301        95.2914         0.3280         2.4530         4.3279      -999.0000 
 1318.5000      -999.0000         2.3156       107.4409         0.3106         2.2517         4.4799      -999.0000 
 1319.0000      -999.0000         2.3212        98.5057         0.2949         2.4601         4.3920      -999.0000 
 1319.5000      -999.0000         2.3612       108.0939         0.2784         2.4550         4.7240      -999.0000 
 1320.0000      -999.0000         2.3887        94.7547         0.2529         2.3122         4.8302      -999.0000 
 1320.5000      -999.0000         2.3636        93.1227         0.2774         2.5080         4.4213      -999.0000 
 1321.0000      -999.0000         2.3998       100.9198         0.2725         2.4739         4.6883      -999.0000 
 1321.5000      -999.0000         2.4091        93.0541         0.3582         2.4080         4.5368      -999.0000 
 1322.0000      -999.0000         2.3543        98.6713         0.2642         2.4925         4.5800      -999.0000 
 1322.5000      -999.0000         2.4401        95.0050         0.2982         2.4695         4.9192      -999.0000 
 1323.0000      -999.0000         2.4982       100.5875         0.2332         2.4836         4.3533      -999.0000 
 1323.5000      -999.0000         2.5012        97.3487         0.3600         2.1419         4.7802      -999.0000 
 1324.0000      -999.0000         2.3740       109.0034         0.2845         2.3372         4.6536      -999.0000 
 1324.5000      -999.0000         2.3610       101.7143         0.3029         2.1155         4.5770      -999.0000 
 1325.0000      -999.0000         2.4709        86.0128         0.3069         2.4295         4.7106      -999.0000 
 1325.5000      -999.0000         2.4259        97.2499         0.3385         2.1280         4.9588      -999.0000 
 1326.0000      -999.0000         2.4276        94.0010         0.2460         2.4057         4.6429      -999.0000 
 1326.5000      -999.0000         2.4756       110.2782         0.3086         2.3548         4.8211      -999.0000 
 1327.0000      -999.0000         2.3975        94.9519         0.3070         2.4216         4.8667      -999.0000 
 1327.5000      -999.0000         2.4600        95.0052         0.2702         2.1420         4.7634      -999.0000 
 1328.0000      -999.0000         2.4729       110.8384         0.2863         2.0954         4.9227      -999.0000 
 1328.5000      -999.0000         2.4359        89.4833         0.2638         2.2254         5.0186      -999.0000 
 1329.0000      -999.0000         2.3843       111.6160         0.3593         2.5301         5.2043      -999.0000 
 1329.5000      -999.0000         2.4000        92.6578         0.3072         2.1221         5.1113      -999.0000 
 1330.0000      -999.0000         2.3388        91.0953         0.3159         2.2336         5.2527      -999.0000 
 1330.5000      -999.0000         2.4035        82.0504         0.2949         2.6573         4.9136      -999.0000 
 1331.0000      -999.0000         2.4190       103.4079         0.2943         2.2742         5.4264      -999.0000 
 1331.5000      -999.0000         2.5132        98.3167         0.3265         2.2886         5.5838      -999.0000 
 1332.0000      -999.0000         2.4141        95.7359         0.3329         2.3303         5.2703      -999.0000 
 1332.5000      -999.0000         2.4739        99.7549         0.2943         2.2756         5.5048      -999.0000 
 1333.0000      -999.0000         2.4895        98.5768         0.3086         2.6586         5.4021      -999.0000 
 1333.5000      -999.0000         2.4307        96.9046         0.3859         2.5113         5.2530      -999.0000 
 1334.0000      -999.0000         2.3791       103.1410         0.3322         2.1942         5.2231      -999.0000 
 1334.5000      -999.0000         2.4400        93.1841         0.3396         2.4570         5.6013      -999.0000 
 1335.0000      -999.0000         2.3960       106.6590         0.3350         2.2106         5.3749      -999.0000 
 1335.5000      -999.0000         2.5062        97.4572         0.3069         2.1858         5.3358      -999.0000 
 1336.0000      -999.0000         2.4254        95.5886         0.3418         2.2192         5.3388      -999.0000 
 1336.5000      -999.0000         2.4017        93.4586         0.3468         2.1862         5.3415      -999.0000 
 1337.0000      -999.0000         2.4918        91.9085         0.2519         2.3837         5.4449      -999.0000 
 1337.5000      -999.0000         2.4920       101.4463         0.3714         1.8978         5.6124      -999.0000 
 1338.0000      -999.0000         2.4423       111.4232         0.3419         2.1757         5.8275      -999.0000 
 1338.5000      -999.0000         2.3880        95.0765         0.3553         2.2757         5.4297      -999.0000 
 1339.0000      -999.0000         2.4698       113.0510         0.3627         2.1575         5.7183      -999.0000 
 1339.5000      -999.0000         2.5077        94.3905         0.2792         2.0472         5.5033      -999.0000 
 1340.0000      -999.0000         2.5005       113.5712         0.2953         2.2993         5.7588      -999.0000 
 1340.5000      -999.0000         2.4583       100.7759         0.2784         2.1076         5.5855      -999.0000 
 1341.0000      -999.0000         2.4449        98.9475         0.3104         2.5365         5.9412      -999.0000 
 1341.5000      -999.0000         2.4415       104.3553         0.2456         2.2775         5.6595      -999.0000 
 1342.0000      -999.0000         2.5342        93.6123         0.2643         2.0031         5.6206      -999.0000 
 1342.5000      -999.0000         2.4844        93.6906         0.3082         2.0655         5.9289      -999.0000 
 1343.0000      -999.0000         2.4610       106.4578         0.3687         2.4961         5.7346      -999.0000 
 1343.5000      -999.0000         2.4935        99.6179         0.3270         2.1696         5.8921      -999.0000 
 1344.0000      -999.0000         2.4762       111.6789         0.3196         2.4844         6.1578      -999.0000 
 1344.5000      -999.0000         2.4150       101.4765         0.3645         2.0817         6.3575      -999.0000 
