~VERSION INFORMATION
 VERS.                 2.0:   CWLS LOG ASCII STANDARD - VERSION 2.0
 WRAP.                  NO:   SINGLE LINE PER DEPTH STEP
~WELL INFORMATION
#MNEM.UNIT       DATA           DESCRIPTION MNEMONIC
#---------    -------------   --------------------------
 STRT.M         1000.0000                      : START DEPTH
 STOP.M         1500.0000                     : STOP DEPTH
 STEP.M         0.5000                        : STEP VALUE
 NULL.          -999.0000                     : NULL VALUE
 SRVC.          PYPOZO                        : Service Company/Logging company
 DATE.          02/07/2025                    : LAS file Creation Date
 WELL    .      TEST_WELL_1                    : Well Name
 COMP    .      PYPOZO 2.0                    : Company
 FLD     .      UNKNOWN                       : Field
 LOC     .      UNKNOWN                       : Location
 LATI    .      0                             : Latitude/Northing
 LONG    .      0                             : Longitude/Easting
 APDAT   .      0                             : Elevation Above Permanent Datum
~CURVE INFORMATION
#MNEM          UNIT     API CODE   Curve Type Comments
#---------- ---------- ----------  ---------- --------
 DEPTH     .M                    : Depth      
 CAL       .IN                         : CAL        
 DENS      .G/C3                       : DENS       
 GR        .GAPI                       : GR         
 NPHI      .V/V                        : NPHI       
 RES       .OHMM                       : RES        
 RT        .OHMM                       : RT         
 SP        .MV                         : SP         
~A Log data section
# ...
 1138.0000         9.2994      -999.0000        31.3611      -999.0000      -999.0000      -999.0000       -12.5587 
 1138.5000         9.5337      -999.0000        29.2336      -999.0000      -999.0000      -999.0000        -5.3598 
 1139.0000         9.3729      -999.0000        21.9748      -999.0000      -999.0000      -999.0000        -9.0150 
 1139.5000         9.2738      -999.0000        29.4383      -999.0000      -999.0000      -999.0000        -5.3322 
 1140.0000         9.7559      -999.0000        29.9376      -999.0000      -999.0000      -999.0000        -5.9841 
 1140.5000        10.0523      -999.0000        30.0991      -999.0000      -999.0000      -999.0000       -10.3941 
 1141.0000         9.2211      -999.0000        28.3178      -999.0000      -999.0000      -999.0000       -15.7342 
 1141.5000         9.4169      -999.0000        31.3971      -999.0000      -999.0000      -999.0000       -12.8534 
 1142.0000         9.8721      -999.0000        31.5950      -999.0000      -999.0000      -999.0000       -13.5087 
 1142.5000         9.1980      -999.0000        30.0871      -999.0000      -999.0000      -999.0000        -9.6532 
 1143.0000         9.1214      -999.0000        27.1780      -999.0000      -999.0000      -999.0000        -9.9341 
 1143.5000         9.7021      -999.0000        28.9798      -999.0000      -999.0000      -999.0000       -10.9262 
 1144.0000         9.2813      -999.0000        32.0933      -999.0000      -999.0000      -999.0000       -10.1661 
 1144.5000         9.3329      -999.0000        29.4784      -999.0000      -999.0000      -999.0000        -8.8892 
 1145.0000         9.7436      -999.0000        31.6922      -999.0000      -999.0000      -999.0000       -14.2769 
 1145.5000         9.6295      -999.0000        23.9513      -999.0000      -999.0000      -999.0000        -3.2314 
 1146.0000         9.3746      -999.0000        26.0076      -999.0000      -999.0000      -999.0000        -8.9719 
 1146.5000         9.5393      -999.0000        28.3060      -999.0000      -999.0000      -999.0000       -14.1852 
 1147.0000         9.0933      -999.0000        24.9521      -999.0000      -999.0000      -999.0000        -6.2826 
 1147.5000         9.1163      -999.0000        28.0170      -999.0000      -999.0000      -999.0000        -8.9654 
 1148.0000         9.0484      -999.0000        26.5474      -999.0000      -999.0000      -999.0000       -13.7154 
 1148.5000         9.2236      -999.0000        26.1757      -999.0000      -999.0000      -999.0000        -8.7950 
 1149.0000         9.5396      -999.0000        25.3177      -999.0000         5.7071         2.6784        -8.8782 
 1149.5000         9.4353      -999.0000        32.5042      -999.0000         5.7071         2.6784       -13.6089 
 1150.0000         9.4216      -999.0000        33.5046      -999.0000         5.7071         2.6784        -7.9327 
 1150.5000         9.4194      -999.0000        19.8881      -999.0000         5.9840         2.6197       -15.2778 
 1151.0000         9.9259      -999.0000        19.5195      -999.0000         6.1379         2.4754       -11.4462 
 1151.5000         9.1856      -999.0000        19.6612      -999.0000         5.9654         2.9978       -13.8953 
 1152.0000         9.1720      -999.0000        33.8470      -999.0000         6.1070         2.5787       -14.6417 
 1152.5000         8.9116      -999.0000        26.8066      -999.0000         6.0356         2.7478        -9.0129 
 1153.0000         9.3705      -999.0000        37.1151      -999.0000         6.2773         2.6560       -11.2727 
 1153.5000         9.1540      -999.0000        35.5244      -999.0000         5.9284         2.3695       -13.0171 
 1154.0000         9.4817      -999.0000        19.0842      -999.0000         6.1304         2.4080       -11.2340 
 1154.5000         9.3548      -999.0000        29.3507      -999.0000         5.9844         2.3371       -13.6216 
 1155.0000         8.5233      -999.0000        34.1690      -999.0000         5.8542         2.5550       -16.1822 
 1155.5000         9.5580      -999.0000        26.4413      -999.0000         5.9948         2.0997       -19.1458 
 1156.0000         9.4811      -999.0000        24.8311      -999.0000         5.7999         2.6563        -9.3508 
 1156.5000         9.3168      -999.0000        26.0838      -999.0000         5.9150         2.7183       -14.3973 
 1157.0000         9.0492      -999.0000        22.5333      -999.0000         5.7379         2.6802        -6.7306 
 1157.5000         9.9808      -999.0000        16.0534      -999.0000         5.8324         1.9691       -13.1607 
 1158.0000         8.9211      -999.0000        25.8002      -999.0000         6.0336         2.5644       -10.2637 
 1158.5000         9.8510      -999.0000        20.2816      -999.0000         6.2507         2.4912       -14.5899 
 1159.0000         9.6555      -999.0000        27.2844      -999.0000         5.9984         2.5594       -13.3107 
 1159.5000         9.6500      -999.0000        21.2546      -999.0000         5.8562         2.4460        -8.1828 
 1160.0000         9.7363      -999.0000        20.6074      -999.0000         6.0333         2.0982        -9.4429 
 1160.5000         9.7822      -999.0000        21.6430      -999.0000         5.8090         2.5598       -11.4809 
 1161.0000         9.7746      -999.0000        22.8270      -999.0000         5.8945         2.4805       -10.3332 
 1161.5000         9.8648      -999.0000        29.3098      -999.0000         5.9580         2.3197       -15.0315 
 1162.0000         9.4307      -999.0000        20.0234      -999.0000         5.8216         2.5504        -8.2259 
 1162.5000         9.6473      -999.0000        25.5281      -999.0000         5.8781         2.0477       -14.5622 
 1163.0000         8.8637      -999.0000        12.7341      -999.0000         5.6490         2.3824       -14.9879 
 1163.5000         9.5906      -999.0000        20.5710      -999.0000         5.8602         2.5370        -8.8794 
 1164.0000         9.3859      -999.0000        20.3819      -999.0000         5.8534         2.2064       -16.7023 
 1164.5000         9.2193      -999.0000        23.1043      -999.0000         5.7449         2.4092       -10.6076 
 1165.0000         9.4416      -999.0000        24.8643      -999.0000         5.8660         2.6098       -13.7138 
 1165.5000         9.2112      -999.0000        21.1296      -999.0000         5.6974         2.3636       -17.9292 
 1166.0000         9.8535      -999.0000        24.1463      -999.0000         5.4440         2.1924       -15.0745 
 1166.5000         9.6655      -999.0000        26.4882      -999.0000         5.9234         2.2845       -14.1735 
 1167.0000         8.9214      -999.0000        30.2544      -999.0000         5.7219         2.0564       -12.6615 
 1167.5000         9.3976      -999.0000        20.2529      -999.0000         5.5536         2.2763       -18.5476 
 1168.0000         9.7833      -999.0000         8.8947      -999.0000         5.6322         2.4644       -16.9661 
 1168.5000         9.0984      -999.0000        24.4046      -999.0000         5.6470         2.5688       -17.7906 
 1169.0000         9.4552      -999.0000        20.3915      -999.0000         5.9228         2.2565       -17.9349 
 1169.5000         9.4365      -999.0000        23.4610      -999.0000         5.7320         2.0260       -10.5590 
 1170.0000         9.2262      -999.0000        25.8862      -999.0000         5.8196         2.1008       -14.0273 
 1170.5000         9.3279      -999.0000        26.9950      -999.0000         5.7342         2.3160       -12.7353 
 1171.0000         9.3244      -999.0000        19.3752      -999.0000         5.6054         2.2880       -16.6833 
 1171.5000         9.5488      -999.0000        24.7667      -999.0000         5.7805         2.5126        -9.4206 
 1172.0000         9.2302      -999.0000        21.9016      -999.0000         5.7158         2.5042       -16.0393 
