~Version Information
VERS  .          2.0                                   :CWLS Log Ascii Standard - Version 2.0
WRAP  .          NO                                    :One line per depth step
~Well Information Block
#MNEM.UNIT       Data Type                             Information
#---------       ---------                             -------------------------------
STRT  .M         800.00000                             :PROFUNDIDAD INICIAL
STOP  .M         1845.00000                            :PROFUNDIDAD FINAL
STEP  .M          0.15240                              :INCREMENTO
NULL  .          -999.25                               :VALOR NULO
COMP  .          PETROLEOS MEXICANOS                   :COMPANIA
WELL  .          ABEDUL-1                              :NOMBRE DEL POZO
FLD   .          ABEDUL                                :CAMPO
STAT  .          VERACRUZ                              :ESTADO
CNTY  .          COATZINTLA                            :MUNICIPIO
CTRY  .          MEXICO                                :PAIS
DATE  .          05-MAR-79                             :FECHA
UWI   .          1030022740                            :VALOR UNICO DEL POZO
SRVC  .          PEMEX                                 :COMPANIA DE SERVICIOS
~Parameter Information Block
#MNEM.UNIT       Value                                 Description
#---------       ---------                             -------------
FL.              X=                                    :LOCALIZACION DEL CAMPO
FL1.             Y=                                    :LOCALIZACION DEL CAMPO
PDAT.            NIVEL DEL TERRENO                     :DATO PERMANENTE
EPD.M            135.10                                :ELEVACION DEL DATO PERMANENTE
APD.M            3.8                                   :DIFERENCIA ENTRE MR Y NIVEL DE TERRENO
EKB.M            139.58                                :ELEVACION DEL KELLY BUSHING
EDF.M            139.28                                :ELEVACION DE LA MESA ROTARIA
EGL.M            135.10                                :ELEVACION DEL TERRENO
ELZ.M            139.28                                :ELEVACION DEL CERO DE REFERENCIA
LMF.             MESA ROTARIA                          :REGISTRO MEDIDO DESDE
DMF.             MESA ROTARIA                          :PROFUNDIDAD MEDIDA DESDE
SECT.            DISTRITO POZA RICA                    :NOMBRE DEL SECTOR
CN.              PETROLEOS MEXICANOS                   :NOMBRE DE LA COMPANIA
LATI.            Y=78,766.8 M.                         :LATITUD
LONG.            X=119,309.85 M.                       :LONGITUD
NATI.            MEXICO                                :NACION
RANG.            ZONA NORTE                            :NOMBRE DE LA ZONA
SLAB.            ESTADO                                :ESTADO
STAT.            VERACRUZ                              :NOMBRE DEL ESTADO
CLAB.            MUNICIPIO                             :ETIQUETA DEL MUNICIPIO
COUN.            COATZINTLA                            :NOMBRE DEL MUNICIPIO
SRVC.            REGISTRO  FDC  1:500                  :NOMBRE DEL SERVICIO
DATE.            05-MAR-79                             :FECHA DEL SERVICIO
BLI.M            1845.00000                            :PRIMERA LECTURA
TLI.M            800.00000                             :ULTIMA LECTURA
QCEN.            EDGAR ARTURO OSORNIO RIVERA           :NOMBRE DEL INGENIERO DEL CONTROL DE CALIDAD DEL REGISTRO 
DLQC.            20-NOV-2007                           :FECHA DEL CONTROL DE CALIDAD DEL REGISTRO
CBL1.M           N.R.                                  :ZAPATA SCHLUMBERGER
CBD1.M           N.R.                                  :ZAPATA PERFORACION
TDL.M            N.R.                                  :PROFUNDIDAD REGISTRO
TDD.M            1851.0                                :PROFUNDIDAD PERFORADOR
DFT.             N.R.                                  :TIPO DE LODO
DFD.G/C3         1.25                                  :DENSIDAD DE LODO
DFV.S            45                                    :VISCOSIDAD DEL LODO
DFPH.            N.R.                                  :PH DEL LODO
DFL.C3           N.R.                                  :PERDIDA DE LODO
MSS.             PRESA                                 :FUENTE DE LA MUESTRA DE LODO
RMS.ohm.m        1.8                                   :RESISTIVIDAD DE LODO
MST.DEGC         29                                    :TEMPERATURA DE LA MUESTRA DE LODO
MFSS.            PRENSA                                :FUENTE DEL FILTRADO DE LODO
RMFS.ohm.m       N.R.                                  :RESISTIVIDAD DEL FILTRADO
MFST.DEGC        N.R.                                  :TEMPERATURA DEL FILTRADO
MCSS.            PRENSA                                :FUENTE DEL ENJARRE DE LODO
RMCS.ohm.m       N.R.                                  :RESISTIVIDAD DEL ENJARRE DE LODO
MCST.DEGC        N.R.                                  :TEMPERATURA DEL ENJARRE
BSAL.PPM         N.R.                                  :SALINIDAD DEL LODO
TCS.             N.R.                                  :HORA EN QUE PARO CIRCULACION
STEM.DEGC        29                                    :TEMPERATURA DE SUPERFICIE
BHT.DEGC         70                                    :TEMPERATURA DE FONDO
MRT.DEGC         70                                    :MAXIMA TEMPERATURA REGISTRADA
BS.IN            8.5                                   :DIAMETRO DE BARRENA
CSIZ.IN          9.625                                 :DIAMETRO DE T.R.
CWEI.lbm/ft      N.R.                                  :PESO DE LA T.R.
CTD1.M           N.R.                                  :FONDO DE LA T.R. DEL PERFORADOR
CTL1.M           N.R.                                  :FONDO DE LA T.R. DEL REGISTRO
ENGI.            ROBERTO VICTORIA                      :NOMBRE DEL INGENIERO
WITN.            RAFAEL SANDOVAL                       :NOMBRE DEL TESTIGO
LUN.             8-A                                   :NUMERO DE LA UNIDAD
RUN.             UNO                                   :NUMERO DE LA CORRIDA
OS1.             N.R.                                  :SERVICIOS
HIDE.            REGISTRO DENSIDAD COMPENSADO          :NOMBRE DEL SERVICIO
HID1.            1:500                                 :NOMBRE DEL SERVICIO
LUL.             POZA RICA                             :LUGAR DE LA UNIDAD
R1.              POZA RICA                             :Remarks 1
R2.                                                    :Remarks 2
R3.                                                    :Remarks 3
R4.                                                    :Remarks 4
R5.     Track 1        DIAMETRO DE AGUJERO             :Remarks 5
R6.                          CALI                      :Remarks 6
R7.                           IN                       :Remarks 7
R8.                  3"_________________13"            :Remarks 8
R9.                                                    :Remarks 9
R10.                                                   :Remarks 10
R11.    Track 2-3     DENSIDAD VOLUMETRICA             :Remarks 11
R12.                         RHOB                      :Remarks 12
R13.                         G/C3                      :Remarks 13
R14.                  2_________________3              :Remarks 14
R15.                                                   :Remarks 15
R16.                       POROSIDAD                   :Remarks 16
R17.                         DPHI                      :Remarks 17
R18.                          V/V                      :Remarks 18
R19.                0.3_________________-0.1           :Remarks 19
R20.                                                   :Remarks 20
R21.    Track 3           CORRECCION                   :Remarks 21
R22.                         DRHO                      :Remarks 22
R23.                         G/C3                      :Remarks 23
R24.              -0.25_________________0.25           :Remarks 24
R25. RM  @ TF / 1.0  @ 70 degC                         :Remarks 25
R26. RMF @ TF / 0.75 @ 70 degC                         :Remarks 26
R27. RMC @ TF / 1.0  @ 70 degC                         :Remarks 27
R28.                                                   :Remarks 28
R29.                                                   :Remarks 29
R30.                                                   :Remarks 30
~Curve Information Block
#MNEM.UNIT       API Code            Curve    Description
#--------        --------------      -----    -------------------
DEPT  .M                             :0       Index
CALI  .IN                            :1       Caliper                       
DPHI  .V/V                           :2       Density Porosity              
RHOB  .G/C3                          :3       Bulk Density                  
DRHO  .G/C3                          :4       Bulk Density Correction       
~Ascii Data Section
# ...
   1419.96320       7.86502       0.01597       2.68269       0.06289 
   1420.11560       7.87245       0.02425       2.66853       0.05728 
   1420.26800       7.88101       0.04563       2.63197       0.05180 
   1420.42040       7.88957       0.04916       2.62594       0.04787 
   1420.57280       7.89812       0.04685       2.62989       0.04508 
   1420.72520       7.77979       0.03993       2.64171       0.04278 
   1420.87760       7.73315       0.03640       2.64775       0.04501 
   1421.03000       7.68748       0.03869       2.64384       0.05305 
   1421.18240       7.64668       0.03837       2.64438       0.05984 
   1421.33480       7.60898       0.03462       2.65081       0.05989 
   1421.48720       7.59126       0.03411       2.65168       0.05697 
   1421.63960       7.59900       0.03345       2.65280       0.05611 
   1421.79200       7.60000       0.03025       2.65826       0.05773 
   1421.94440       7.60000       0.03099       2.65701       0.06042 
   1422.09680       7.60000       0.03752       2.64584       0.06335 
   1422.24920       7.60000       0.04086       2.64014       0.06604 
   1422.40160       7.60000       0.04064       2.64051       0.06842 
   1422.55400       7.60000       0.03706       2.64663       0.07106 
   1422.70640       7.57219       0.03084       2.65726       0.07373 
   1422.85880       7.52519       0.02156       2.67313       0.08371 
   1423.01120       7.47641       0.01320       2.68744       0.08446 
   1423.16360       7.42766       0.01444       2.68531       0.06978 
   1423.31600       7.41126       0.02076       2.67450       0.05735 
   1423.46840       7.41000       0.02534       2.66667       0.05524 
   1423.62080       7.41000       0.02611       2.66534       0.05894 
   1423.77320       7.41000       0.02319       2.67034       0.06346 
   1423.92560       7.41423       0.02175       2.67280       0.06711 
   1424.07800       7.48412       0.01999       2.67581       0.06983 
   1424.23040       7.50883       0.01575       2.68306       0.07263 
   1424.38280       7.47594       0.01444       2.68531       0.07723 
   1424.53520       7.43745       0.01367       2.68662       0.08359 
   1424.68760       7.43016       0.01341       2.68706       0.09224 
   1424.84000       7.47609       0.01734       2.68035       0.09421 
   1424.99240       7.52374       0.02219       2.67205       0.08647 
   1425.14480       7.49748       0.02446       2.66817       0.08215 
   1425.29720       7.46324       0.02408       2.66882       0.09004 
   1425.44960       7.49210       0.02170       2.67290       0.10209 
   1425.60200       7.55351       0.01851       2.67835       0.11031 
   1425.75440       7.61766       0.01499       2.68437       0.11558 
   1425.90680       7.68185       0.01882       2.67781       0.11511 
   1426.05920       7.73995       0.02555       2.66631       0.10891 
   1426.21160       7.63213       0.02239       2.67172       0.10125 
   1426.36400       7.50632       0.02541       2.66654       0.09426 
   1426.51640       7.38058       0.03145       2.65621       0.08791 
   1426.66880       7.27381       0.03834       2.64444       0.08235 
   1426.82120       7.28673       0.04281       2.63680       0.09695 
   1426.97360       7.31240       0.03564       2.64905       0.11745 
   1427.12600       7.33806       0.02475       2.66767       0.11990 
   1427.27840       7.36374       0.02522       2.66687       0.11047 
   1427.43080       7.37559       0.02908       2.66028       0.09964 
   1427.58320       7.36998       0.02654       2.66461       0.09225 
   1427.73560       7.36265       0.02146       2.67331       0.08769 
   1427.88800       7.35531       0.01619       2.68231       0.08217 
   1428.04040       7.34798       0.01242       2.68877       0.07388 
   1428.19280       7.34097       0.01554       2.68342       0.06468 
   1428.34520       7.36924       0.02510       2.66708       0.05693 
   1428.49760       7.40132       0.03390       2.65202       0.05135 
   1428.65000       7.43341       0.03988       2.64181       0.05326 
   1428.80240       7.46548       0.03647       2.64763       0.06510 
   1428.95480       7.46779       0.02727       2.66336       0.07949 
   1429.10720       7.40750       0.02481       2.66757       0.07907 
   1429.25960       7.34073       0.03043       2.65797       0.07018 
   1429.41200       7.27400       0.03528       2.64967       0.07014 
   1429.56440       7.28370       0.03477       2.65054       0.07742 
   1429.71680       7.31313       0.02913       2.66019       0.07645 
   1429.86920       7.35558       0.02920       2.66006       0.06858 
   1430.02160       7.43332       0.03636       2.64783       0.07517 
   1430.17400       7.55104       0.03748       2.64591       0.10485 
   1430.32640       7.70089       0.02149       2.67326       0.11479 
   1430.47880       7.84721       0.01296       2.68783       0.09552 
   1430.63120       7.77554       0.04323       2.63607       0.07356 
   1430.78360       7.50766       0.05308       2.61923       0.06284 
   1430.93600       7.37644       0.04788       2.62812       0.06850 
   1431.08840       7.30674       0.05421       2.61729       0.08137 
   1431.24080       7.25838       0.06171       2.60447       0.09099 
   1431.39320       7.22335       0.06215       2.60372       0.09694 
   1431.54560       7.19680       0.05411       2.61748       0.09562 
   1431.69800       7.18207       0.04467       2.63361       0.07790 
   1431.85040       7.19398       0.03215       2.65503       0.06508 
   1432.00280       7.20314       0.01603       2.68259       0.07688 
   1432.15520       7.21169       0.00510       2.70129       0.09463 
   1432.30760       7.22025       0.00469       2.70199       0.09713 
   1432.46000       7.22881       0.00756       2.69707       0.08817 
   1432.61240       7.17724       0.01107       2.69107       0.07885 
   1432.76480       7.11659       0.01362       2.68670       0.07039 
   1432.91720       7.05562       0.01136       2.69058       0.07846 
   1433.06960       7.06529       0.00632       2.69920       0.09772 
   1433.22200       7.09594       0.00999       2.69291       0.10569 
   1433.37440       7.12802       0.02073       2.67456       0.09981 
   1433.52680       7.16011       0.03211       2.65509       0.08956 
   1433.67920       7.18419       0.04034       2.64103       0.07985 
   1433.83160       7.16716       0.04013       2.64138       0.07051 
   1433.98400       7.14576       0.03635       2.64785       0.06017 
   1434.13640       7.12438       0.04446       2.63397       0.04548 
   1434.28880       7.10298       0.05618       2.61394       0.03717 
   1434.44120       7.08160       0.05580       2.61459       0.04142 
   1434.59360       7.06020       0.04979       2.62486       0.05053 
   1434.74600       7.04738       0.04370       2.63527       0.05957 
   1434.89840       7.08290       0.03840       2.64434       0.06884 
   1435.05080       7.12353       0.03433       2.65129       0.07753 
   1435.20320       7.16418       0.03200       2.65528       0.07894 
   1435.35560       7.20481       0.03118       2.65668       0.07407 
   1435.50800       7.22054       0.03113       2.65676       0.06864 
   1435.66040       7.20638       0.03215       2.65503       0.06341 
   1435.81280       7.19322       0.03458       2.65087       0.05739 
   1435.96520       7.20472       0.03851       2.64415       0.05166 
   1436.11760       7.21883       0.04340       2.63579       0.05105 
   1436.27000       7.23296       0.04845       2.62715       0.05640 
   1436.42240       7.24707       0.05176       2.62148       0.06351 
   1436.57480       7.26119       0.04840       2.62723       0.07094 
   1436.72720       7.27530       0.03809       2.64487       0.07909 
   1436.87960       7.28943       0.03397       2.65191       0.08115 
   1437.03200       7.27691       0.03908       2.64317       0.06262 
