~Version Information
VERS  .          2.0                                   :CWLS Log Ascii Standard - Version 2.0
WRAP  .          NO                                    :One line per depth step
~Well Information Block
#MNEM.UNIT       Data Type                             Information
#---------       ---------                             -------------------------------
STRT  .M         800.00000                             :PROFUNDIDAD INICIAL
STOP  .M         1845.00000                            :PROFUNDIDAD FINAL
STEP  .M          0.15240                              :INCREMENTO
NULL  .          -999.25                               :VALOR NULO
COMP  .          PETROLEOS MEXICANOS                   :COMPANIA
WELL  .          ABEDUL-1                              :NOMBRE DEL POZO
FLD   .          ABEDUL                                :CAMPO
STAT  .          VERACRUZ                              :ESTADO
CNTY  .          COATZINTLA                            :MUNICIPIO
CTRY  .          MEXICO                                :PAIS
DATE  .          05-MAR-79                             :FECHA
UWI   .          1030022740                            :VALOR UNICO DEL POZO
SRVC  .          PEMEX                                 :COMPANIA DE SERVICIOS
~Parameter Information Block
#MNEM.UNIT       Value                                 Description
#---------       ---------                             -------------
FL.              X=                                    :LOCALIZACION DEL CAMPO
FL1.             Y=                                    :LOCALIZACION DEL CAMPO
PDAT.            NIVEL DEL TERRENO                     :DATO PERMANENTE
EPD.M            135.10                                :ELEVACION DEL DATO PERMANENTE
APD.M            3.8                                   :DIFERENCIA ENTRE MR Y NIVEL DE TERRENO
EKB.M            139.58                                :ELEVACION DEL KELLY BUSHING
EDF.M            139.28                                :ELEVACION DE LA MESA ROTARIA
EGL.M            135.10                                :ELEVACION DEL TERRENO
ELZ.M            139.28                                :ELEVACION DEL CERO DE REFERENCIA
LMF.             MESA ROTARIA                          :REGISTRO MEDIDO DESDE
DMF.             MESA ROTARIA                          :PROFUNDIDAD MEDIDA DESDE
SECT.            DISTRITO POZA RICA                    :NOMBRE DEL SECTOR
CN.              PETROLEOS MEXICANOS                   :NOMBRE DE LA COMPANIA
LATI.            Y=78,766.8 M.                         :LATITUD
LONG.            X=119,309.85 M.                       :LONGITUD
NATI.            MEXICO                                :NACION
RANG.            ZONA NORTE                            :NOMBRE DE LA ZONA
SLAB.            ESTADO                                :ESTADO
STAT.            VERACRUZ                              :NOMBRE DEL ESTADO
CLAB.            MUNICIPIO                             :ETIQUETA DEL MUNICIPIO
COUN.            COATZINTLA                            :NOMBRE DEL MUNICIPIO
SRVC.            REGISTRO  FDC  1:500                  :NOMBRE DEL SERVICIO
DATE.            05-MAR-79                             :FECHA DEL SERVICIO
BLI.M            1845.00000                            :PRIMERA LECTURA
TLI.M            800.00000                             :ULTIMA LECTURA
QCEN.            EDGAR ARTURO OSORNIO RIVERA           :NOMBRE DEL INGENIERO DEL CONTROL DE CALIDAD DEL REGISTRO 
DLQC.            20-NOV-2007                           :FECHA DEL CONTROL DE CALIDAD DEL REGISTRO
CBL1.M           N.R.                                  :ZAPATA SCHLUMBERGER
CBD1.M           N.R.                                  :ZAPATA PERFORACION
TDL.M            N.R.                                  :PROFUNDIDAD REGISTRO
TDD.M            1851.0                                :PROFUNDIDAD PERFORADOR
DFT.             N.R.                                  :TIPO DE LODO
DFD.G/C3         1.25                                  :DENSIDAD DE LODO
DFV.S            45                                    :VISCOSIDAD DEL LODO
DFPH.            N.R.                                  :PH DEL LODO
DFL.C3           N.R.                                  :PERDIDA DE LODO
MSS.             PRESA                                 :FUENTE DE LA MUESTRA DE LODO
RMS.ohm.m        1.8                                   :RESISTIVIDAD DE LODO
MST.DEGC         29                                    :TEMPERATURA DE LA MUESTRA DE LODO
MFSS.            PRENSA                                :FUENTE DEL FILTRADO DE LODO
RMFS.ohm.m       N.R.                                  :RESISTIVIDAD DEL FILTRADO
MFST.DEGC        N.R.                                  :TEMPERATURA DEL FILTRADO
MCSS.            PRENSA                                :FUENTE DEL ENJARRE DE LODO
RMCS.ohm.m       N.R.                                  :RESISTIVIDAD DEL ENJARRE DE LODO
MCST.DEGC        N.R.                                  :TEMPERATURA DEL ENJARRE
BSAL.PPM         N.R.                                  :SALINIDAD DEL LODO
TCS.             N.R.                                  :HORA EN QUE PARO CIRCULACION
STEM.DEGC        29                                    :TEMPERATURA DE SUPERFICIE
BHT.DEGC         70                                    :TEMPERATURA DE FONDO
MRT.DEGC         70                                    :MAXIMA TEMPERATURA REGISTRADA
BS.IN            8.5                                   :DIAMETRO DE BARRENA
CSIZ.IN          9.625                                 :DIAMETRO DE T.R.
CWEI.lbm/ft      N.R.                                  :PESO DE LA T.R.
CTD1.M           N.R.                                  :FONDO DE LA T.R. DEL PERFORADOR
CTL1.M           N.R.                                  :FONDO DE LA T.R. DEL REGISTRO
ENGI.            ROBERTO VICTORIA                      :NOMBRE DEL INGENIERO
WITN.            RAFAEL SANDOVAL                       :NOMBRE DEL TESTIGO
LUN.             8-A                                   :NUMERO DE LA UNIDAD
RUN.             UNO                                   :NUMERO DE LA CORRIDA
OS1.             N.R.                                  :SERVICIOS
HIDE.            REGISTRO DENSIDAD COMPENSADO          :NOMBRE DEL SERVICIO
HID1.            1:500                                 :NOMBRE DEL SERVICIO
LUL.             POZA RICA                             :LUGAR DE LA UNIDAD
R1.              POZA RICA                             :Remarks 1
R2.                                                    :Remarks 2
R3.                                                    :Remarks 3
R4.                                                    :Remarks 4
R5.     Track 1        DIAMETRO DE AGUJERO             :Remarks 5
R6.                          CALI                      :Remarks 6
R7.                           IN                       :Remarks 7
R8.                  3"_________________13"            :Remarks 8
R9.                                                    :Remarks 9
R10.                                                   :Remarks 10
R11.    Track 2-3     DENSIDAD VOLUMETRICA             :Remarks 11
R12.                         RHOB                      :Remarks 12
R13.                         G/C3                      :Remarks 13
R14.                  2_________________3              :Remarks 14
R15.                                                   :Remarks 15
R16.                       POROSIDAD                   :Remarks 16
R17.                         DPHI                      :Remarks 17
R18.                          V/V                      :Remarks 18
R19.                0.3_________________-0.1           :Remarks 19
R20.                                                   :Remarks 20
R21.    Track 3           CORRECCION                   :Remarks 21
R22.                         DRHO                      :Remarks 22
R23.                         G/C3                      :Remarks 23
R24.              -0.25_________________0.25           :Remarks 24
R25. RM  @ TF / 1.0  @ 70 degC                         :Remarks 25
R26. RMF @ TF / 0.75 @ 70 degC                         :Remarks 26
R27. RMC @ TF / 1.0  @ 70 degC                         :Remarks 27
R28.                                                   :Remarks 28
R29.                                                   :Remarks 29
R30.                                                   :Remarks 30
~Curve Information Block
#MNEM.UNIT       API Code            Curve    Description
#--------        --------------      -----    -------------------
DEPT  .M                             :0       Index
CALI  .IN                            :1       Caliper                       
DPHI  .V/V                           :2       Density Porosity              
RHOB  .G/C3                          :3       Bulk Density                  
DRHO  .G/C3                          :4       Bulk Density Correction       
~Ascii Data Section
# ...
   1282.19360       8.52476       0.05214       2.62084       0.08161 
   1282.34600       8.49103       0.04494       2.63315       0.08999 
   1282.49840       8.45412       0.03483       2.65044       0.09947 
   1282.65080       8.41724       0.03072       2.65746       0.09910 
   1282.80320       8.38033       0.03709       2.64657       0.09055 
   1282.95560       8.34345       0.04414       2.63452       0.07934 
   1283.10800       8.31292       0.04710       2.62945       0.07413 
   1283.26040       8.31000       0.04610       2.63117       0.07810 
   1283.41280       8.31000       0.04298       2.63650       0.08520 
   1283.56520       8.31000       0.03910       2.64313       0.09224 
   1283.71760       8.31000       0.04287       2.63669       0.09724 
   1283.87000       8.31000       0.05569       2.61477       0.08594 
   1284.02240       8.31000       0.06064       2.60631       0.06390 
   1284.17480       8.31000       0.05545       2.61517       0.05472 
   1284.32720       8.30274       0.04591       2.63149       0.05871 
   1284.47960       8.28375       0.04202       2.63815       0.06226 
   1284.63200       8.26359       0.04703       2.62959       0.05378 
   1284.78440       8.24341       0.05055       2.62355       0.04182 
   1284.93680       8.22325       0.04213       2.63796       0.04098 
   1285.08920       8.20307       0.02837       2.66149       0.04887 
   1285.24160       8.20011       0.01611       2.68245       0.05861 
   1285.39400       8.20000       0.01049       2.69207       0.07422 
   1285.54640       8.20000       0.01086       2.69142       0.09851 
   1285.69880       8.20000       0.01399       2.68608       0.11295 
   1285.85120       8.20000       0.01832       2.67867       0.10594 
   1286.00360       8.20000       0.02384       2.66923       0.08984 
   1286.15600       8.20471       0.02955       2.65947       0.07809 
   1286.30840       8.21183       0.03431       2.65133       0.07777 
   1286.46080       8.21917       0.03960       2.64229       0.08497 
   1286.61320       8.22650       0.04714       2.62939       0.07780 
   1286.76560       8.23384       0.05397       2.61771       0.05576 
   1286.91800       8.23004       0.06121       2.60533       0.04253 
   1287.07040       8.19287       0.06254       2.60306       0.04330 
   1287.22280       8.15224       0.05511       2.61576       0.04886 
   1287.37520       8.11159       0.04684       2.62990       0.05407 
   1287.52760       8.07096       0.03804       2.64495       0.06156 
   1287.68000       8.07938       0.03178       2.65566       0.07359 
   1287.83240       8.12831       0.02626       2.66510       0.08756 
   1287.98480       8.18106       0.02033       2.67524       0.10167 
   1288.13720       8.23384       0.01333       2.68720       0.11656 
   1288.28960       8.28658       0.00749       2.69720       0.13477 
   1288.44200       8.33936       0.00916       2.69433       0.16908 
   1288.59440       8.39211       0.01894       2.67761       0.18543 
   1288.74680       8.40954       0.02933       2.65985       0.15979 
   1288.89920       8.39640       0.03781       2.64535       0.12621 
   1289.05160       8.38035       0.04409       2.63460       0.09928 
   1289.20400       8.36431       0.04724       2.62922       0.07672 
   1289.35640       8.34826       0.04099       2.63990       0.07440 
   1289.50880       8.33223       0.02906       2.66031       0.08680 
   1289.66120       8.31618       0.01869       2.67805       0.09807 
   1289.81360       8.30014       0.01499       2.68436       0.10719 
   1289.96600       8.28411       0.01668       2.68148       0.11604 
   1290.11840       8.27123       0.01852       2.67833       0.12472 
   1290.27080       8.27813       0.02050       2.67494       0.13147 
   1290.42320       8.29755       0.02327       2.67021       0.13302 
   1290.57560       8.31808       0.02869       2.66094       0.12560 
   1290.72800       8.33862       0.03679       2.64708       0.11263 
   1290.88040       8.30087       0.04206       2.63808       0.10445 
   1291.03280       8.20773       0.04079       2.64024       0.10395 
   1291.18520       8.15027       0.03535       2.64955       0.10441 
   1291.33760       8.25512       0.02935       2.65981       0.09603 
   1291.49000       8.30366       0.02740       2.66314       0.08883 
   1291.64240       8.30432       0.03501       2.65014       0.09159 
   1291.79480       8.30065       0.04873       2.62667       0.07822 
   1291.94720       8.29699       0.06196       2.60405       0.05438 
   1292.09960       8.29332       0.06861       2.59268       0.05071 
   1292.25200       8.28965       0.06609       2.59699       0.06235 
   1292.40440       8.28598       0.05762       2.61147       0.07532 
   1292.55680       8.28232       0.04945       2.62545       0.08611 
   1292.70920       8.27865       0.03844       2.64427       0.09442 
   1292.86160       8.27499       0.02559       2.66624       0.10159 
   1293.01400       8.27132       0.02218       2.67208       0.10858 
   1293.16640       8.27987       0.02622       2.66516       0.11397 
   1293.31880       8.29407       0.03155       2.65605       0.11124 
   1293.47120       8.30873       0.03834       2.64445       0.10120 
   1293.62360       8.32340       0.03946       2.64252       0.09285 
   1293.77600       8.33807       0.03190       2.65545       0.08876 
   1293.92840       8.34328       0.02992       2.65884       0.08594 
   1294.08080       8.32361       0.03113       2.65677       0.08488 
   1294.23320       8.30137       0.03481       2.65048       0.08591 
   1294.38560       8.27912       0.03871       2.64380       0.08780 
   1294.53800       8.25688       0.04270       2.63698       0.08624 
   1294.69040       8.23463       0.04721       2.62927       0.07834 
   1294.84280       8.21239       0.05241       2.62037       0.06237 
   1294.99520       8.19014       0.05891       2.60926       0.04430 
   1295.14760       8.16790       0.06506       2.59875       0.03426 
   1295.30000       8.14565       0.06910       2.59183       0.03804 
   1295.45240       8.12341       0.06775       2.59415       0.04983 
   1295.60480       8.10115       0.05421       2.61731       0.06091 
   1295.75720       8.10567       0.03056       2.65774       0.06959 
   1295.90960       8.13120       0.01812       2.67901       0.07652 
   1296.06200       8.15871       0.02595       2.66563       0.07670 
   1296.21440       8.18620       0.03425       2.65143       0.07177 
   1296.36680       8.21372       0.04610       2.63117       0.06880 
   1296.51920       8.23874       0.05934       2.60852       0.06830 
   1296.67160       8.24853       0.06225       2.60356       0.06872 
   1296.82400       8.25669       0.05584       2.61452       0.06982 
   1296.97640       8.26486       0.04967       2.62506       0.06830 
   1297.12880       8.27303       0.05200       2.62109       0.05879 
   1297.28120       8.28120       0.05592       2.61438       0.04432 
   1297.43360       8.28936       0.06094       2.60579       0.03720 
   1297.58600       8.29753       0.06641       2.59644       0.03904 
   1297.73840       8.30570       0.07129       2.58810       0.04281 
   1297.89080       8.28544       0.07352       2.58428       0.04607 
   1298.04320       8.24069       0.06551       2.59798       0.05473 
   1298.19560       8.19365       0.04743       2.62889       0.07447 
   1298.34800       8.14658       0.02854       2.66120       0.09648 
   1298.50040       8.09953       0.01161       2.69015       0.10920 
   1298.65280       8.13611      -0.00072       2.71124       0.11507 
   1298.80520       8.19150      -0.00566       2.71968       0.12030 
   1298.95760       8.24799      -0.00159       2.71272       0.10972 
   1299.11000       8.30448       0.00453       2.70225       0.08639 
   1299.26240       8.31356       0.01095       2.69128       0.06884 
