~Version Information
VERS  .          2.0                                   :CWLS Log Ascii Standard - Version 2.0
WRAP  .          NO                                    :One line per depth step
~Well Information Block
#MNEM.UNIT       Data Type                             Information
#---------       ---------                             -------------------------------
STRT  .M         800.00000                             :PROFUNDIDAD INICIAL
STOP  .M         1845.00000                            :PROFUNDIDAD FINAL
STEP  .M          0.15240                              :INCREMENTO
NULL  .          -999.25                               :VALOR NULO
COMP  .          PETROLEOS MEXICANOS                   :COMPANIA
WELL  .          ABEDUL-1                              :NOMBRE DEL POZO
FLD   .          ABEDUL                                :CAMPO
STAT  .          VERACRUZ                              :ESTADO
CNTY  .          COATZINTLA                            :MUNICIPIO
CTRY  .          MEXICO                                :PAIS
DATE  .          05-MAR-79                             :FECHA
UWI   .          1030022740                            :VALOR UNICO DEL POZO
SRVC  .          PEMEX                                 :COMPANIA DE SERVICIOS
~Parameter Information Block
#MNEM.UNIT       Value                                 Description
#---------       ---------                             -------------
FL.              X=                                    :LOCALIZACION DEL CAMPO
FL1.             Y=                                    :LOCALIZACION DEL CAMPO
PDAT.            NIVEL DEL TERRENO                     :DATO PERMANENTE
EPD.M            135.10                                :ELEVACION DEL DATO PERMANENTE
APD.M            3.8                                   :DIFERENCIA ENTRE MR Y NIVEL DE TERRENO
EKB.M            139.58                                :ELEVACION DEL KELLY BUSHING
EDF.M            139.28                                :ELEVACION DE LA MESA ROTARIA
EGL.M            135.10                                :ELEVACION DEL TERRENO
ELZ.M            139.28                                :ELEVACION DEL CERO DE REFERENCIA
LMF.             MESA ROTARIA                          :REGISTRO MEDIDO DESDE
DMF.             MESA ROTARIA                          :PROFUNDIDAD MEDIDA DESDE
SECT.            DISTRITO POZA RICA                    :NOMBRE DEL SECTOR
CN.              PETROLEOS MEXICANOS                   :NOMBRE DE LA COMPANIA
LATI.            Y=78,766.8 M.                         :LATITUD
LONG.            X=119,309.85 M.                       :LONGITUD
NATI.            MEXICO                                :NACION
RANG.            ZONA NORTE                            :NOMBRE DE LA ZONA
SLAB.            ESTADO                                :ESTADO
STAT.            VERACRUZ                              :NOMBRE DEL ESTADO
CLAB.            MUNICIPIO                             :ETIQUETA DEL MUNICIPIO
COUN.            COATZINTLA                            :NOMBRE DEL MUNICIPIO
SRVC.            REGISTRO  FDC  1:500                  :NOMBRE DEL SERVICIO
DATE.            05-MAR-79                             :FECHA DEL SERVICIO
BLI.M            1845.00000                            :PRIMERA LECTURA
TLI.M            800.00000                             :ULTIMA LECTURA
QCEN.            EDGAR ARTURO OSORNIO RIVERA           :NOMBRE DEL INGENIERO DEL CONTROL DE CALIDAD DEL REGISTRO 
DLQC.            20-NOV-2007                           :FECHA DEL CONTROL DE CALIDAD DEL REGISTRO
CBL1.M           N.R.                                  :ZAPATA SCHLUMBERGER
CBD1.M           N.R.                                  :ZAPATA PERFORACION
TDL.M            N.R.                                  :PROFUNDIDAD REGISTRO
TDD.M            1851.0                                :PROFUNDIDAD PERFORADOR
DFT.             N.R.                                  :TIPO DE LODO
DFD.G/C3         1.25                                  :DENSIDAD DE LODO
DFV.S            45                                    :VISCOSIDAD DEL LODO
DFPH.            N.R.                                  :PH DEL LODO
DFL.C3           N.R.                                  :PERDIDA DE LODO
MSS.             PRESA                                 :FUENTE DE LA MUESTRA DE LODO
RMS.ohm.m        1.8                                   :RESISTIVIDAD DE LODO
MST.DEGC         29                                    :TEMPERATURA DE LA MUESTRA DE LODO
MFSS.            PRENSA                                :FUENTE DEL FILTRADO DE LODO
RMFS.ohm.m       N.R.                                  :RESISTIVIDAD DEL FILTRADO
MFST.DEGC        N.R.                                  :TEMPERATURA DEL FILTRADO
MCSS.            PRENSA                                :FUENTE DEL ENJARRE DE LODO
RMCS.ohm.m       N.R.                                  :RESISTIVIDAD DEL ENJARRE DE LODO
MCST.DEGC        N.R.                                  :TEMPERATURA DEL ENJARRE
BSAL.PPM         N.R.                                  :SALINIDAD DEL LODO
TCS.             N.R.                                  :HORA EN QUE PARO CIRCULACION
STEM.DEGC        29                                    :TEMPERATURA DE SUPERFICIE
BHT.DEGC         70                                    :TEMPERATURA DE FONDO
MRT.DEGC         70                                    :MAXIMA TEMPERATURA REGISTRADA
BS.IN            8.5                                   :DIAMETRO DE BARRENA
CSIZ.IN          9.625                                 :DIAMETRO DE T.R.
CWEI.lbm/ft      N.R.                                  :PESO DE LA T.R.
CTD1.M           N.R.                                  :FONDO DE LA T.R. DEL PERFORADOR
CTL1.M           N.R.                                  :FONDO DE LA T.R. DEL REGISTRO
ENGI.            ROBERTO VICTORIA                      :NOMBRE DEL INGENIERO
WITN.            RAFAEL SANDOVAL                       :NOMBRE DEL TESTIGO
LUN.             8-A                                   :NUMERO DE LA UNIDAD
RUN.             UNO                                   :NUMERO DE LA CORRIDA
OS1.             N.R.                                  :SERVICIOS
HIDE.            REGISTRO DENSIDAD COMPENSADO          :NOMBRE DEL SERVICIO
HID1.            1:500                                 :NOMBRE DEL SERVICIO
LUL.             POZA RICA                             :LUGAR DE LA UNIDAD
R1.              POZA RICA                             :Remarks 1
R2.                                                    :Remarks 2
R3.                                                    :Remarks 3
R4.                                                    :Remarks 4
R5.     Track 1        DIAMETRO DE AGUJERO             :Remarks 5
R6.                          CALI                      :Remarks 6
R7.                           IN                       :Remarks 7
R8.                  3"_________________13"            :Remarks 8
R9.                                                    :Remarks 9
R10.                                                   :Remarks 10
R11.    Track 2-3     DENSIDAD VOLUMETRICA             :Remarks 11
R12.                         RHOB                      :Remarks 12
R13.                         G/C3                      :Remarks 13
R14.                  2_________________3              :Remarks 14
R15.                                                   :Remarks 15
R16.                       POROSIDAD                   :Remarks 16
R17.                         DPHI                      :Remarks 17
R18.                          V/V                      :Remarks 18
R19.                0.3_________________-0.1           :Remarks 19
R20.                                                   :Remarks 20
R21.    Track 3           CORRECCION                   :Remarks 21
R22.                         DRHO                      :Remarks 22
R23.                         G/C3                      :Remarks 23
R24.              -0.25_________________0.25           :Remarks 24
R25. RM  @ TF / 1.0  @ 70 degC                         :Remarks 25
R26. RMF @ TF / 0.75 @ 70 degC                         :Remarks 26
R27. RMC @ TF / 1.0  @ 70 degC                         :Remarks 27
R28.                                                   :Remarks 28
R29.                                                   :Remarks 29
R30.                                                   :Remarks 30
~Curve Information Block
#MNEM.UNIT       API Code            Curve    Description
#--------        --------------      -----    -------------------
DEPT  .M                             :0       Index
CALI  .IN                            :1       Caliper                       
DPHI  .V/V                           :2       Density Porosity              
RHOB  .G/C3                          :3       Bulk Density                  
DRHO  .G/C3                          :4       Bulk Density Correction       
~Ascii Data Section
# ...
    937.76960      10.27929       0.05473       2.61641       0.11281 
    937.92200      10.26405       0.05710       2.61237       0.09430 
    938.07440      10.24881       0.06934       2.59143       0.07592 
    938.22680      10.23357       0.08331       2.56755       0.06270 
    938.37920      10.23319       0.09080       2.55474       0.06596 
    938.53160      10.29121       0.08108       2.57136       0.07968 
    938.68400      10.35538       0.08342       2.56735       0.09627 
    938.83640      10.41955       0.07912       2.57470       0.11422 
    938.98880      10.48369       0.06957       2.59103       0.12963 
    939.14120      10.54786       0.06255       2.60304       0.14168 
    939.29360      10.61203       0.06405       2.60048       0.14391 
    939.44600      10.65288       0.07050       2.58944       0.12451 
    939.59840      10.61993       0.07732       2.57778       0.09655 
    939.75080      10.61591       0.08298       2.56810       0.08058 
    939.90320      10.61590       0.08378       2.56673       0.08478 
    940.05560      10.61013       0.07339       2.58450       0.10156 
    940.20800      10.60116       0.05784       2.61109       0.11711 
    940.36040      10.60017       0.05540       2.61527       0.11597 
    940.51280      10.59848       0.06279       2.60263       0.10173 
    940.66520      10.59181       0.07108       2.58845       0.09709 
    940.81760      10.58515       0.07730       2.57782       0.10688 
    940.97000      10.58446       0.08652       2.56205       0.11756 
    941.12240      10.58441       0.08046       2.57241       0.12030 
    941.27480      10.58436       0.07295       2.58525       0.11480 
    941.42720      10.58431       0.06545       2.59808       0.10710 
    941.57960      10.58426       0.07080       2.58894       0.10134 
    941.73200      10.58421       0.07596       2.58011       0.09737 
    941.88440      10.58420       0.07797       2.57667       0.09693 
    942.03680      10.58416       0.08094       2.57158       0.10203 
    942.18920      10.58411       0.08402       2.56632       0.11066 
    942.34160      10.58406       0.08649       2.56210       0.11868 
    942.49400      10.58401       0.08839       2.55886       0.11730 
    942.64640      10.58396       0.08970       2.55661       0.10520 
    942.79880      10.58391       0.08728       2.56074       0.09496 
    942.95120      10.58386       0.07612       2.57983       0.09500 
    943.10360      10.58381       0.06405       2.60048       0.10050 
    943.25600      10.58376       0.06284       2.60255       0.10257 
    943.40840      10.58371       0.06831       2.59319       0.09873 
    943.56080      10.58366       0.06197       2.60404       0.09331 
    943.71320      10.58235       0.06497       2.59891       0.08815 
    943.86560      10.56778       0.07700       2.57834       0.08342 
    944.01800      10.53204       0.08466       2.56523       0.08892 
    944.17040      10.48813       0.08134       2.57091       0.09907 
    944.32280      10.44594       0.07705       2.57824       0.10596 
    944.47520      10.39519       0.07276       2.58557       0.11338 
    944.62760      10.32805       0.06848       2.59291       0.12311 
    944.78000      10.27739       0.06465       2.59945       0.13296 
    944.93240      10.23870       0.06631       2.59662       0.13874 
    945.08480      10.19403       0.07266       2.58576       0.13674 
    945.23720      10.20114       0.08035       2.57260       0.12968 
    945.38960      10.22787       0.08619       2.56262       0.11974 
    945.54200      10.25610       0.09067       2.55495       0.10970 
    945.69440      10.28434       0.09462       2.54820       0.10166 
    945.84680      10.27339       0.09461       2.54821       0.09817 
    945.99920      10.25371       0.08476       2.56505       0.10181 
    946.15160      10.23355       0.07575       2.58047       0.10832 
    946.30400      10.21338       0.07328       2.58469       0.11154 
    946.45640      10.19321       0.07141       2.58790       0.10826 
    946.60880      10.18793       0.07420       2.58312       0.10090 
    946.76120      10.20301       0.08363       2.56699       0.09272 
    946.91360      10.21698       0.09232       2.55213       0.08671 
    947.06600      10.20384       0.08790       2.55970       0.08778 
    947.21840      10.18780       0.08227       2.56932       0.09332 
    947.37080      10.17176       0.07664       2.57895       0.09887 
    947.52320      10.15571       0.07336       2.58456       0.10445 
    947.67560      10.13967       0.07035       2.58970       0.11279 
    947.82800      10.12363       0.06735       2.59484       0.12432 
    947.98040      10.10759       0.06510       2.59868       0.14064 
    948.13280      10.09155       0.06870       2.59252       0.15820 
    948.28520      10.07551       0.06562       2.59780       0.17169 
    948.43760      10.13447       0.06186       2.60421       0.17475 
    948.59000      10.22592       0.05937       2.60848       0.16625 
    948.74240      10.04617       0.06260       2.60295       0.15030 
    948.89480      10.06202       0.06635       2.59653       0.13350 
    949.04720      10.09975       0.07118       2.58828       0.11738 
    949.19960      10.13969       0.08341       2.56737       0.10011 
    949.35200      10.16933       0.08307       2.56795       0.08693 
    949.50440      10.18429       0.08096       2.57156       0.08444 
    949.65680      10.17267       0.07940       2.57422       0.08859 
    949.80920      10.14344       0.07790       2.57679       0.09449 
    949.96160      10.10100       0.07640       2.57935       0.10229 
    950.11400      10.04077       0.06747       2.59463       0.12577 
    950.26640       9.98168       0.06043       2.60667       0.14351 
    950.41880       9.92697       0.06443       2.59982       0.13768 
    950.57120       9.82884       0.06944       2.59126       0.12299 
    950.72360       9.86032       0.08302       2.56804       0.10916 
    950.87600       9.91693       0.08758       2.56023       0.10344 
    951.02840       9.97469       0.07415       2.58320       0.10726 
    951.18080       9.96013       0.07604       2.57998       0.11569 
    951.33320       9.92319       0.07901       2.57490       0.12530 
    951.48560       9.88469       0.07010       2.59013       0.13474 
    951.63800       9.84618       0.06009       2.60725       0.13803 
    951.79040       9.82477       0.06245       2.60321       0.12971 
    951.94280       9.87174       0.06275       2.60270       0.12516 
    952.09520       9.89652       0.06275       2.60270       0.13360 
    952.24760       9.92642       0.06326       2.60183       0.14599 
    952.40000       9.95301       0.06415       2.60031       0.15764 
    952.55240       9.97573       0.06109       2.60553       0.16730 
    952.70480       9.99643       0.05868       2.60966       0.16057 
    952.85720      10.01046       0.06075       2.60612       0.14024 
    953.00960      10.02108       0.07813       2.57640       0.11276 
    953.16200      10.03403       0.08179       2.57014       0.09995 
    953.31440      10.05024       0.07282       2.58548       0.11361 
    953.46680      10.05181       0.06741       2.59474       0.12599 
    953.61920      10.05754       0.07729       2.57784       0.12611 
    953.77160      10.06637       0.07846       2.57583       0.12077 
    953.92400      10.06721       0.07390       2.58363       0.10717 
    954.07640      10.06143       0.07279       2.58553       0.09666 
    954.22880      10.05246       0.07960       2.57389       0.09687 
    954.38120      10.04547       0.08710       2.56106       0.10220 
    954.53360      10.02489       0.08924       2.55739       0.11564 
    954.68600      10.00648       0.07222       2.58651       0.13456 
    954.83840       9.99888       0.06866       2.59259       0.15041 
