~Version Information
VERS  .          2.0                                   :CWLS Log Ascii Standard - Version 2.0
WRAP  .          NO                                    :One line per depth step
~Well Information Block
#MNEM.UNIT       Data Type                             Information
#---------       ---------                             -------------------------------
STRT  .M         800.00000                             :PROFUNDIDAD INICIAL
STOP  .M         1845.00000                            :PROFUNDIDAD FINAL
STEP  .M          0.15240                              :INCREMENTO
NULL  .          -999.25                               :VALOR NULO
COMP  .          PETROLEOS MEXICANOS                   :COMPANIA
WELL  .          ABEDUL-1                              :NOMBRE DEL POZO
FLD   .          ABEDUL                                :CAMPO
STAT  .          VERACRUZ                              :ESTADO
CNTY  .          COATZINTLA                            :MUNICIPIO
CTRY  .          MEXICO                                :PAIS
DATE  .          05-MAR-79                             :FECHA
UWI   .          1030022740                            :VALOR UNICO DEL POZO
SRVC  .          PEMEX                                 :COMPANIA DE SERVICIOS
~Parameter Information Block
#MNEM.UNIT       Value                                 Description
#---------       ---------                             -------------
FL.              X=                                    :LOCALIZACION DEL CAMPO
FL1.             Y=                                    :LOCALIZACION DEL CAMPO
PDAT.            NIVEL DEL TERRENO                     :DATO PERMANENTE
EPD.M            135.10                                :ELEVACION DEL DATO PERMANENTE
APD.M            3.8                                   :DIFERENCIA ENTRE MR Y NIVEL DE TERRENO
EKB.M            139.58                                :ELEVACION DEL KELLY BUSHING
EDF.M            139.28                                :ELEVACION DE LA MESA ROTARIA
EGL.M            135.10                                :ELEVACION DEL TERRENO
ELZ.M            139.28                                :ELEVACION DEL CERO DE REFERENCIA
LMF.             MESA ROTARIA                          :REGISTRO MEDIDO DESDE
DMF.             MESA ROTARIA                          :PROFUNDIDAD MEDIDA DESDE
SECT.            DISTRITO POZA RICA                    :NOMBRE DEL SECTOR
CN.              PETROLEOS MEXICANOS                   :NOMBRE DE LA COMPANIA
LATI.            Y=78,766.8 M.                         :LATITUD
LONG.            X=119,309.85 M.                       :LONGITUD
NATI.            MEXICO                                :NACION
RANG.            ZONA NORTE                            :NOMBRE DE LA ZONA
SLAB.            ESTADO                                :ESTADO
STAT.            VERACRUZ                              :NOMBRE DEL ESTADO
CLAB.            MUNICIPIO                             :ETIQUETA DEL MUNICIPIO
COUN.            COATZINTLA                            :NOMBRE DEL MUNICIPIO
SRVC.            REGISTRO  FDC  1:500                  :NOMBRE DEL SERVICIO
DATE.            05-MAR-79                             :FECHA DEL SERVICIO
BLI.M            1845.00000                            :PRIMERA LECTURA
TLI.M            800.00000                             :ULTIMA LECTURA
QCEN.            EDGAR ARTURO OSORNIO RIVERA           :NOMBRE DEL INGENIERO DEL CONTROL DE CALIDAD DEL REGISTRO 
DLQC.            20-NOV-2007                           :FECHA DEL CONTROL DE CALIDAD DEL REGISTRO
CBL1.M           N.R.                                  :ZAPATA SCHLUMBERGER
CBD1.M           N.R.                                  :ZAPATA PERFORACION
TDL.M            N.R.                                  :PROFUNDIDAD REGISTRO
TDD.M            1851.0                                :PROFUNDIDAD PERFORADOR
DFT.             N.R.                                  :TIPO DE LODO
DFD.G/C3         1.25                                  :DENSIDAD DE LODO
DFV.S            45                                    :VISCOSIDAD DEL LODO
DFPH.            N.R.                                  :PH DEL LODO
DFL.C3           N.R.                                  :PERDIDA DE LODO
MSS.             PRESA                                 :FUENTE DE LA MUESTRA DE LODO
RMS.ohm.m        1.8                                   :RESISTIVIDAD DE LODO
MST.DEGC         29                                    :TEMPERATURA DE LA MUESTRA DE LODO
MFSS.            PRENSA                                :FUENTE DEL FILTRADO DE LODO
RMFS.ohm.m       N.R.                                  :RESISTIVIDAD DEL FILTRADO
MFST.DEGC        N.R.                                  :TEMPERATURA DEL FILTRADO
MCSS.            PRENSA                                :FUENTE DEL ENJARRE DE LODO
RMCS.ohm.m       N.R.                                  :RESISTIVIDAD DEL ENJARRE DE LODO
MCST.DEGC        N.R.                                  :TEMPERATURA DEL ENJARRE
BSAL.PPM         N.R.                                  :SALINIDAD DEL LODO
TCS.             N.R.                                  :HORA EN QUE PARO CIRCULACION
STEM.DEGC        29                                    :TEMPERATURA DE SUPERFICIE
BHT.DEGC         70                                    :TEMPERATURA DE FONDO
MRT.DEGC         70                                    :MAXIMA TEMPERATURA REGISTRADA
BS.IN            8.5                                   :DIAMETRO DE BARRENA
CSIZ.IN          9.625                                 :DIAMETRO DE T.R.
CWEI.lbm/ft      N.R.                                  :PESO DE LA T.R.
CTD1.M           N.R.                                  :FONDO DE LA T.R. DEL PERFORADOR
CTL1.M           N.R.                                  :FONDO DE LA T.R. DEL REGISTRO
ENGI.            ROBERTO VICTORIA                      :NOMBRE DEL INGENIERO
WITN.            RAFAEL SANDOVAL                       :NOMBRE DEL TESTIGO
LUN.             8-A                                   :NUMERO DE LA UNIDAD
RUN.             UNO                                   :NUMERO DE LA CORRIDA
OS1.             N.R.                                  :SERVICIOS
HIDE.            REGISTRO DENSIDAD COMPENSADO          :NOMBRE DEL SERVICIO
HID1.            1:500                                 :NOMBRE DEL SERVICIO
LUL.             POZA RICA                             :LUGAR DE LA UNIDAD
R1.              POZA RICA                             :Remarks 1
R2.                                                    :Remarks 2
R3.                                                    :Remarks 3
R4.                                                    :Remarks 4
R5.     Track 1        DIAMETRO DE AGUJERO             :Remarks 5
R6.                          CALI                      :Remarks 6
R7.                           IN                       :Remarks 7
R8.                  3"_________________13"            :Remarks 8
R9.                                                    :Remarks 9
R10.                                                   :Remarks 10
R11.    Track 2-3     DENSIDAD VOLUMETRICA             :Remarks 11
R12.                         RHOB                      :Remarks 12
R13.                         G/C3                      :Remarks 13
R14.                  2_________________3              :Remarks 14
R15.                                                   :Remarks 15
R16.                       POROSIDAD                   :Remarks 16
R17.                         DPHI                      :Remarks 17
R18.                          V/V                      :Remarks 18
R19.                0.3_________________-0.1           :Remarks 19
R20.                                                   :Remarks 20
R21.    Track 3           CORRECCION                   :Remarks 21
R22.                         DRHO                      :Remarks 22
R23.                         G/C3                      :Remarks 23
R24.              -0.25_________________0.25           :Remarks 24
R25. RM  @ TF / 1.0  @ 70 degC                         :Remarks 25
R26. RMF @ TF / 0.75 @ 70 degC                         :Remarks 26
R27. RMC @ TF / 1.0  @ 70 degC                         :Remarks 27
R28.                                                   :Remarks 28
R29.                                                   :Remarks 29
R30.                                                   :Remarks 30
~Curve Information Block
#MNEM.UNIT       API Code            Curve    Description
#--------        --------------      -----    -------------------
DEPT  .M                             :0       Index
CALI  .IN                            :1       Caliper                       
DPHI  .V/V                           :2       Density Porosity              
RHOB  .G/C3                          :3       Bulk Density                  
DRHO  .G/C3                          :4       Bulk Density Correction       
~Ascii Data Section
# ...
   1006.65440      11.29686       0.07231       2.58635       0.14788 
   1006.80680      11.31414       0.08222       2.56940       0.13356 
   1006.95920      11.27938       0.09348       2.55015       0.10614 
   1007.11160      11.23010       0.10432       2.53161       0.08697 
   1007.26400      11.16650       0.10638       2.52810       0.08414 
   1007.41640      11.11801       0.10708       2.52689       0.08890 
   1007.56880      11.07708       0.10279       2.53423       0.09474 
   1007.72120      11.04508       0.10044       2.53824       0.10041 
   1007.87360      11.00821       0.10318       2.53357       0.10551 
   1008.02600      10.97392       0.10711       2.52684       0.11027 
   1008.17840      10.80193       0.11019       2.52157       0.11560 
   1008.33080      10.87052       0.11228       2.51800       0.12121 
   1008.48320      10.96678       0.11228       2.51800       0.12754 
   1008.63560      11.06304       0.10761       2.52599       0.13547 
   1008.78800      10.95974       0.09502       2.54752       0.14817 
   1008.94040      10.81789       0.07735       2.57774       0.16436 
   1009.09280      10.67416       0.06067       2.60626       0.18298 
   1009.24520      10.53515       0.04997       2.62455       0.19309 
   1009.39760      10.57952       0.04874       2.62666       0.18168 
   1009.55000      10.64369       0.05306       2.61927       0.16387 
   1009.70240      10.61762       0.05820       2.61047       0.15297 
   1009.85480      10.54079       0.06317       2.60198       0.14541 
   1010.00720      10.51958       0.06827       2.59325       0.13744 
   1010.15960      10.61660       0.07064       2.58920       0.12749 
   1010.31200      10.72571       0.07380       2.58380       0.12030 
   1010.46440      10.81183       0.07865       2.57550       0.12443 
   1010.61680      10.82000       0.07961       2.57386       0.13767 
   1010.76920      10.82000       0.07508       2.58161       0.15092 
   1010.92160      10.83664       0.07091       2.58874       0.15452 
   1011.07400      10.98124       0.07400       2.58346       0.14695 
   1011.22640      11.13949       0.07775       2.57704       0.13795 
   1011.37880      10.78054       0.08151       2.57063       0.13824 
   1011.53120      10.73074       0.07509       2.58160       0.14615 
   1011.68360      10.72047       0.06760       2.59441       0.15538 
   1011.83600      10.71020       0.06009       2.60725       0.16195 
   1011.98840      10.71898       0.05381       2.61799       0.16177 
   1012.14080      10.80909       0.05826       2.61038       0.15687 
   1012.29320      10.73188       0.06222       2.60360       0.15060 
   1012.44560      10.78207       0.06626       2.59670       0.14835 
   1012.59800      10.89272       0.06508       2.59872       0.15237 
   1012.75040      10.87927       0.06132       2.60513       0.15907 
   1012.90280      10.67972       0.06306       2.60217       0.16609 
   1013.05520      10.73348       0.06639       2.59647       0.17080 
   1013.20760      10.85739       0.06908       2.59187       0.16600 
   1013.36000      10.87177       0.07139       2.58792       0.15617 
   1013.51240      10.77350       0.07346       2.58439       0.14950 
   1013.66480      10.66438       0.07603       2.58000       0.14612 
   1013.81720      10.62393       0.07957       2.57393       0.14401 
   1013.96960      10.68729       0.08413       2.56614       0.14279 
   1014.12200      10.76108       0.08875       2.55823       0.14175 
   1014.27440      10.74396       0.09298       2.55101       0.14043 
   1014.42680      10.50404       0.09765       2.54303       0.13901 
   1014.57920      10.39954       0.10215       2.53533       0.13571 
   1014.73160      10.36785       0.10628       2.52827       0.12882 
   1014.88400      10.34218       0.10991       2.52206       0.11816 
   1015.03640      10.31650       0.11319       2.51644       0.10338 
   1015.18880      10.29915       0.11463       2.51398       0.08732 
   1015.34120      10.40176       0.10811       2.52513       0.09132 
   1015.49360      10.51726       0.09651       2.54496       0.10817 
   1015.64600      10.65130       0.09118       2.55409       0.11901 
   1015.79840      10.79427       0.08620       2.56259       0.12433 
   1015.95080      10.93800       0.08218       2.56948       0.13112 
   1016.10320      11.08173       0.07612       2.57983       0.14318 
   1016.25560      11.06227       0.06153       2.60479       0.15398 
   1016.40800      10.99205       0.04947       2.62540       0.16023 
   1016.56040      10.91825       0.05096       2.62286       0.16434 
   1016.71280      10.86535       0.05737       2.61190       0.16800 
   1016.86520      10.85783       0.06584       2.59741       0.16881 
   1017.01760      10.86588       0.07234       2.58630       0.16542 
   1017.17000      10.87255       0.07508       2.58162       0.16111 
   1017.32240      10.88709       0.07692       2.57847       0.15702 
   1017.47480      10.90264       0.07853       2.57572       0.15303 
   1017.62720      10.92391       0.08006       2.57309       0.14975 
   1017.77960      10.90131       0.08190       2.56996       0.14679 
   1017.93200      11.09937       0.08429       2.56587       0.14390 
   1018.08440      11.12806       0.08839       2.55885       0.14095 
   1018.23680      11.13576       0.09404       2.54919       0.13776 
   1018.38920      11.14346       0.09958       2.53973       0.13447 
   1018.54160      11.12644       0.10422       2.53178       0.13091 
   1018.69400      11.03193       0.10614       2.52850       0.12721 
   1018.84640      10.92928       0.10512       2.53025       0.12374 
   1018.99880      10.82663       0.10645       2.52798       0.11982 
   1019.15120      10.72398       0.11471       2.51385       0.11465 
   1019.30360      10.60639       0.12462       2.49690       0.10861 
   1019.45600      10.47601       0.13039       2.48704       0.10182 
   1019.60840      10.34442       0.13531       2.47861       0.10227 
   1019.76080      10.35018       0.13212       2.48408       0.11047 
   1019.91320      10.53457       0.11760       2.50891       0.12033 
   1020.06560      10.73669       0.10659       2.52773       0.12972 
   1020.21800      10.79839       0.10266       2.53445       0.13416 
   1020.37040      10.57134       0.10572       2.52922       0.12976 
   1020.52280      10.31504       0.11061       2.52085       0.12053 
   1020.67520      10.51024       0.11495       2.51343       0.11096 
   1020.82760      10.67210       0.11790       2.50840       0.11183 
   1020.98000      10.72178       0.11838       2.50757       0.13458 
   1021.13240      10.76028       0.10631       2.52821       0.15198 
   1021.28480      10.79878       0.08643       2.56220       0.15224 
   1021.43720      10.85945       0.07886       2.57515       0.15683 
   1021.58960      10.94090       0.07326       2.58473       0.17271 
   1021.74200      11.02433       0.06596       2.59721       0.18963 
   1021.89440      11.07536       0.05834       2.61025       0.19321 
   1022.04680      11.08000       0.05629       2.61374       0.18219 
   1022.19920      11.08000       0.06034       2.60683       0.16793 
   1022.35160      11.10663       0.06520       2.59851       0.15645 
   1022.50400      11.19440       0.07054       2.58937       0.14558 
   1022.65640      11.28851       0.08529       2.56416       0.13809 
   1022.80880      11.21505       0.09424       2.54885       0.13935 
   1022.96120      11.11926       0.10182       2.53589       0.14556 
   1023.11360      11.02301       0.10073       2.53776       0.15195 
   1023.26600      11.01127       0.09370       2.54977       0.15737 
   1023.41840      11.02260       0.08620       2.56260       0.15743 
   1023.57080      11.03544       0.08147       2.57069       0.15199 
   1023.72320      11.01246       0.08082       2.57180       0.14536 
