~Version Information
VERS  .          2.0                                   :CWLS Log Ascii Standard - Version 2.0
WRAP  .          NO                                    :One line per depth step
~Well Information Block
#MNEM.UNIT       Data Type                             Information
#---------       ---------                             -------------------------------
STRT  .M         800.00000                             :PROFUNDIDAD INICIAL
STOP  .M         1845.00000                            :PROFUNDIDAD FINAL
STEP  .M          0.15240                              :INCREMENTO
NULL  .          -999.25                               :VALOR NULO
COMP  .          PETROLEOS MEXICANOS                   :COMPANIA
WELL  .          ABEDUL-1                              :NOMBRE DEL POZO
FLD   .          ABEDUL                                :CAMPO
STAT  .          VERACRUZ                              :ESTADO
CNTY  .          COATZINTLA                            :MUNICIPIO
CTRY  .          MEXICO                                :PAIS
DATE  .          05-MAR-79                             :FECHA
UWI   .          1030022740                            :VALOR UNICO DEL POZO
SRVC  .          PEMEX                                 :COMPANIA DE SERVICIOS
~Parameter Information Block
#MNEM.UNIT       Value                                 Description
#---------       ---------                             -------------
FL.              X=                                    :LOCALIZACION DEL CAMPO
FL1.             Y=                                    :LOCALIZACION DEL CAMPO
PDAT.            NIVEL DEL TERRENO                     :DATO PERMANENTE
EPD.M            135.10                                :ELEVACION DEL DATO PERMANENTE
APD.M            3.8                                   :DIFERENCIA ENTRE MR Y NIVEL DE TERRENO
EKB.M            139.58                                :ELEVACION DEL KELLY BUSHING
EDF.M            139.28                                :ELEVACION DE LA MESA ROTARIA
EGL.M            135.10                                :ELEVACION DEL TERRENO
ELZ.M            139.28                                :ELEVACION DEL CERO DE REFERENCIA
LMF.             MESA ROTARIA                          :REGISTRO MEDIDO DESDE
DMF.             MESA ROTARIA                          :PROFUNDIDAD MEDIDA DESDE
SECT.            DISTRITO POZA RICA                    :NOMBRE DEL SECTOR
CN.              PETROLEOS MEXICANOS                   :NOMBRE DE LA COMPANIA
LATI.            Y=78,766.8 M.                         :LATITUD
LONG.            X=119,309.85 M.                       :LONGITUD
NATI.            MEXICO                                :NACION
RANG.            ZONA NORTE                            :NOMBRE DE LA ZONA
SLAB.            ESTADO                                :ESTADO
STAT.            VERACRUZ                              :NOMBRE DEL ESTADO
CLAB.            MUNICIPIO                             :ETIQUETA DEL MUNICIPIO
COUN.            COATZINTLA                            :NOMBRE DEL MUNICIPIO
SRVC.            REGISTRO  FDC  1:500                  :NOMBRE DEL SERVICIO
DATE.            05-MAR-79                             :FECHA DEL SERVICIO
BLI.M            1845.00000                            :PRIMERA LECTURA
TLI.M            800.00000                             :ULTIMA LECTURA
QCEN.            EDGAR ARTURO OSORNIO RIVERA           :NOMBRE DEL INGENIERO DEL CONTROL DE CALIDAD DEL REGISTRO 
DLQC.            20-NOV-2007                           :FECHA DEL CONTROL DE CALIDAD DEL REGISTRO
CBL1.M           N.R.                                  :ZAPATA SCHLUMBERGER
CBD1.M           N.R.                                  :ZAPATA PERFORACION
TDL.M            N.R.                                  :PROFUNDIDAD REGISTRO
TDD.M            1851.0                                :PROFUNDIDAD PERFORADOR
DFT.             N.R.                                  :TIPO DE LODO
DFD.G/C3         1.25                                  :DENSIDAD DE LODO
DFV.S            45                                    :VISCOSIDAD DEL LODO
DFPH.            N.R.                                  :PH DEL LODO
DFL.C3           N.R.                                  :PERDIDA DE LODO
MSS.             PRESA                                 :FUENTE DE LA MUESTRA DE LODO
RMS.ohm.m        1.8                                   :RESISTIVIDAD DE LODO
MST.DEGC         29                                    :TEMPERATURA DE LA MUESTRA DE LODO
MFSS.            PRENSA                                :FUENTE DEL FILTRADO DE LODO
RMFS.ohm.m       N.R.                                  :RESISTIVIDAD DEL FILTRADO
MFST.DEGC        N.R.                                  :TEMPERATURA DEL FILTRADO
MCSS.            PRENSA                                :FUENTE DEL ENJARRE DE LODO
RMCS.ohm.m       N.R.                                  :RESISTIVIDAD DEL ENJARRE DE LODO
MCST.DEGC        N.R.                                  :TEMPERATURA DEL ENJARRE
BSAL.PPM         N.R.                                  :SALINIDAD DEL LODO
TCS.             N.R.                                  :HORA EN QUE PARO CIRCULACION
STEM.DEGC        29                                    :TEMPERATURA DE SUPERFICIE
BHT.DEGC         70                                    :TEMPERATURA DE FONDO
MRT.DEGC         70                                    :MAXIMA TEMPERATURA REGISTRADA
BS.IN            8.5                                   :DIAMETRO DE BARRENA
CSIZ.IN          9.625                                 :DIAMETRO DE T.R.
CWEI.lbm/ft      N.R.                                  :PESO DE LA T.R.
CTD1.M           N.R.                                  :FONDO DE LA T.R. DEL PERFORADOR
CTL1.M           N.R.                                  :FONDO DE LA T.R. DEL REGISTRO
ENGI.            ROBERTO VICTORIA                      :NOMBRE DEL INGENIERO
WITN.            RAFAEL SANDOVAL                       :NOMBRE DEL TESTIGO
LUN.             8-A                                   :NUMERO DE LA UNIDAD
RUN.             UNO                                   :NUMERO DE LA CORRIDA
OS1.             N.R.                                  :SERVICIOS
HIDE.            REGISTRO DENSIDAD COMPENSADO          :NOMBRE DEL SERVICIO
HID1.            1:500                                 :NOMBRE DEL SERVICIO
LUL.             POZA RICA                             :LUGAR DE LA UNIDAD
R1.              POZA RICA                             :Remarks 1
R2.                                                    :Remarks 2
R3.                                                    :Remarks 3
R4.                                                    :Remarks 4
R5.     Track 1        DIAMETRO DE AGUJERO             :Remarks 5
R6.                          CALI                      :Remarks 6
R7.                           IN                       :Remarks 7
R8.                  3"_________________13"            :Remarks 8
R9.                                                    :Remarks 9
R10.                                                   :Remarks 10
R11.    Track 2-3     DENSIDAD VOLUMETRICA             :Remarks 11
R12.                         RHOB                      :Remarks 12
R13.                         G/C3                      :Remarks 13
R14.                  2_________________3              :Remarks 14
R15.                                                   :Remarks 15
R16.                       POROSIDAD                   :Remarks 16
R17.                         DPHI                      :Remarks 17
R18.                          V/V                      :Remarks 18
R19.                0.3_________________-0.1           :Remarks 19
R20.                                                   :Remarks 20
R21.    Track 3           CORRECCION                   :Remarks 21
R22.                         DRHO                      :Remarks 22
R23.                         G/C3                      :Remarks 23
R24.              -0.25_________________0.25           :Remarks 24
R25. RM  @ TF / 1.0  @ 70 degC                         :Remarks 25
R26. RMF @ TF / 0.75 @ 70 degC                         :Remarks 26
R27. RMC @ TF / 1.0  @ 70 degC                         :Remarks 27
R28.                                                   :Remarks 28
R29.                                                   :Remarks 29
R30.                                                   :Remarks 30
~Curve Information Block
#MNEM.UNIT       API Code            Curve    Description
#--------        --------------      -----    -------------------
DEPT  .M                             :0       Index
CALI  .IN                            :1       Caliper                       
DPHI  .V/V                           :2       Density Porosity              
RHOB  .G/C3                          :3       Bulk Density                  
DRHO  .G/C3                          :4       Bulk Density Correction       
~Ascii Data Section
# ...
   1488.84800       7.55500       0.04445       2.63398       0.07361 
   1489.00040       7.53334       0.03819       2.64470       0.08134 
   1489.15280       7.55056       0.03639       2.64777       0.08738 
   1489.30520       7.57194       0.03759       2.64573       0.08480 
   1489.45760       7.59334       0.04278       2.63685       0.07622 
   1489.61000       7.61472       0.04977       2.62490       0.08178 
   1489.76240       7.63612       0.04716       2.62935       0.09378 
   1489.91480       7.65750       0.04011       2.64141       0.09147 
   1490.06720       7.67532       0.04533       2.63249       0.08131 
   1490.21960       7.61913       0.04957       2.62524       0.07270 
   1490.37200       7.55498       0.05237       2.62044       0.06500 
   1490.52440       7.56232       0.05491       2.61610       0.05730 
   1490.67680       7.60679       0.05837       2.61019       0.05382 
   1490.82920       7.65448       0.06114       2.60545       0.05811 
   1490.98160       7.70214       0.05957       2.60814       0.06581 
   1491.13400       7.74983       0.05301       2.61934       0.07351 
   1491.28640       7.75762       0.04160       2.63886       0.07004 
   1491.43880       7.64444       0.02538       2.66661       0.05031 
   1491.59120       7.51870       0.01354       2.68684       0.03630 
   1491.74360       7.39289       0.00798       2.69635       0.06731 
   1491.89600       7.33488       0.00789       2.69650       0.09678 
   1492.04840       7.40522       0.01550       2.68350       0.08424 
   1492.20080       7.48861       0.02659       2.66453       0.06685 
   1492.35320       7.57199       0.03821       2.64467       0.06966 
   1492.50560       7.65544       0.04272       2.63694       0.08234 
   1492.65800       7.73882       0.03182       2.65559       0.09467 
   1492.81040       7.83584       0.01667       2.68150       0.10281 
   1492.96280       7.96788       0.00985       2.69316       0.10439 
   1493.11520       8.00690       0.01366       2.68665       0.10203 
   1493.26760       8.01832       0.01964       2.67642       0.09830 
   1493.42000       8.01455       0.02311       2.67048       0.09382 
   1493.57240       7.99874       0.02632       2.66499       0.08918 
   1493.72480       7.97703       0.03081       2.65732       0.08287 
   1493.87720       7.95567       0.03683       2.64703       0.06453 
   1494.02960       7.95725       0.04431       2.63423       0.04671 
   1494.18200       7.92421       0.05211       2.62089       0.04324 
   1494.33440       7.88714       0.05915       2.60886       0.04705 
   1494.48680       7.85005       0.06483       2.59915       0.05440 
   1494.63920       7.81299       0.06876       2.59242       0.06524 
   1494.79160       7.77590       0.05763       2.61145       0.07782 
   1494.94400       7.73884       0.03467       2.65072       0.09092 
   1495.09640       7.70875       0.03363       2.65249       0.08434 
   1495.24880       7.69431       0.04360       2.63544       0.05926 
   1495.40120       7.68147       0.05139       2.62212       0.04563 
   1495.55360       7.50935       0.05691       2.61269       0.05424 
   1495.70600       7.40165       0.05565       2.61485       0.07293 
   1495.85840       7.41745       0.03729       2.64624       0.08204 
   1496.01080       7.44567       0.02080       2.67443       0.07741 
   1496.16320       7.47392       0.02866       2.66099       0.06709 
   1496.31560       7.50214       0.03875       2.64373       0.05677 
   1496.46800       7.53039       0.04616       2.63107       0.05304 
   1496.62040       7.55861       0.04660       2.63031       0.05484 
   1496.77280       7.58686       0.04259       2.63717       0.05201 
   1496.92520       7.56763       0.04035       2.64101       0.04470 
   1497.07760       7.51560       0.04165       2.63877       0.03871 
   1497.23000       7.46062       0.04448       2.63394       0.03784 
   1497.38240       7.40560       0.04716       2.62936       0.04141 
   1497.53480       7.35062       0.04773       2.62839       0.04670 
   1497.68720       7.30723       0.04478       2.63342       0.04697 
   1497.83960       7.31890       0.03949       2.64248       0.04019 
   1497.99200       7.33639       0.03912       2.64310       0.03234 
   1498.14440       7.35390       0.04775       2.62835       0.02686 
   1498.29680       7.37140       0.05885       2.60937       0.02510 
   1498.44920       7.38891       0.06908       2.59188       0.02903 
   1498.60160       7.40640       0.06846       2.59294       0.03680 
   1498.75400       7.42391       0.05482       2.61625       0.04832 
   1498.90640       7.44141       0.03939       2.64264       0.06436 
   1499.05880       7.47217       0.03201       2.65526       0.07145 
   1499.21120       7.51294       0.03715       2.64647       0.06470 
   1499.36360       7.55466       0.04324       2.63606       0.05512 
   1499.51600       7.59635       0.04933       2.62565       0.04998 
   1499.66840       7.63807       0.05541       2.61526       0.05538 
   1499.82080       7.67977       0.06151       2.60481       0.06725 
   1499.97320       7.69389       0.06667       2.59599       0.06619 
   1500.12560       7.65857       0.06239       2.60331       0.05416 
   1500.27800       7.61825       0.04992       2.62463       0.05033 
   1500.43040       7.57791       0.04495       2.63314       0.05740 
   1500.58280       7.53759       0.03891       2.64346       0.06710 
   1500.73520       7.49724       0.02678       2.66420       0.07649 
   1500.88760       7.47967       0.01525       2.68392       0.08524 
   1501.04000       7.53259       0.00727       2.69757       0.09387 
   1501.19240       7.55970       0.00473       2.70191       0.10080 
   1501.34480       7.58324       0.01006       2.69280       0.09933 
   1501.49720       7.60676       0.01771       2.67971       0.09111 
   1501.64960       7.63029       0.02554       2.66632       0.08279 
   1501.80200       7.60888       0.02890       2.66059       0.08473 
   1501.95440       7.56194       0.02107       2.67397       0.10086 
   1502.10680       7.51273       0.00616       2.69947       0.11663 
   1502.25920       7.46355      -0.00634       2.72084       0.11365 
   1502.41160       7.41522      -0.01189       2.73034       0.10093 
   1502.56400       7.45786      -0.01025       2.72753       0.09257 
   1502.71640       7.51038      -0.00160       2.71274       0.08755 
   1502.86880       7.56287       0.00905       2.69452       0.08364 
   1503.02120       7.61540       0.01985       2.67606       0.08008 
   1503.17360       7.66789       0.03061       2.65765       0.07565 
   1503.32600       7.72041       0.04139       2.63922       0.07071 
   1503.47840       7.77290       0.05055       2.62356       0.07518 
   1503.63080       7.82543       0.05477       2.61635       0.07864 
   1503.78320       7.84442       0.05460       2.61664       0.07229 
   1503.93560       7.81698       0.05166       2.62165       0.07835 
   1504.08800       7.78489       0.04346       2.63569       0.08898 
   1504.24040       7.75281       0.03316       2.65329       0.08954 
   1504.39280       7.72072       0.02736       2.66321       0.08970 
   1504.54520       7.71781       0.02312       2.67047       0.09338 
   1504.69760       7.72710       0.01762       2.67987       0.09681 
   1504.85000       7.73737       0.01508       2.68421       0.09419 
   1505.00240       7.74764       0.01867       2.67807       0.08395 
   1505.15480       7.77726       0.02417       2.66866       0.06802 
   1505.30720       7.81195       0.02940       2.65972       0.05242 
   1505.45960       7.84695       0.03407       2.65175       0.04375 
   1505.61200       7.88196       0.03707       2.64662       0.04361 
   1505.76440       7.91695       0.03713       2.64650       0.05013 
   1505.91680       7.95194       0.03512       2.64995       0.06196 
