~Version Information
VERS  .          2.0                                   :CWLS Log Ascii Standard - Version 2.0
WRAP  .          NO                                    :One line per depth step
~Well Information Block
#MNEM.UNIT       Data Type                             Information
#---------       ---------                             -------------------------------
STRT  .M         800.00000                             :PROFUNDIDAD INICIAL
STOP  .M         1845.00000                            :PROFUNDIDAD FINAL
STEP  .M          0.15240                              :INCREMENTO
NULL  .          -999.25                               :VALOR NULO
COMP  .          PETROLEOS MEXICANOS                   :COMPANIA
WELL  .          ABEDUL-1                              :NOMBRE DEL POZO
FLD   .          ABEDUL                                :CAMPO
STAT  .          VERACRUZ                              :ESTADO
CNTY  .          COATZINTLA                            :MUNICIPIO
CTRY  .          MEXICO                                :PAIS
DATE  .          05-MAR-79                             :FECHA
UWI   .          1030022740                            :VALOR UNICO DEL POZO
SRVC  .          PEMEX                                 :COMPANIA DE SERVICIOS
~Parameter Information Block
#MNEM.UNIT       Value                                 Description
#---------       ---------                             -------------
FL.              X=                                    :LOCALIZACION DEL CAMPO
FL1.             Y=                                    :LOCALIZACION DEL CAMPO
PDAT.            NIVEL DEL TERRENO                     :DATO PERMANENTE
EPD.M            135.10                                :ELEVACION DEL DATO PERMANENTE
APD.M            3.8                                   :DIFERENCIA ENTRE MR Y NIVEL DE TERRENO
EKB.M            139.58                                :ELEVACION DEL KELLY BUSHING
EDF.M            139.28                                :ELEVACION DE LA MESA ROTARIA
EGL.M            135.10                                :ELEVACION DEL TERRENO
ELZ.M            139.28                                :ELEVACION DEL CERO DE REFERENCIA
LMF.             MESA ROTARIA                          :REGISTRO MEDIDO DESDE
DMF.             MESA ROTARIA                          :PROFUNDIDAD MEDIDA DESDE
SECT.            DISTRITO POZA RICA                    :NOMBRE DEL SECTOR
CN.              PETROLEOS MEXICANOS                   :NOMBRE DE LA COMPANIA
LATI.            Y=78,766.8 M.                         :LATITUD
LONG.            X=119,309.85 M.                       :LONGITUD
NATI.            MEXICO                                :NACION
RANG.            ZONA NORTE                            :NOMBRE DE LA ZONA
SLAB.            ESTADO                                :ESTADO
STAT.            VERACRUZ                              :NOMBRE DEL ESTADO
CLAB.            MUNICIPIO                             :ETIQUETA DEL MUNICIPIO
COUN.            COATZINTLA                            :NOMBRE DEL MUNICIPIO
SRVC.            REGISTRO  FDC  1:500                  :NOMBRE DEL SERVICIO
DATE.            05-MAR-79                             :FECHA DEL SERVICIO
BLI.M            1845.00000                            :PRIMERA LECTURA
TLI.M            800.00000                             :ULTIMA LECTURA
QCEN.            EDGAR ARTURO OSORNIO RIVERA           :NOMBRE DEL INGENIERO DEL CONTROL DE CALIDAD DEL REGISTRO 
DLQC.            20-NOV-2007                           :FECHA DEL CONTROL DE CALIDAD DEL REGISTRO
CBL1.M           N.R.                                  :ZAPATA SCHLUMBERGER
CBD1.M           N.R.                                  :ZAPATA PERFORACION
TDL.M            N.R.                                  :PROFUNDIDAD REGISTRO
TDD.M            1851.0                                :PROFUNDIDAD PERFORADOR
DFT.             N.R.                                  :TIPO DE LODO
DFD.G/C3         1.25                                  :DENSIDAD DE LODO
DFV.S            45                                    :VISCOSIDAD DEL LODO
DFPH.            N.R.                                  :PH DEL LODO
DFL.C3           N.R.                                  :PERDIDA DE LODO
MSS.             PRESA                                 :FUENTE DE LA MUESTRA DE LODO
RMS.ohm.m        1.8                                   :RESISTIVIDAD DE LODO
MST.DEGC         29                                    :TEMPERATURA DE LA MUESTRA DE LODO
MFSS.            PRENSA                                :FUENTE DEL FILTRADO DE LODO
RMFS.ohm.m       N.R.                                  :RESISTIVIDAD DEL FILTRADO
MFST.DEGC        N.R.                                  :TEMPERATURA DEL FILTRADO
MCSS.            PRENSA                                :FUENTE DEL ENJARRE DE LODO
RMCS.ohm.m       N.R.                                  :RESISTIVIDAD DEL ENJARRE DE LODO
MCST.DEGC        N.R.                                  :TEMPERATURA DEL ENJARRE
BSAL.PPM         N.R.                                  :SALINIDAD DEL LODO
TCS.             N.R.                                  :HORA EN QUE PARO CIRCULACION
STEM.DEGC        29                                    :TEMPERATURA DE SUPERFICIE
BHT.DEGC         70                                    :TEMPERATURA DE FONDO
MRT.DEGC         70                                    :MAXIMA TEMPERATURA REGISTRADA
BS.IN            8.5                                   :DIAMETRO DE BARRENA
CSIZ.IN          9.625                                 :DIAMETRO DE T.R.
CWEI.lbm/ft      N.R.                                  :PESO DE LA T.R.
CTD1.M           N.R.                                  :FONDO DE LA T.R. DEL PERFORADOR
CTL1.M           N.R.                                  :FONDO DE LA T.R. DEL REGISTRO
ENGI.            ROBERTO VICTORIA                      :NOMBRE DEL INGENIERO
WITN.            RAFAEL SANDOVAL                       :NOMBRE DEL TESTIGO
LUN.             8-A                                   :NUMERO DE LA UNIDAD
RUN.             UNO                                   :NUMERO DE LA CORRIDA
OS1.             N.R.                                  :SERVICIOS
HIDE.            REGISTRO DENSIDAD COMPENSADO          :NOMBRE DEL SERVICIO
HID1.            1:500                                 :NOMBRE DEL SERVICIO
LUL.             POZA RICA                             :LUGAR DE LA UNIDAD
R1.              POZA RICA                             :Remarks 1
R2.                                                    :Remarks 2
R3.                                                    :Remarks 3
R4.                                                    :Remarks 4
R5.     Track 1        DIAMETRO DE AGUJERO             :Remarks 5
R6.                          CALI                      :Remarks 6
R7.                           IN                       :Remarks 7
R8.                  3"_________________13"            :Remarks 8
R9.                                                    :Remarks 9
R10.                                                   :Remarks 10
R11.    Track 2-3     DENSIDAD VOLUMETRICA             :Remarks 11
R12.                         RHOB                      :Remarks 12
R13.                         G/C3                      :Remarks 13
R14.                  2_________________3              :Remarks 14
R15.                                                   :Remarks 15
R16.                       POROSIDAD                   :Remarks 16
R17.                         DPHI                      :Remarks 17
R18.                          V/V                      :Remarks 18
R19.                0.3_________________-0.1           :Remarks 19
R20.                                                   :Remarks 20
R21.    Track 3           CORRECCION                   :Remarks 21
R22.                         DRHO                      :Remarks 22
R23.                         G/C3                      :Remarks 23
R24.              -0.25_________________0.25           :Remarks 24
R25. RM  @ TF / 1.0  @ 70 degC                         :Remarks 25
R26. RMF @ TF / 0.75 @ 70 degC                         :Remarks 26
R27. RMC @ TF / 1.0  @ 70 degC                         :Remarks 27
R28.                                                   :Remarks 28
R29.                                                   :Remarks 29
R30.                                                   :Remarks 30
~Curve Information Block
#MNEM.UNIT       API Code            Curve    Description
#--------        --------------      -----    -------------------
DEPT  .M                             :0       Index
CALI  .IN                            :1       Caliper                       
DPHI  .V/V                           :2       Density Porosity              
RHOB  .G/C3                          :3       Bulk Density                  
DRHO  .G/C3                          :4       Bulk Density Correction       
~Ascii Data Section
# ...
   1075.53920      10.54080       0.12616       2.49427       0.18175 
   1075.69160      10.62771       0.13311       2.48238       0.18221 
   1075.84400      10.72265       0.13508       2.47901       0.18625 
   1075.99640      10.81759       0.12859       2.49011       0.20121 
   1076.14880      10.87703       0.12048       2.50398       0.20922 
   1076.30120      10.86220       0.11255       2.51754       0.20396 
   1076.45360      10.83974       0.10698       2.52706       0.19613 
   1076.60600      10.77361       0.10512       2.53025       0.18935 
   1076.75840      10.54662       0.10460       2.53114       0.18570 
   1076.91080      10.51306       0.10480       2.53080       0.18689 
   1077.06320      10.61048       0.10566       2.52932       0.19250 
   1077.21560      10.71954       0.10686       2.52726       0.20363 
   1077.36800      10.68611       0.10836       2.52471       0.22413 
   1077.52040      10.77434       0.11033       2.52134       0.24352 
   1077.67280      10.90485       0.10969       2.52244       0.22071 
   1077.82520      11.03579       0.13023       2.48731       0.18237 
   1077.97760      11.14739       0.15274       2.44881       0.16292 
   1078.13000      11.16297       0.15090       2.45196       0.15235 
   1078.28240      11.10261       0.14270       2.46598       0.14307 
   1078.43480      11.05377       0.13412       2.48065       0.14272 
   1078.58720      11.01501       0.12555       2.49531       0.15435 
   1078.73960      10.99232       0.11697       2.50998       0.17263 
   1078.89200      10.97966       0.11246       2.51769       0.19104 
   1079.04440      10.97197       0.11440       2.51437       0.19798 
   1079.19680      10.96413       0.11698       2.50996       0.19417 
   1079.34920      10.95660       0.12063       2.50372       0.18724 
   1079.50160      10.92486       0.12196       2.50146       0.17987 
   1079.65400      10.84403       0.12067       2.50365       0.17010 
   1079.80640      10.72812       0.11917       2.50621       0.15617 
   1079.95880      10.57860       0.11767       2.50878       0.14106 
   1080.11120      10.41209       0.12329       2.49917       0.13094 
   1080.26360      10.36408       0.13412       2.48065       0.12788 
   1080.41600      10.22747       0.14538       2.46139       0.12886 
   1080.56840      10.15493       0.14818       2.45661       0.13004 
   1080.72080      10.16409       0.14148       2.46806       0.13030 
   1080.87320      10.18119       0.13397       2.48090       0.13586 
   1081.02560      10.19831       0.12647       2.49373       0.14596 
   1081.17800      10.21542       0.13017       2.48741       0.15137 
   1081.33040      10.26780       0.13658       2.47645       0.15091 
   1081.48280      10.33115       0.13680       2.47608       0.14963 
   1081.63520      10.38393       0.13165       2.48488       0.15067 
   1081.78760      10.42369       0.13009       2.48755       0.15333 
   1081.94000      10.46218       0.13139       2.48533       0.15605 
   1082.09240      10.50069       0.12831       2.49059       0.15438 
   1082.24480      10.46557       0.12509       2.49609       0.14749 
   1082.39720      10.37253       0.12514       2.49600       0.13906 
   1082.54960      10.34804       0.12772       2.49160       0.13711 
   1082.70200      10.54333       0.13064       2.48660       0.14193 
   1082.85440      10.61821       0.13348       2.48174       0.14845 
   1083.00680      10.61629       0.13472       2.47963       0.15254 
   1083.15920      10.60773       0.13280       2.48291       0.15189 
   1083.31160      10.59917       0.13147       2.48518       0.14848 
   1083.46400      10.58369       0.13271       2.48306       0.14458 
   1083.61640      10.30413       0.13507       2.47903       0.14034 
   1083.76880      10.25585       0.13793       2.47413       0.13603 
   1083.92120      10.53177       0.14110       2.46872       0.13233 
   1084.07360      10.32412       0.14262       2.46611       0.13410 
   1084.22600      10.00905       0.13977       2.47100       0.14207 
   1084.37840       9.92842       0.13785       2.47428       0.15171 
   1084.53080      10.05428       0.14083       2.46918       0.14723 
   1084.68320      10.10863       0.14103       2.46883       0.14082 
   1084.83560       9.85451       0.13811       2.47384       0.14598 
   1084.98800       9.56785       0.13341       2.48187       0.15620 
   1085.14040       9.64033       0.12814       2.49088       0.15956 
   1085.29280       9.79355       0.12226       2.50094       0.15530 
   1085.44520       9.95119       0.11558       2.51235       0.15115 
   1085.59760      10.10893       0.10896       2.52368       0.14861 
   1085.75000      10.26657       0.10340       2.53319       0.14607 
   1085.90240      10.35954       0.10135       2.53670       0.14337 
   1086.05480      10.36373       0.10425       2.53173       0.14027 
   1086.20720      10.35906       0.10928       2.52313       0.14064 
   1086.35960      10.35439       0.11271       2.51727       0.14630 
   1086.51200      10.34973       0.11566       2.51222       0.15231 
   1086.66440      10.34506       0.11620       2.51130       0.15752 
   1086.81680      10.34039       0.11206       2.51837       0.16209 
   1086.96920      10.33573       0.10735       2.52643       0.16683 
   1087.12160      10.33106       0.10421       2.53180       0.17129 
   1087.27400      10.36837       0.10284       2.53414       0.17205 
   1087.42640      10.41645       0.10331       2.53334       0.16959 
   1087.57880      10.46523       0.10497       2.53051       0.16912 
   1087.73120      10.51399       0.10767       2.52588       0.17156 
   1087.88360      10.58755       0.11153       2.51928       0.17433 
   1088.03600      10.66451       0.11605       2.51156       0.17409 
   1088.18840      10.74149       0.12044       2.50405       0.16787 
   1088.34080      10.81697       0.12438       2.49730       0.15834 
   1088.49320      10.80199       0.12937       2.48877       0.15012 
   1088.64560      10.69123       0.13615       2.47718       0.14424 
   1088.79800      10.60237       0.14241       2.46649       0.13980 
   1088.95040      10.53093       0.14689       2.45882       0.13608 
   1089.10280      10.47830       0.14728       2.45815       0.13226 
   1089.25520      10.51161       0.14456       2.46281       0.12891 
   1089.40760      10.68423       0.14322       2.46510       0.12672 
   1089.56000      10.89783       0.14297       2.46552       0.12556 
   1089.71240      11.07764       0.13885       2.47256       0.12537 
   1089.86480      11.19673       0.13323       2.48217       0.12737 
   1090.01720      11.28114       0.12919       2.48908       0.13248 
   1090.16960      11.38114       0.12613       2.49431       0.14054 
   1090.32200      11.47523       0.12254       2.50045       0.15320 
   1090.47440      11.56837       0.11848       2.50741       0.16869 
   1090.62680      11.65002       0.11989       2.50498       0.18648 
   1090.77920      11.71962       0.12911       2.48922       0.18637 
   1090.93160      11.79635       0.13585       2.47769       0.17104 
   1091.08400      11.85670       0.13795       2.47411       0.15969 
   1091.23640      11.78096       0.13139       2.48533       0.15740 
   1091.38880      11.57379       0.11878       2.50688       0.16184 
   1091.54120      11.44069       0.11461       2.51402       0.16829 
   1091.69360      11.36300       0.11231       2.51795       0.17365 
   1091.84600      11.29284       0.11012       2.52169       0.17913 
   1091.99840      11.22543       0.10767       2.52589       0.18914 
   1092.15080      11.19071       0.10275       2.53429       0.20180 
   1092.30320      11.17074       0.09432       2.54872       0.21254 
   1092.45560      11.13058       0.08898       2.55784       0.21020 
   1092.60800      11.09770       0.09073       2.55485       0.19916 
