~Version Information
VERS  .          2.0                                   :CWLS Log Ascii Standard - Version 2.0
WRAP  .          NO                                    :One line per depth step
~Well Information Block
#MNEM.UNIT       Data Type                             Information
#---------       ---------                             -------------------------------
STRT  .M         800.00000                             :PROFUNDIDAD INICIAL
STOP  .M         1845.00000                            :PROFUNDIDAD FINAL
STEP  .M          0.15240                              :INCREMENTO
NULL  .          -999.25                               :VALOR NULO
COMP  .          PETROLEOS MEXICANOS                   :COMPANIA
WELL  .          ABEDUL-1                              :NOMBRE DEL POZO
FLD   .          ABEDUL                                :CAMPO
STAT  .          VERACRUZ                              :ESTADO
CNTY  .          COATZINTLA                            :MUNICIPIO
CTRY  .          MEXICO                                :PAIS
DATE  .          05-MAR-79                             :FECHA
UWI   .          1030022740                            :VALOR UNICO DEL POZO
SRVC  .          PEMEX                                 :COMPANIA DE SERVICIOS
~Parameter Information Block
#MNEM.UNIT       Value                                 Description
#---------       ---------                             -------------
FL.              X=                                    :LOCALIZACION DEL CAMPO
FL1.             Y=                                    :LOCALIZACION DEL CAMPO
PDAT.            NIVEL DEL TERRENO                     :DATO PERMANENTE
EPD.M            135.10                                :ELEVACION DEL DATO PERMANENTE
APD.M            3.8                                   :DIFERENCIA ENTRE MR Y NIVEL DE TERRENO
EKB.M            139.58                                :ELEVACION DEL KELLY BUSHING
EDF.M            139.28                                :ELEVACION DE LA MESA ROTARIA
EGL.M            135.10                                :ELEVACION DEL TERRENO
ELZ.M            139.28                                :ELEVACION DEL CERO DE REFERENCIA
LMF.             MESA ROTARIA                          :REGISTRO MEDIDO DESDE
DMF.             MESA ROTARIA                          :PROFUNDIDAD MEDIDA DESDE
SECT.            DISTRITO POZA RICA                    :NOMBRE DEL SECTOR
CN.              PETROLEOS MEXICANOS                   :NOMBRE DE LA COMPANIA
LATI.            Y=78,766.8 M.                         :LATITUD
LONG.            X=119,309.85 M.                       :LONGITUD
NATI.            MEXICO                                :NACION
RANG.            ZONA NORTE                            :NOMBRE DE LA ZONA
SLAB.            ESTADO                                :ESTADO
STAT.            VERACRUZ                              :NOMBRE DEL ESTADO
CLAB.            MUNICIPIO                             :ETIQUETA DEL MUNICIPIO
COUN.            COATZINTLA                            :NOMBRE DEL MUNICIPIO
SRVC.            REGISTRO  FDC  1:500                  :NOMBRE DEL SERVICIO
DATE.            05-MAR-79                             :FECHA DEL SERVICIO
BLI.M            1845.00000                            :PRIMERA LECTURA
TLI.M            800.00000                             :ULTIMA LECTURA
QCEN.            EDGAR ARTURO OSORNIO RIVERA           :NOMBRE DEL INGENIERO DEL CONTROL DE CALIDAD DEL REGISTRO 
DLQC.            20-NOV-2007                           :FECHA DEL CONTROL DE CALIDAD DEL REGISTRO
CBL1.M           N.R.                                  :ZAPATA SCHLUMBERGER
CBD1.M           N.R.                                  :ZAPATA PERFORACION
TDL.M            N.R.                                  :PROFUNDIDAD REGISTRO
TDD.M            1851.0                                :PROFUNDIDAD PERFORADOR
DFT.             N.R.                                  :TIPO DE LODO
DFD.G/C3         1.25                                  :DENSIDAD DE LODO
DFV.S            45                                    :VISCOSIDAD DEL LODO
DFPH.            N.R.                                  :PH DEL LODO
DFL.C3           N.R.                                  :PERDIDA DE LODO
MSS.             PRESA                                 :FUENTE DE LA MUESTRA DE LODO
RMS.ohm.m        1.8                                   :RESISTIVIDAD DE LODO
MST.DEGC         29                                    :TEMPERATURA DE LA MUESTRA DE LODO
MFSS.            PRENSA                                :FUENTE DEL FILTRADO DE LODO
RMFS.ohm.m       N.R.                                  :RESISTIVIDAD DEL FILTRADO
MFST.DEGC        N.R.                                  :TEMPERATURA DEL FILTRADO
MCSS.            PRENSA                                :FUENTE DEL ENJARRE DE LODO
RMCS.ohm.m       N.R.                                  :RESISTIVIDAD DEL ENJARRE DE LODO
MCST.DEGC        N.R.                                  :TEMPERATURA DEL ENJARRE
BSAL.PPM         N.R.                                  :SALINIDAD DEL LODO
TCS.             N.R.                                  :HORA EN QUE PARO CIRCULACION
STEM.DEGC        29                                    :TEMPERATURA DE SUPERFICIE
BHT.DEGC         70                                    :TEMPERATURA DE FONDO
MRT.DEGC         70                                    :MAXIMA TEMPERATURA REGISTRADA
BS.IN            8.5                                   :DIAMETRO DE BARRENA
CSIZ.IN          9.625                                 :DIAMETRO DE T.R.
CWEI.lbm/ft      N.R.                                  :PESO DE LA T.R.
CTD1.M           N.R.                                  :FONDO DE LA T.R. DEL PERFORADOR
CTL1.M           N.R.                                  :FONDO DE LA T.R. DEL REGISTRO
ENGI.            ROBERTO VICTORIA                      :NOMBRE DEL INGENIERO
WITN.            RAFAEL SANDOVAL                       :NOMBRE DEL TESTIGO
LUN.             8-A                                   :NUMERO DE LA UNIDAD
RUN.             UNO                                   :NUMERO DE LA CORRIDA
OS1.             N.R.                                  :SERVICIOS
HIDE.            REGISTRO DENSIDAD COMPENSADO          :NOMBRE DEL SERVICIO
HID1.            1:500                                 :NOMBRE DEL SERVICIO
LUL.             POZA RICA                             :LUGAR DE LA UNIDAD
R1.              POZA RICA                             :Remarks 1
R2.                                                    :Remarks 2
R3.                                                    :Remarks 3
R4.                                                    :Remarks 4
R5.     Track 1        DIAMETRO DE AGUJERO             :Remarks 5
R6.                          CALI                      :Remarks 6
R7.                           IN                       :Remarks 7
R8.                  3"_________________13"            :Remarks 8
R9.                                                    :Remarks 9
R10.                                                   :Remarks 10
R11.    Track 2-3     DENSIDAD VOLUMETRICA             :Remarks 11
R12.                         RHOB                      :Remarks 12
R13.                         G/C3                      :Remarks 13
R14.                  2_________________3              :Remarks 14
R15.                                                   :Remarks 15
R16.                       POROSIDAD                   :Remarks 16
R17.                         DPHI                      :Remarks 17
R18.                          V/V                      :Remarks 18
R19.                0.3_________________-0.1           :Remarks 19
R20.                                                   :Remarks 20
R21.    Track 3           CORRECCION                   :Remarks 21
R22.                         DRHO                      :Remarks 22
R23.                         G/C3                      :Remarks 23
R24.              -0.25_________________0.25           :Remarks 24
R25. RM  @ TF / 1.0  @ 70 degC                         :Remarks 25
R26. RMF @ TF / 0.75 @ 70 degC                         :Remarks 26
R27. RMC @ TF / 1.0  @ 70 degC                         :Remarks 27
R28.                                                   :Remarks 28
R29.                                                   :Remarks 29
R30.                                                   :Remarks 30
~Curve Information Block
#MNEM.UNIT       API Code            Curve    Description
#--------        --------------      -----    -------------------
DEPT  .M                             :0       Index
CALI  .IN                            :1       Caliper                       
DPHI  .V/V                           :2       Density Porosity              
RHOB  .G/C3                          :3       Bulk Density                  
DRHO  .G/C3                          :4       Bulk Density Correction       
~Ascii Data Section
# ...
   1213.30880       9.05190       0.07601       2.58003       0.08597 
   1213.46120       9.08954       0.07038       2.58965       0.09594 
   1213.61360       9.12413       0.06484       2.59912       0.09982 
   1213.76600       9.07547       0.06896       2.59208       0.09570 
   1213.91840       9.08149       0.07396       2.58353       0.09433 
   1214.07080       9.09015       0.07126       2.58814       0.10090 
   1214.22320       9.09486       0.06411       2.60037       0.10866 
   1214.37560       9.14581       0.06154       2.60476       0.10898 
   1214.52800       9.15534       0.06523       2.59845       0.09413 
   1214.68040       9.06973       0.07267       2.58573       0.07701 
   1214.83280       8.97443       0.07826       2.57617       0.07231 
   1214.98520       8.87907       0.07564       2.58066       0.07876 
   1215.13760       8.78376       0.06735       2.59483       0.09339 
   1215.29000       8.70807       0.06184       2.60425       0.11079 
   1215.44240       8.78654       0.05943       2.60837       0.11656 
   1215.59480       8.88154       0.06601       2.59713       0.10975 
   1215.74720       8.97648       0.07693       2.57845       0.10014 
   1215.89960       9.04985       0.08631       2.56242       0.09723 
   1216.05200       9.04356       0.08745       2.56045       0.10209 
   1216.20440       9.02890       0.08097       2.57154       0.10863 
   1216.35680       9.01423       0.07252       2.58599       0.11454 
   1216.50920       8.99957       0.06572       2.59761       0.12108 
   1216.66160       8.98490       0.06017       2.60711       0.12992 
   1216.81400       8.99213       0.05319       2.61904       0.14779 
   1216.96640       9.00851       0.04029       2.64110       0.17054 
   1217.11880       9.03755       0.02691       2.66399       0.17690 
   1217.27120       9.08395       0.03918       2.64300       0.16075 
   1217.42360       9.13207       0.06346       2.60148       0.13935 
   1217.57600       9.18021       0.06406       2.60046       0.12338 
   1217.72840       9.22833       0.06404       2.60048       0.11282 
   1217.88080       9.27647       0.06724       2.59501       0.11111 
   1218.03320       9.31036       0.06883       2.59231       0.11620 
   1218.18560       9.28325       0.06892       2.59215       0.12253 
   1218.33800       9.24967       0.06608       2.59701       0.12937 
   1218.49040       9.21612       0.05421       2.61731       0.13169 
   1218.64280       9.18254       0.04519       2.63272       0.12511 
   1218.79520       9.14899       0.05407       2.61755       0.12079 
   1218.94760       9.11541       0.05241       2.62039       0.12455 
   1219.10000       9.08186       0.04757       2.62865       0.13061 
   1219.25240       9.04829       0.05718       2.61223       0.13597 
   1219.40480       9.01473       0.05791       2.61097       0.14339 
   1219.55720       8.98405       0.04752       2.62873       0.15679 
   1219.70960       8.99652       0.04671       2.63012       0.16403 
   1219.86200       9.01362       0.04874       2.62665       0.15964 
   1220.01440       9.03074       0.03791       2.64518       0.15598 
   1220.16680       9.04785       0.02430       2.66845       0.15838 
   1220.31920       9.06497       0.02936       2.65980       0.16293 
   1220.47160       9.08207       0.03711       2.64654       0.16696 
   1220.62400       9.09966       0.03008       2.65856       0.16469 
   1220.77640       9.12619       0.02647       2.66473       0.15508 
   1220.92880       9.15370       0.03834       2.64444       0.14165 
   1221.08120       9.18119       0.05722       2.61215       0.12795 
   1221.23360       9.20870       0.06757       2.59446       0.11802 
   1221.38600       9.23619       0.07013       2.59007       0.11154 
   1221.53840       9.23511       0.06614       2.59691       0.10645 
   1221.69080       9.21155       0.05939       2.60844       0.10184 
   1221.84320       9.18589       0.06026       2.60696       0.09756 
   1221.99560       9.12049       0.06213       2.60375       0.09328 
   1222.14800       9.12812       0.05964       2.60801       0.09661 
   1222.30040       9.14225       0.06249       2.60314       0.10649 
   1222.45280       9.15408       0.05784       2.61109       0.11533 
   1222.60520       9.16505       0.04868       2.62675       0.12327 
   1222.75760       9.17216       0.04756       2.62868       0.12044 
   1222.91000       9.17965       0.05152       2.62191       0.10979 
   1223.06240       9.19189       0.04959       2.62520       0.10617 
   1223.21480       9.20734       0.05159       2.62178       0.10913 
   1223.36720       9.21740       0.05607       2.61411       0.11341 
   1223.51960       9.22433       0.05455       2.61672       0.12527 
   1223.67200       9.23505       0.03952       2.64242       0.14108 
   1223.82440       9.24279       0.03357       2.65260       0.15186 
   1223.97680       9.25549       0.03209       2.65512       0.14039 
   1224.12920       9.27218       0.04344       2.63572       0.11206 
   1224.28160       9.30907       0.05595       2.61433       0.09578 
   1224.43400       9.35688       0.05078       2.62316       0.10266 
   1224.58640       9.40566       0.04161       2.63884       0.11704 
   1224.73880       9.45442       0.03224       2.65488       0.12659 
   1224.89120       9.46534       0.03168       2.65583       0.12767 
   1225.04360       9.46137       0.03465       2.65076       0.12173 
   1225.19600       9.45624       0.03786       2.64526       0.11463 
   1225.34840       9.45111       0.04108       2.63976       0.10808 
   1225.50080       9.44597       0.04429       2.63426       0.10142 
   1225.65320       9.44084       0.04709       2.62948       0.09475 
   1225.80560       9.43571       0.05246       2.62030       0.08797 
   1225.95800       9.43057       0.05835       2.61022       0.08488 
   1226.11040       9.43001       0.05756       2.61157       0.09079 
   1226.26280       9.43000       0.04517       2.63276       0.10442 
   1226.41520       9.43000       0.03715       2.64648       0.11703 
   1226.56760       9.43000       0.03859       2.64401       0.11824 
   1226.72000       9.43000       0.04218       2.63788       0.11133 
   1226.87240       9.43000       0.04766       2.62850       0.10398 
   1227.02480       9.43000       0.05451       2.61678       0.09776 
   1227.17720       9.43820       0.06166       2.60456       0.09319 
   1227.32960       9.44751       0.06177       2.60438       0.10001 
   1227.48200       9.45685       0.05095       2.62288       0.10770 
   1227.63440       9.46618       0.04684       2.62990       0.10497 
   1227.78680       9.47551       0.04931       2.62568       0.11148 
   1227.93920       9.48484       0.04153       2.63899       0.12437 
   1228.09160       9.49417       0.02709       2.66368       0.12732 
   1228.24400       9.50351       0.01930       2.67700       0.12362 
   1228.39640       9.50364       0.02140       2.67341       0.12285 
   1228.54880       9.48907       0.02774       2.66257       0.12679 
   1228.70120       9.47303       0.03148       2.65618       0.13173 
   1228.85360       9.45699       0.03429       2.65136       0.13653 
   1229.00600       9.44095       0.03456       2.65090       0.14158 
   1229.15840       9.42490       0.03023       2.65830       0.14097 
   1229.31080       9.40886       0.02551       2.66638       0.13459 
   1229.46320       9.39282       0.02305       2.67059       0.13200 
   1229.61560       9.37678       0.02380       2.66930       0.13551 
   1229.76800       9.36368       0.02700       2.66383       0.13666 
   1229.92040       9.38537       0.03101       2.65697       0.12884 
   1230.07280       9.38463       0.03457       2.65088       0.11899 
   1230.22520       9.37873       0.03737       2.64611       0.11397 
   1230.37760       9.37009       0.03738       2.64609       0.11326 
