~Version Information
VERS  .          2.0                                   :CWLS Log Ascii Standard - Version 2.0
WRAP  .          NO                                    :One line per depth step
~Well Information Block
#MNEM.UNIT       Data Type                             Information
#---------       ---------                             -------------------------------
STRT  .M         800.00000                             :PROFUNDIDAD INICIAL
STOP  .M         1845.00000                            :PROFUNDIDAD FINAL
STEP  .M          0.15240                              :INCREMENTO
NULL  .          -999.25                               :VALOR NULO
COMP  .          PETROLEOS MEXICANOS                   :COMPANIA
WELL  .          ABEDUL-1                              :NOMBRE DEL POZO
FLD   .          ABEDUL                                :CAMPO
STAT  .          VERACRUZ                              :ESTADO
CNTY  .          COATZINTLA                            :MUNICIPIO
CTRY  .          MEXICO                                :PAIS
DATE  .          05-MAR-79                             :FECHA
UWI   .          1030022740                            :VALOR UNICO DEL POZO
SRVC  .          PEMEX                                 :COMPANIA DE SERVICIOS
~Parameter Information Block
#MNEM.UNIT       Value                                 Description
#---------       ---------                             -------------
FL.              X=                                    :LOCALIZACION DEL CAMPO
FL1.             Y=                                    :LOCALIZACION DEL CAMPO
PDAT.            NIVEL DEL TERRENO                     :DATO PERMANENTE
EPD.M            135.10                                :ELEVACION DEL DATO PERMANENTE
APD.M            3.8                                   :DIFERENCIA ENTRE MR Y NIVEL DE TERRENO
EKB.M            139.58                                :ELEVACION DEL KELLY BUSHING
EDF.M            139.28                                :ELEVACION DE LA MESA ROTARIA
EGL.M            135.10                                :ELEVACION DEL TERRENO
ELZ.M            139.28                                :ELEVACION DEL CERO DE REFERENCIA
LMF.             MESA ROTARIA                          :REGISTRO MEDIDO DESDE
DMF.             MESA ROTARIA                          :PROFUNDIDAD MEDIDA DESDE
SECT.            DISTRITO POZA RICA                    :NOMBRE DEL SECTOR
CN.              PETROLEOS MEXICANOS                   :NOMBRE DE LA COMPANIA
LATI.            Y=78,766.8 M.                         :LATITUD
LONG.            X=119,309.85 M.                       :LONGITUD
NATI.            MEXICO                                :NACION
RANG.            ZONA NORTE                            :NOMBRE DE LA ZONA
SLAB.            ESTADO                                :ESTADO
STAT.            VERACRUZ                              :NOMBRE DEL ESTADO
CLAB.            MUNICIPIO                             :ETIQUETA DEL MUNICIPIO
COUN.            COATZINTLA                            :NOMBRE DEL MUNICIPIO
SRVC.            REGISTRO  FDC  1:500                  :NOMBRE DEL SERVICIO
DATE.            05-MAR-79                             :FECHA DEL SERVICIO
BLI.M            1845.00000                            :PRIMERA LECTURA
TLI.M            800.00000                             :ULTIMA LECTURA
QCEN.            EDGAR ARTURO OSORNIO RIVERA           :NOMBRE DEL INGENIERO DEL CONTROL DE CALIDAD DEL REGISTRO 
DLQC.            20-NOV-2007                           :FECHA DEL CONTROL DE CALIDAD DEL REGISTRO
CBL1.M           N.R.                                  :ZAPATA SCHLUMBERGER
CBD1.M           N.R.                                  :ZAPATA PERFORACION
TDL.M            N.R.                                  :PROFUNDIDAD REGISTRO
TDD.M            1851.0                                :PROFUNDIDAD PERFORADOR
DFT.             N.R.                                  :TIPO DE LODO
DFD.G/C3         1.25                                  :DENSIDAD DE LODO
DFV.S            45                                    :VISCOSIDAD DEL LODO
DFPH.            N.R.                                  :PH DEL LODO
DFL.C3           N.R.                                  :PERDIDA DE LODO
MSS.             PRESA                                 :FUENTE DE LA MUESTRA DE LODO
RMS.ohm.m        1.8                                   :RESISTIVIDAD DE LODO
MST.DEGC         29                                    :TEMPERATURA DE LA MUESTRA DE LODO
MFSS.            PRENSA                                :FUENTE DEL FILTRADO DE LODO
RMFS.ohm.m       N.R.                                  :RESISTIVIDAD DEL FILTRADO
MFST.DEGC        N.R.                                  :TEMPERATURA DEL FILTRADO
MCSS.            PRENSA                                :FUENTE DEL ENJARRE DE LODO
RMCS.ohm.m       N.R.                                  :RESISTIVIDAD DEL ENJARRE DE LODO
MCST.DEGC        N.R.                                  :TEMPERATURA DEL ENJARRE
BSAL.PPM         N.R.                                  :SALINIDAD DEL LODO
TCS.             N.R.                                  :HORA EN QUE PARO CIRCULACION
STEM.DEGC        29                                    :TEMPERATURA DE SUPERFICIE
BHT.DEGC         70                                    :TEMPERATURA DE FONDO
MRT.DEGC         70                                    :MAXIMA TEMPERATURA REGISTRADA
BS.IN            8.5                                   :DIAMETRO DE BARRENA
CSIZ.IN          9.625                                 :DIAMETRO DE T.R.
CWEI.lbm/ft      N.R.                                  :PESO DE LA T.R.
CTD1.M           N.R.                                  :FONDO DE LA T.R. DEL PERFORADOR
CTL1.M           N.R.                                  :FONDO DE LA T.R. DEL REGISTRO
ENGI.            ROBERTO VICTORIA                      :NOMBRE DEL INGENIERO
WITN.            RAFAEL SANDOVAL                       :NOMBRE DEL TESTIGO
LUN.             8-A                                   :NUMERO DE LA UNIDAD
RUN.             UNO                                   :NUMERO DE LA CORRIDA
OS1.             N.R.                                  :SERVICIOS
HIDE.            REGISTRO DENSIDAD COMPENSADO          :NOMBRE DEL SERVICIO
HID1.            1:500                                 :NOMBRE DEL SERVICIO
LUL.             POZA RICA                             :LUGAR DE LA UNIDAD
R1.              POZA RICA                             :Remarks 1
R2.                                                    :Remarks 2
R3.                                                    :Remarks 3
R4.                                                    :Remarks 4
R5.     Track 1        DIAMETRO DE AGUJERO             :Remarks 5
R6.                          CALI                      :Remarks 6
R7.                           IN                       :Remarks 7
R8.                  3"_________________13"            :Remarks 8
R9.                                                    :Remarks 9
R10.                                                   :Remarks 10
R11.    Track 2-3     DENSIDAD VOLUMETRICA             :Remarks 11
R12.                         RHOB                      :Remarks 12
R13.                         G/C3                      :Remarks 13
R14.                  2_________________3              :Remarks 14
R15.                                                   :Remarks 15
R16.                       POROSIDAD                   :Remarks 16
R17.                         DPHI                      :Remarks 17
R18.                          V/V                      :Remarks 18
R19.                0.3_________________-0.1           :Remarks 19
R20.                                                   :Remarks 20
R21.    Track 3           CORRECCION                   :Remarks 21
R22.                         DRHO                      :Remarks 22
R23.                         G/C3                      :Remarks 23
R24.              -0.25_________________0.25           :Remarks 24
R25. RM  @ TF / 1.0  @ 70 degC                         :Remarks 25
R26. RMF @ TF / 0.75 @ 70 degC                         :Remarks 26
R27. RMC @ TF / 1.0  @ 70 degC                         :Remarks 27
R28.                                                   :Remarks 28
R29.                                                   :Remarks 29
R30.                                                   :Remarks 30
~Curve Information Block
#MNEM.UNIT       API Code            Curve    Description
#--------        --------------      -----    -------------------
DEPT  .M                             :0       Index
CALI  .IN                            :1       Caliper                       
DPHI  .V/V                           :2       Density Porosity              
RHOB  .G/C3                          :3       Bulk Density                  
DRHO  .G/C3                          :4       Bulk Density Correction       
~Ascii Data Section
# ...
   1626.61760       6.79012       0.04061       2.64056       0.11093 
   1626.77000       6.81396       0.03263       2.65420       0.11222 
   1626.92240       6.85194       0.04379       2.63511       0.12370 
   1627.07480       6.89046       0.05406       2.61756       0.13416 
   1627.22720       6.92895       0.06283       2.60257       0.15588 
   1627.37960       6.95733       0.05155       2.62186       0.18380 
   1627.53200       6.96000       0.03841       2.64432       0.17483 
   1627.68440       6.96000       0.02528       2.66677       0.15127 
   1627.83680       6.91140       0.04501       2.63303       0.15165 
   1627.98920       6.85516       0.06983       2.59059       0.15265 
   1628.14160       6.79871       0.05965       2.60800       0.11830 
   1628.29400       6.74573       0.04840       2.62724       0.09697 
   1628.44640       6.74986       0.05113       2.62256       0.11103 
   1628.59880       6.76012       0.02745       2.66307       0.11472 
   1628.75120       6.77039       0.03035       2.65810       0.09454 
   1628.90360       6.77416       0.04420       2.63441       0.07442 
   1629.05600       6.74357       0.03720       2.64640       0.08263 
   1629.20840       6.70935       0.02819       2.66179       0.11343 
   1629.36080       6.57653       0.01919       2.67719       0.14255 
   1629.51320       6.69237       0.02009       2.67564       0.16051 
   1629.66560       6.86702       0.05116       2.62252       0.17279 
   1629.81800       7.01861       0.05510       2.61578       0.18793 
   1629.97040       7.11204       0.04318       2.63616       0.20859 
   1630.12280       7.13354       0.03005       2.65862       0.18628 
   1630.27520       7.04790       0.03378       2.65223       0.14075 
   1630.42760       6.93233       0.05083       2.62308       0.11678 
   1630.58000       6.83456       0.04035       2.64100       0.10740 
   1630.73240       6.77843       0.02721       2.66347       0.11486 
   1630.88480       6.76542       0.01408       2.68592       0.12763 
   1631.03720       6.76493       0.01301       2.68775       0.12052 
   1631.18960       6.77109       0.01997       2.67585       0.09823 
   1631.34200       6.79764       0.03619       2.64812       0.09232 
   1631.49440       6.84552       0.05181       2.62141       0.10496 
   1631.64680       6.89558       0.06238       2.60334       0.10618 
   1631.79920       6.94412       0.06178       2.60435       0.10386 
   1631.95160       6.97198       0.05055       2.62356       0.11145 
   1632.10400       6.95278       0.04760       2.62861       0.09009 
   1632.25640       6.90953       0.05832       2.61028       0.04912 
   1632.40880       6.81987       0.06498       2.59889       0.03310 
   1632.56120       6.82303       0.06187       2.60420       0.04496 
   1632.71360       6.87534       0.05508       2.61582       0.06316 
   1632.86600       6.93179       0.05316       2.61909       0.07985 
   1633.01840       6.98828       0.05674       2.61297       0.08609 
   1633.17080       6.99939       0.07110       2.58843       0.09739 
   1633.32320       7.00000       0.08350       2.56721       0.10492 
   1633.47560       7.00000       0.07537       2.58112       0.10684 
   1633.62800       7.00000       0.06537       2.59822       0.11654 
   1633.78040       7.07291       0.06434       2.59997       0.11500 
   1633.93280       7.15418       0.07110       2.58841       0.09257 
   1634.08520       7.13912       0.08776       2.55992       0.06193 
   1634.23760       7.06333       0.10293       2.53398       0.03635 
   1634.39000       7.01354       0.09275       2.55140       0.03803 
   1634.54240       7.03447       0.08024       2.57279       0.05444 
   1634.69480       7.06271       0.07800       2.57661       0.05727 
   1634.84720       7.09094       0.08018       2.57289       0.04592 
   1634.99960       7.02835       0.07706       2.57823       0.04784 
   1635.15200       7.01751       0.06530       2.59834       0.06483 
   1635.30440       7.03834       0.05163       2.62171       0.07990 
   1635.45680       7.08915       0.03255       2.65434       0.08970 
   1635.60920       7.14039       0.03604       2.64837       0.07670 
   1635.76160       7.15599       0.04167       2.63874       0.05311 
   1635.91400       7.10795       0.03836       2.64441       0.04618 
   1636.06640       7.03628       0.02782       2.66242       0.05079 
   1636.21880       6.96488       0.01897       2.67756       0.05081 
   1636.37120       6.90717       0.02049       2.67497       0.04357 
   1636.52360       6.87394       0.01995       2.67588       0.03488 
   1636.67600       6.85235       0.00843       2.69559       0.02843 
   1636.82840       6.83831      -0.00408       2.71697       0.05027 
   1636.98080       6.82290      -0.00224       2.71383       0.08735 
   1637.13320       6.80754       0.01302       2.68774       0.12917 
   1637.28560       6.79884       0.03035       2.65810       0.14143 
   1637.43800       6.79842       0.04778       2.62829       0.11876 
   1637.59040       6.81037       0.06520       2.59850       0.09752 
   1637.74280       6.82863       0.08264       2.56869       0.09910 
   1637.89520       6.84234       0.09647       2.54504       0.13272 
   1638.04760       6.88359       0.09652       2.54494       0.14418 
   1638.20000       6.99045       0.08185       2.57004       0.13473 
   1638.35240       7.18188       0.04813       2.62769       0.13636 
   1638.50480       7.36945       0.02570       2.66606       0.12382 
   1638.65720       7.49712       0.03764       2.64563       0.09753 
   1638.80960       7.61655       0.05265       2.61997       0.08716 
   1638.96200       7.76929       0.05618       2.61393       0.09203 
   1639.11440       7.79826       0.05364       2.61827       0.09963 
   1639.26680       7.68555       0.05064       2.62341       0.10602 
   1639.41920       7.63654       0.04764       2.62854       0.11102 
   1639.57160       7.60539       0.05815       2.61057       0.09519 
   1639.72400       7.59043       0.07196       2.58695       0.08372 
   1639.87640       7.56663       0.08501       2.56464       0.10920 
   1640.02880       7.53550       0.09643       2.54511       0.14481 
   1640.18120       7.52392       0.10370       2.53267       0.15700 
   1640.33360       7.66013       0.11029       2.52140       0.14964 
   1640.48600       8.04437       0.11598       2.51167       0.15371 
   1640.63840       8.51217       0.11922       2.50613       0.18253 
   1640.79080       8.60798       0.11810       2.50805       0.21285 
   1640.94320       8.27774       0.10702       2.52699       0.23347 
   1641.09560       8.03720       0.09523       2.54716       0.20684 
   1641.24800       7.85082       0.09508       2.54742       0.16303 
   1641.40040       7.63871       0.09622       2.54547       0.14246 
   1641.55280       7.48978       0.09323       2.55058       0.13370 
   1641.70520       7.57916       0.07912       2.57470       0.13748 
   1641.85760       7.78390       0.06452       2.59966       0.16783 
   1642.01000       7.95074       0.06463       2.59948       0.19793 
   1642.16240       8.05615       0.07060       2.58928       0.20573 
   1642.31480       8.11089       0.07753       2.57742       0.20002 
   1642.46720       8.13846       0.08519       2.56432       0.18566 
   1642.61960       8.15531       0.09366       2.54983       0.16883 
   1642.77200       8.16556       0.10058       2.53800       0.15612 
   1642.92440       8.17606       0.10410       2.53200       0.14658 
   1643.07680       8.20192       0.10649       2.52791       0.16164 
   1643.22920       8.22381       0.10633       2.52817       0.18531 
   1643.38160       8.22993       0.10178       2.53596       0.17908 
   1643.53400       8.22306       0.09844       2.54167       0.16443 
   1643.68640       8.16731       0.09683       2.54442       0.17463 
