~Version Information
VERS  .          2.0                                   :CWLS Log Ascii Standard - Version 2.0
WRAP  .          NO                                    :One line per depth step
~Well Information Block
#MNEM.UNIT       Data Type                             Information
#---------       ---------                             -------------------------------
STRT  .M         800.00000                             :PROFUNDIDAD INICIAL
STOP  .M         1845.00000                            :PROFUNDIDAD FINAL
STEP  .M          0.15240                              :INCREMENTO
NULL  .          -999.25                               :VALOR NULO
COMP  .          PETROLEOS MEXICANOS                   :COMPANIA
WELL  .          ABEDUL-1                              :NOMBRE DEL POZO
FLD   .          ABEDUL                                :CAMPO
STAT  .          VERACRUZ                              :ESTADO
CNTY  .          COATZINTLA                            :MUNICIPIO
CTRY  .          MEXICO                                :PAIS
DATE  .          05-MAR-79                             :FECHA
UWI   .          1030022740                            :VALOR UNICO DEL POZO
SRVC  .          PEMEX                                 :COMPANIA DE SERVICIOS
~Parameter Information Block
#MNEM.UNIT       Value                                 Description
#---------       ---------                             -------------
FL.              X=                                    :LOCALIZACION DEL CAMPO
FL1.             Y=                                    :LOCALIZACION DEL CAMPO
PDAT.            NIVEL DEL TERRENO                     :DATO PERMANENTE
EPD.M            135.10                                :ELEVACION DEL DATO PERMANENTE
APD.M            3.8                                   :DIFERENCIA ENTRE MR Y NIVEL DE TERRENO
EKB.M            139.58                                :ELEVACION DEL KELLY BUSHING
EDF.M            139.28                                :ELEVACION DE LA MESA ROTARIA
EGL.M            135.10                                :ELEVACION DEL TERRENO
ELZ.M            139.28                                :ELEVACION DEL CERO DE REFERENCIA
LMF.             MESA ROTARIA                          :REGISTRO MEDIDO DESDE
DMF.             MESA ROTARIA                          :PROFUNDIDAD MEDIDA DESDE
SECT.            DISTRITO POZA RICA                    :NOMBRE DEL SECTOR
CN.              PETROLEOS MEXICANOS                   :NOMBRE DE LA COMPANIA
LATI.            Y=78,766.8 M.                         :LATITUD
LONG.            X=119,309.85 M.                       :LONGITUD
NATI.            MEXICO                                :NACION
RANG.            ZONA NORTE                            :NOMBRE DE LA ZONA
SLAB.            ESTADO                                :ESTADO
STAT.            VERACRUZ                              :NOMBRE DEL ESTADO
CLAB.            MUNICIPIO                             :ETIQUETA DEL MUNICIPIO
COUN.            COATZINTLA                            :NOMBRE DEL MUNICIPIO
SRVC.            REGISTRO  FDC  1:500                  :NOMBRE DEL SERVICIO
DATE.            05-MAR-79                             :FECHA DEL SERVICIO
BLI.M            1845.00000                            :PRIMERA LECTURA
TLI.M            800.00000                             :ULTIMA LECTURA
QCEN.            EDGAR ARTURO OSORNIO RIVERA           :NOMBRE DEL INGENIERO DEL CONTROL DE CALIDAD DEL REGISTRO 
DLQC.            20-NOV-2007                           :FECHA DEL CONTROL DE CALIDAD DEL REGISTRO
CBL1.M           N.R.                                  :ZAPATA SCHLUMBERGER
CBD1.M           N.R.                                  :ZAPATA PERFORACION
TDL.M            N.R.                                  :PROFUNDIDAD REGISTRO
TDD.M            1851.0                                :PROFUNDIDAD PERFORADOR
DFT.             N.R.                                  :TIPO DE LODO
DFD.G/C3         1.25                                  :DENSIDAD DE LODO
DFV.S            45                                    :VISCOSIDAD DEL LODO
DFPH.            N.R.                                  :PH DEL LODO
DFL.C3           N.R.                                  :PERDIDA DE LODO
MSS.             PRESA                                 :FUENTE DE LA MUESTRA DE LODO
RMS.ohm.m        1.8                                   :RESISTIVIDAD DE LODO
MST.DEGC         29                                    :TEMPERATURA DE LA MUESTRA DE LODO
MFSS.            PRENSA                                :FUENTE DEL FILTRADO DE LODO
RMFS.ohm.m       N.R.                                  :RESISTIVIDAD DEL FILTRADO
MFST.DEGC        N.R.                                  :TEMPERATURA DEL FILTRADO
MCSS.            PRENSA                                :FUENTE DEL ENJARRE DE LODO
RMCS.ohm.m       N.R.                                  :RESISTIVIDAD DEL ENJARRE DE LODO
MCST.DEGC        N.R.                                  :TEMPERATURA DEL ENJARRE
BSAL.PPM         N.R.                                  :SALINIDAD DEL LODO
TCS.             N.R.                                  :HORA EN QUE PARO CIRCULACION
STEM.DEGC        29                                    :TEMPERATURA DE SUPERFICIE
BHT.DEGC         70                                    :TEMPERATURA DE FONDO
MRT.DEGC         70                                    :MAXIMA TEMPERATURA REGISTRADA
BS.IN            8.5                                   :DIAMETRO DE BARRENA
CSIZ.IN          9.625                                 :DIAMETRO DE T.R.
CWEI.lbm/ft      N.R.                                  :PESO DE LA T.R.
CTD1.M           N.R.                                  :FONDO DE LA T.R. DEL PERFORADOR
CTL1.M           N.R.                                  :FONDO DE LA T.R. DEL REGISTRO
ENGI.            ROBERTO VICTORIA                      :NOMBRE DEL INGENIERO
WITN.            RAFAEL SANDOVAL                       :NOMBRE DEL TESTIGO
LUN.             8-A                                   :NUMERO DE LA UNIDAD
RUN.             UNO                                   :NUMERO DE LA CORRIDA
OS1.             N.R.                                  :SERVICIOS
HIDE.            REGISTRO DENSIDAD COMPENSADO          :NOMBRE DEL SERVICIO
HID1.            1:500                                 :NOMBRE DEL SERVICIO
LUL.             POZA RICA                             :LUGAR DE LA UNIDAD
R1.              POZA RICA                             :Remarks 1
R2.                                                    :Remarks 2
R3.                                                    :Remarks 3
R4.                                                    :Remarks 4
R5.     Track 1        DIAMETRO DE AGUJERO             :Remarks 5
R6.                          CALI                      :Remarks 6
R7.                           IN                       :Remarks 7
R8.                  3"_________________13"            :Remarks 8
R9.                                                    :Remarks 9
R10.                                                   :Remarks 10
R11.    Track 2-3     DENSIDAD VOLUMETRICA             :Remarks 11
R12.                         RHOB                      :Remarks 12
R13.                         G/C3                      :Remarks 13
R14.                  2_________________3              :Remarks 14
R15.                                                   :Remarks 15
R16.                       POROSIDAD                   :Remarks 16
R17.                         DPHI                      :Remarks 17
R18.                          V/V                      :Remarks 18
R19.                0.3_________________-0.1           :Remarks 19
R20.                                                   :Remarks 20
R21.    Track 3           CORRECCION                   :Remarks 21
R22.                         DRHO                      :Remarks 22
R23.                         G/C3                      :Remarks 23
R24.              -0.25_________________0.25           :Remarks 24
R25. RM  @ TF / 1.0  @ 70 degC                         :Remarks 25
R26. RMF @ TF / 0.75 @ 70 degC                         :Remarks 26
R27. RMC @ TF / 1.0  @ 70 degC                         :Remarks 27
R28.                                                   :Remarks 28
R29.                                                   :Remarks 29
R30.                                                   :Remarks 30
~Curve Information Block
#MNEM.UNIT       API Code            Curve    Description
#--------        --------------      -----    -------------------
DEPT  .M                             :0       Index
CALI  .IN                            :1       Caliper                       
DPHI  .V/V                           :2       Density Porosity              
RHOB  .G/C3                          :3       Bulk Density                  
DRHO  .G/C3                          :4       Bulk Density Correction       
~Ascii Data Section
# ...
   1695.50240       8.95309       0.21349       2.34492       0.25054 
   1695.65480       8.79798       0.20294       2.36297       0.25059 
   1695.80720       8.57088       0.19169       2.38222       0.25060 
   1695.95960       8.47669       0.18978       2.38548       0.25064 
   1696.11200       8.65060       0.19102       2.38336       0.25069 
   1696.26440       8.79956       0.17740       2.40664       0.25074 
   1696.41680       8.81086       0.16240       2.43230       0.25079 
   1696.56920       8.66563       0.14746       2.45784       0.25080 
   1696.72160       8.49612       0.14659       2.45933       0.25084 
   1696.87400       8.37353       0.14929       2.45472       0.25089 
   1697.02640       8.37979       0.15405       2.44658       0.25094 
   1697.17880       8.44129       0.16015       2.43614       0.25099 
   1697.33120       8.50706       0.16631       2.42561       0.25100 
   1697.48360       8.58611       0.16600       2.42614       0.25104 
   1697.63600       8.67345       0.15801       2.43981       0.25109 
   1697.78840       8.80051       0.15354       2.44744       0.25106 
   1697.94080       8.87098       0.15605       2.44315       0.24872 
   1698.09320       8.61097       0.16267       2.43183       0.24358 
   1698.24560       8.21195       0.16547       2.42705       0.23886 
   1698.39800       8.11611       0.16158       2.43369       0.23653 
   1698.55040       8.07735       0.16675       2.42486       0.23537 
   1698.70280       8.07422       0.17520       2.41041       0.23244 
   1698.85520       8.07463       0.17845       2.40486       0.21465 
   1699.00760       8.23133       0.16636       2.42552       0.20016 
   1699.16000       8.61816       0.14436       2.46314       0.20576 
   1699.31240       8.91074       0.13639       2.47677       0.22011 
   1699.46480       9.00554       0.14480       2.46240       0.23556 
   1699.61720       8.99196       0.15535       2.44435       0.24780 
   1699.76960       8.88406       0.16595       2.42622       0.24657 
   1699.92200       8.70978       0.17615       2.40878       0.23293 
   1700.07440       8.54165       0.18552       2.39276       0.21865 
   1700.22680       8.41839       0.19120       2.38305       0.20933 
   1700.37920       8.36246       0.19077       2.38379       0.20295 
   1700.53160       8.32831       0.18649       2.39110       0.19706 
   1700.68400       8.26470       0.17296       2.41425       0.19175 
   1700.83640       8.03065       0.14663       2.45926       0.19690 
   1700.98880       7.95312       0.12393       2.49808       0.21011 
   1701.14120       8.29532       0.12176       2.50179       0.22357 
   1701.29360       8.37368       0.12768       2.49166       0.23717 
   1701.44600       8.22729       0.13796       2.47408       0.24183 
   1701.59840       8.10247       0.15079       2.45214       0.21865 
   1701.75080       8.04141       0.16091       2.43485       0.18866 
   1701.90320       8.03646       0.16100       2.43469       0.20076 
   1702.05560       8.04843       0.14995       2.45359       0.23659 
   1702.20800       8.11845       0.13793       2.47413       0.25152 
   1702.36040       8.29281       0.12593       2.49466       0.24993 
   1702.51280       8.50710       0.13432       2.48031       0.24829 
   1702.66520       8.60933       0.14893       2.45534       0.24873 
   1702.81760       8.47723       0.16394       2.42966       0.24935 
   1702.97000       8.04521       0.17651       2.40816       0.24704 
   1703.12240       7.67765       0.18530       2.39314       0.24184 
   1703.27480       7.79784       0.17914       2.40366       0.24105 
   1703.42720       8.10729       0.17164       2.41649       0.24551 
   1703.57960       8.17900       0.16509       2.42769       0.25069 
   1703.73200       7.99757       0.18686       2.39047       0.25509 
   1703.88440       7.94791       0.21126       2.34874       0.25012 
   1704.03680       8.02496       0.23565       2.30704       0.23469 
   1704.18920       8.21715       0.22449       2.32613       0.22707 
   1704.34160       8.43880       0.20678       2.35640       0.23233 
   1704.49400       8.58679       0.18876       2.38722       0.24203 
   1704.64640       8.66152       0.17164       2.41650       0.24993 
   1704.79880       8.71817       0.18829       2.38802       0.25293 
   1704.95120       8.59015       0.17852       2.40473       0.25305 
   1705.10360       8.20420       0.16601       2.42612       0.25291 
   1705.25600       7.88590       0.17005       2.41921       0.25290 
   1705.40840       7.71567       0.16852       2.42184       0.25290 
   1705.56080       7.69580       0.14943       2.45447       0.25290 
   1705.71320       7.82832       0.12880       2.48976       0.25286 
   1705.86560       7.98559       0.11429       2.51456       0.25281 
   1706.01800       8.09825       0.12112       2.50288       0.25280 
   1706.17040       8.08902       0.12988       2.48791       0.25280 
   1706.32280       7.96240       0.13863       2.47294       0.25276 
   1706.47520       7.87444       0.14739       2.45796       0.25271 
   1706.62760       8.18044       0.14488       2.46225       0.25270 
   1706.78000       8.80910       0.13221       2.48392       0.25266 
   1706.93240       9.01103       0.11871       2.50701       0.25261 
   1707.08480       8.76964       0.10520       2.53011       0.25260 
   1707.23720       8.50584       0.11184       2.51875       0.25260 
   1707.38960       8.38564       0.13088       2.48620       0.25256 
   1707.54200       8.31713       0.14724       2.45822       0.25251 
   1707.69440       8.26670       0.15546       2.44416       0.25246 
   1707.84680       8.18911       0.16297       2.43132       0.25143 
   1707.99920       8.05753       0.15295       2.44846       0.24768 
   1708.15160       7.88822       0.14096       2.46895       0.24582 
   1708.30400       7.72397       0.12896       2.48948       0.24753 
   1708.45640       7.64327       0.11828       2.50774       0.24962 
   1708.60880       7.65121       0.12197       2.50144       0.25126 
   1708.76120       7.70019       0.12697       2.49288       0.25209 
   1708.91360       7.76868       0.13197       2.48432       0.25187 
   1709.06600       7.83647       0.13698       2.47577       0.25149 
   1709.21840       7.92020       0.13634       2.47686       0.25140 
   1709.37080       8.03621       0.12708       2.49269       0.25106 
   1709.52320       8.16727       0.11707       2.50980       0.25069 
   1709.67560       8.27717       0.10707       2.52691       0.25060 
   1709.82800       8.32185       0.09706       2.54403       0.25060 
   1709.98040       8.23467       0.09547       2.54674       0.25060 
   1710.13280       8.28026       0.09770       2.54294       0.25060 
   1710.28520       8.49303       0.10020       2.53866       0.25060 
   1710.43760       8.50731       0.10270       2.53438       0.25060 
   1710.59000       8.45152       0.10671       2.52752       0.25060 
   1710.74240       8.38149       0.12876       2.48983       0.25060 
   1710.89480       8.31052       0.13763       2.47465       0.25060 
   1711.04720       8.16189       0.14513       2.46182       0.25060 
   1711.19960       8.01217       0.15264       2.44898       0.25060 
   1711.35200       8.04698       0.14562       2.46100       0.25060 
   1711.50440       8.15012       0.11397       2.51511       0.25060 
   1711.65680       8.27570       0.10951       2.52274       0.25056 
   1711.80920       8.44825       0.10684       2.52730       0.25051 
   1711.96160       8.52368       0.11753       2.50902       0.25050 
   1712.11400       8.40315       0.13640       2.47676       0.25050 
   1712.26640       8.22563       0.14693       2.45875       0.25050 
   1712.41880       8.03057       0.15078       2.45217       0.25050 
   1712.57120       7.84678       0.15261       2.44903       0.25050 
