~Version Information
VERS  .          2.0                                   :CWLS Log Ascii Standard - Version 2.0
WRAP  .          NO                                    :One line per depth step
~Well Information Block
#MNEM.UNIT       Data Type                             Information
#---------       ---------                             -------------------------------
STRT  .M         800.00000                             :PROFUNDIDAD INICIAL
STOP  .M         1845.00000                            :PROFUNDIDAD FINAL
STEP  .M          0.15240                              :INCREMENTO
NULL  .          -999.25                               :VALOR NULO
COMP  .          PETROLEOS MEXICANOS                   :COMPANIA
WELL  .          ABEDUL-1                              :NOMBRE DEL POZO
FLD   .          ABEDUL                                :CAMPO
STAT  .          VERACRUZ                              :ESTADO
CNTY  .          COATZINTLA                            :MUNICIPIO
CTRY  .          MEXICO                                :PAIS
DATE  .          05-MAR-79                             :FECHA
UWI   .          1030022740                            :VALOR UNICO DEL POZO
SRVC  .          PEMEX                                 :COMPANIA DE SERVICIOS
~Parameter Information Block
#MNEM.UNIT       Value                                 Description
#---------       ---------                             -------------
FL.              X=                                    :LOCALIZACION DEL CAMPO
FL1.             Y=                                    :LOCALIZACION DEL CAMPO
PDAT.            NIVEL DEL TERRENO                     :DATO PERMANENTE
EPD.M            135.10                                :ELEVACION DEL DATO PERMANENTE
APD.M            3.8                                   :DIFERENCIA ENTRE MR Y NIVEL DE TERRENO
EKB.M            139.58                                :ELEVACION DEL KELLY BUSHING
EDF.M            139.28                                :ELEVACION DE LA MESA ROTARIA
EGL.M            135.10                                :ELEVACION DEL TERRENO
ELZ.M            139.28                                :ELEVACION DEL CERO DE REFERENCIA
LMF.             MESA ROTARIA                          :REGISTRO MEDIDO DESDE
DMF.             MESA ROTARIA                          :PROFUNDIDAD MEDIDA DESDE
SECT.            DISTRITO POZA RICA                    :NOMBRE DEL SECTOR
CN.              PETROLEOS MEXICANOS                   :NOMBRE DE LA COMPANIA
LATI.            Y=78,766.8 M.                         :LATITUD
LONG.            X=119,309.85 M.                       :LONGITUD
NATI.            MEXICO                                :NACION
RANG.            ZONA NORTE                            :NOMBRE DE LA ZONA
SLAB.            ESTADO                                :ESTADO
STAT.            VERACRUZ                              :NOMBRE DEL ESTADO
CLAB.            MUNICIPIO                             :ETIQUETA DEL MUNICIPIO
COUN.            COATZINTLA                            :NOMBRE DEL MUNICIPIO
SRVC.            REGISTRO  FDC  1:500                  :NOMBRE DEL SERVICIO
DATE.            05-MAR-79                             :FECHA DEL SERVICIO
BLI.M            1845.00000                            :PRIMERA LECTURA
TLI.M            800.00000                             :ULTIMA LECTURA
QCEN.            EDGAR ARTURO OSORNIO RIVERA           :NOMBRE DEL INGENIERO DEL CONTROL DE CALIDAD DEL REGISTRO 
DLQC.            20-NOV-2007                           :FECHA DEL CONTROL DE CALIDAD DEL REGISTRO
CBL1.M           N.R.                                  :ZAPATA SCHLUMBERGER
CBD1.M           N.R.                                  :ZAPATA PERFORACION
TDL.M            N.R.                                  :PROFUNDIDAD REGISTRO
TDD.M            1851.0                                :PROFUNDIDAD PERFORADOR
DFT.             N.R.                                  :TIPO DE LODO
DFD.G/C3         1.25                                  :DENSIDAD DE LODO
DFV.S            45                                    :VISCOSIDAD DEL LODO
DFPH.            N.R.                                  :PH DEL LODO
DFL.C3           N.R.                                  :PERDIDA DE LODO
MSS.             PRESA                                 :FUENTE DE LA MUESTRA DE LODO
RMS.ohm.m        1.8                                   :RESISTIVIDAD DE LODO
MST.DEGC         29                                    :TEMPERATURA DE LA MUESTRA DE LODO
MFSS.            PRENSA                                :FUENTE DEL FILTRADO DE LODO
RMFS.ohm.m       N.R.                                  :RESISTIVIDAD DEL FILTRADO
MFST.DEGC        N.R.                                  :TEMPERATURA DEL FILTRADO
MCSS.            PRENSA                                :FUENTE DEL ENJARRE DE LODO
RMCS.ohm.m       N.R.                                  :RESISTIVIDAD DEL ENJARRE DE LODO
MCST.DEGC        N.R.                                  :TEMPERATURA DEL ENJARRE
BSAL.PPM         N.R.                                  :SALINIDAD DEL LODO
TCS.             N.R.                                  :HORA EN QUE PARO CIRCULACION
STEM.DEGC        29                                    :TEMPERATURA DE SUPERFICIE
BHT.DEGC         70                                    :TEMPERATURA DE FONDO
MRT.DEGC         70                                    :MAXIMA TEMPERATURA REGISTRADA
BS.IN            8.5                                   :DIAMETRO DE BARRENA
CSIZ.IN          9.625                                 :DIAMETRO DE T.R.
CWEI.lbm/ft      N.R.                                  :PESO DE LA T.R.
CTD1.M           N.R.                                  :FONDO DE LA T.R. DEL PERFORADOR
CTL1.M           N.R.                                  :FONDO DE LA T.R. DEL REGISTRO
ENGI.            ROBERTO VICTORIA                      :NOMBRE DEL INGENIERO
WITN.            RAFAEL SANDOVAL                       :NOMBRE DEL TESTIGO
LUN.             8-A                                   :NUMERO DE LA UNIDAD
RUN.             UNO                                   :NUMERO DE LA CORRIDA
OS1.             N.R.                                  :SERVICIOS
HIDE.            REGISTRO DENSIDAD COMPENSADO          :NOMBRE DEL SERVICIO
HID1.            1:500                                 :NOMBRE DEL SERVICIO
LUL.             POZA RICA                             :LUGAR DE LA UNIDAD
R1.              POZA RICA                             :Remarks 1
R2.                                                    :Remarks 2
R3.                                                    :Remarks 3
R4.                                                    :Remarks 4
R5.     Track 1        DIAMETRO DE AGUJERO             :Remarks 5
R6.                          CALI                      :Remarks 6
R7.                           IN                       :Remarks 7
R8.                  3"_________________13"            :Remarks 8
R9.                                                    :Remarks 9
R10.                                                   :Remarks 10
R11.    Track 2-3     DENSIDAD VOLUMETRICA             :Remarks 11
R12.                         RHOB                      :Remarks 12
R13.                         G/C3                      :Remarks 13
R14.                  2_________________3              :Remarks 14
R15.                                                   :Remarks 15
R16.                       POROSIDAD                   :Remarks 16
R17.                         DPHI                      :Remarks 17
R18.                          V/V                      :Remarks 18
R19.                0.3_________________-0.1           :Remarks 19
R20.                                                   :Remarks 20
R21.    Track 3           CORRECCION                   :Remarks 21
R22.                         DRHO                      :Remarks 22
R23.                         G/C3                      :Remarks 23
R24.              -0.25_________________0.25           :Remarks 24
R25. RM  @ TF / 1.0  @ 70 degC                         :Remarks 25
R26. RMF @ TF / 0.75 @ 70 degC                         :Remarks 26
R27. RMC @ TF / 1.0  @ 70 degC                         :Remarks 27
R28.                                                   :Remarks 28
R29.                                                   :Remarks 29
R30.                                                   :Remarks 30
~Curve Information Block
#MNEM.UNIT       API Code            Curve    Description
#--------        --------------      -----    -------------------
DEPT  .M                             :0       Index
CALI  .IN                            :1       Caliper                       
DPHI  .V/V                           :2       Density Porosity              
RHOB  .G/C3                          :3       Bulk Density                  
DRHO  .G/C3                          :4       Bulk Density Correction       
~Ascii Data Section
    800.00000       9.40000       0.17000       2.43415       0.10526 
    800.15240       9.42902       0.17000       2.42583       0.10312 
    800.30480       9.46194       0.17000       2.42043       0.10098 
    800.45720       9.49494       0.16631       2.41817       0.10716 
    800.60960       9.52795       0.16494       2.42725       0.11975 
    800.76200       9.56095       0.15664       2.44215       0.12857 
    800.91440       9.56942       0.15683       2.44181       0.13152 
    801.06680       9.55261       0.16832       2.42217       0.12906 
    801.21920       9.53336       0.17164       2.41649       0.12333 
    801.37160       9.51411       0.16359       2.43026       0.12233 
    801.52400       9.49486       0.15496       2.44502       0.13015 
    801.67640       9.47561       0.14742       2.45791       0.13901 
    801.82880       9.45636       0.14889       2.45540       0.13839 
    801.98120       9.43711       0.15728       2.44105       0.12893 
    802.13360       9.44633       0.16547       2.42705       0.11470 
    802.28600       9.46924       0.17232       2.41533       0.09833 
    802.43840       9.49330       0.17820       2.40528       0.08951 
    802.59080       9.51736       0.17880       2.40425       0.09041 
    802.74320       9.54141       0.17197       2.41593       0.09486 
    802.89560       9.56547       0.16422       2.42919       0.09968 
    803.04800       9.57881       0.16365       2.43015       0.10519 
    803.20040       9.58000       0.17236       2.41527       0.10961 
    803.35280       9.58000       0.18198       2.39882       0.10818 
    803.50520       9.58000       0.18303       2.39702       0.10196 
    803.65760       9.58000       0.17016       2.41902       0.09454 
    803.81000       9.58000       0.15944       2.43735       0.09835 
    803.96240       9.58332       0.16845       2.42195       0.11378 
    804.11480       9.59641       0.17862       2.40455       0.11705 
    804.26720       9.61053       0.17802       2.40559       0.10239 
    804.41960       9.62465       0.17172       2.41635       0.08615 
    804.57200       9.63877       0.16566       2.42672       0.08771 
    804.72440       9.65288       0.16015       2.43614       0.10334 
    804.87680       9.66700       0.15185       2.45034       0.12880 
    805.02920       9.68111       0.14549       2.46121       0.15322 
    805.18160       9.68113       0.14980       2.45383       0.16668 
    805.33400       9.66361       0.15558       2.44396       0.17354 
    805.48640       9.64436       0.16081       2.43502       0.16817 
    805.63880       9.62511       0.16539       2.42719       0.15531 
    805.79120       9.60585       0.16834       2.42214       0.14576 
    805.94360       9.58660       0.17051       2.41843       0.13907 
    806.09600       9.56735       0.17211       2.41569       0.13813 
    806.24840       9.54810       0.17344       2.41341       0.14298 
    806.40080       9.52884       0.17259       2.41487       0.14927 
    806.55320       9.51803       0.16743       2.42370       0.15553 
    806.70560       9.57060       0.16022       2.43602       0.16577 
    806.85800       9.62995       0.15911       2.43793       0.18402 
    807.01040       9.68931       0.16703       2.42438       0.19568 
    807.16280       9.74867       0.17418       2.41216       0.19198 
    807.31520       9.80802       0.18035       2.40160       0.18324 
    807.46760       9.86738       0.18707       2.39011       0.17652 
    807.62000       9.83834       0.18908       2.38668       0.16985 
    807.77240       9.78824       0.18446       2.39458       0.15851 
    807.92480       9.73690       0.18143       2.39975       0.14120 
    808.07720       9.68557       0.18427       2.39489       0.12528 
    808.22960       9.63423       0.19088       2.38359       0.11341 
    808.38200       9.58289       0.19432       2.37771       0.10196 
    808.53440       9.53156       0.19250       2.38082       0.09685 
    808.68680       9.48024       0.18719       2.38990       0.10494 
    808.83920       9.42890       0.17997       2.40225       0.11846 
    808.99160       9.41162       0.17074       2.41804       0.12377 
    809.14400       9.42766       0.16806       2.42262       0.12122 
    809.29640       9.44691       0.17564       2.40966       0.11588 
    809.44880       9.46617       0.18204       2.39872       0.11138 
    809.60120       9.48542       0.18185       2.39903       0.11519 
    809.75360       9.50467       0.17504       2.41069       0.12592 
    809.90600       9.52392       0.16768       2.42326       0.12515 
    810.05840       9.54317       0.16740       2.42375       0.11014 
    810.21080       9.56242       0.17568       2.40958       0.10208 
    810.36320       9.57775       0.18194       2.39889       0.10756 
    810.51560       9.57535       0.18619       2.39161       0.11736 
    810.66800       9.57107       0.18956       2.38585       0.12723 
    810.82040       9.56680       0.18875       2.38724       0.13666 
    810.97280       9.56252       0.18287       2.39730       0.14450 
    811.12520       9.55824       0.17614       2.40881       0.15217 
    811.27760       9.55396       0.16957       2.42003       0.16040 
    811.43000       9.55189       0.16906       2.42091       0.16536 
    811.58240       9.56071       0.17577       2.40943       0.16292 
    811.73480       9.57070       0.18089       2.40067       0.15388 
    811.88720       9.58068       0.18462       2.39430       0.14039 
    812.03960       9.59066       0.18322       2.39670       0.13593 
    812.19200       9.60064       0.17500       2.41074       0.14347 
    812.34440       9.61062       0.16746       2.42365       0.14905 
    812.49680       9.61583       0.16548       2.42703       0.14706 
    812.64920       9.59506       0.17188       2.41609       0.14145 
    812.80160       9.57152       0.17976       2.40260       0.13513 
    812.95400       9.54799       0.18582       2.39225       0.12765 
    813.10640       9.52446       0.19044       2.38435       0.12441 
    813.25880       9.44770       0.19399       2.37827       0.12912 
    813.41120       9.43395       0.19690       2.37331       0.13721 
    813.56360       9.43105       0.20084       2.36656       0.13771 
    813.71600       9.43080       0.20749       2.35519       0.12934 
    813.86840       9.43080       0.21488       2.34256       0.11592 
    814.02080       9.42503       0.21794       2.33732       0.09900 
    814.17320       9.41173       0.21665       2.33953       0.09454 
    814.32560       9.39694       0.21385       2.34432       0.10734 
    814.47800       9.38521       0.21037       2.35027       0.12263 
    814.63040       9.37836       0.20615       2.35748       0.13353 
    814.78280       9.36949       0.20200       2.36458       0.14175 
    814.93520       9.36860       0.20545       2.35868       0.13968 
    815.08760       9.36860       0.21435       2.34347       0.11595 
    815.24000       9.36860       0.21305       2.34569       0.10073 
    815.39240       9.37434       0.20794       2.35443       0.10493 
    815.54480       9.39801       0.20190       2.36474       0.11198 
    815.69720       9.42742       0.19744       2.37237       0.11691 
    815.84960       9.44982       0.19773       2.37188       0.11642 
    816.00200       9.47680       0.20106       2.36620       0.10859 
    816.15440       9.50304       0.20464       2.36006       0.09811 
    816.30680       9.54433       0.20729       2.35553       0.09257 
    816.45920       9.62623       0.20505       2.35937       0.09849 
    816.61160       9.75632       0.19722       2.37276       0.11534 
    816.76400       9.90478       0.18875       2.38723       0.13395 
    816.91640       9.96594       0.18251       2.39791       0.14799 
    817.06880       9.87966       0.18383       2.39565       0.15814 
