~Version Information
VERS  .          2.0                                   :CWLS Log Ascii Standard - Version 2.0
WRAP  .          NO                                    :One line per depth step
~Well Information Block
#MNEM.UNIT       Data Type                             Information
#---------       ---------                             -------------------------------
STRT  .M         800.00000                             :PROFUNDIDAD INICIAL
STOP  .M         1845.00000                            :PROFUNDIDAD FINAL
STEP  .M          0.15240                              :INCREMENTO
NULL  .          -999.25                               :VALOR NULO
COMP  .          PETROLEOS MEXICANOS                   :COMPANIA
WELL  .          ABEDUL-1                              :NOMBRE DEL POZO
FLD   .          ABEDUL                                :CAMPO
STAT  .          VERACRUZ                              :ESTADO
CNTY  .          COATZINTLA                            :MUNICIPIO
CTRY  .          MEXICO                                :PAIS
DATE  .          05-MAR-79                             :FECHA
UWI   .          1030022740                            :VALOR UNICO DEL POZO
SRVC  .          PEMEX                                 :COMPANIA DE SERVICIOS
~Parameter Information Block
#MNEM.UNIT       Value                                 Description
#---------       ---------                             -------------
FL.              X=                                    :LOCALIZACION DEL CAMPO
FL1.             Y=                                    :LOCALIZACION DEL CAMPO
PDAT.            NIVEL DEL TERRENO                     :DATO PERMANENTE
EPD.M            135.10                                :ELEVACION DEL DATO PERMANENTE
APD.M            3.8                                   :DIFERENCIA ENTRE MR Y NIVEL DE TERRENO
EKB.M            139.58                                :ELEVACION DEL KELLY BUSHING
EDF.M            139.28                                :ELEVACION DE LA MESA ROTARIA
EGL.M            135.10                                :ELEVACION DEL TERRENO
ELZ.M            139.28                                :ELEVACION DEL CERO DE REFERENCIA
LMF.             MESA ROTARIA                          :REGISTRO MEDIDO DESDE
DMF.             MESA ROTARIA                          :PROFUNDIDAD MEDIDA DESDE
SECT.            DISTRITO POZA RICA                    :NOMBRE DEL SECTOR
CN.              PETROLEOS MEXICANOS                   :NOMBRE DE LA COMPANIA
LATI.            Y=78,766.8 M.                         :LATITUD
LONG.            X=119,309.85 M.                       :LONGITUD
NATI.            MEXICO                                :NACION
RANG.            ZONA NORTE                            :NOMBRE DE LA ZONA
SLAB.            ESTADO                                :ESTADO
STAT.            VERACRUZ                              :NOMBRE DEL ESTADO
CLAB.            MUNICIPIO                             :ETIQUETA DEL MUNICIPIO
COUN.            COATZINTLA                            :NOMBRE DEL MUNICIPIO
SRVC.            REGISTRO  FDC  1:500                  :NOMBRE DEL SERVICIO
DATE.            05-MAR-79                             :FECHA DEL SERVICIO
BLI.M            1845.00000                            :PRIMERA LECTURA
TLI.M            800.00000                             :ULTIMA LECTURA
QCEN.            EDGAR ARTURO OSORNIO RIVERA           :NOMBRE DEL INGENIERO DEL CONTROL DE CALIDAD DEL REGISTRO 
DLQC.            20-NOV-2007                           :FECHA DEL CONTROL DE CALIDAD DEL REGISTRO
CBL1.M           N.R.                                  :ZAPATA SCHLUMBERGER
CBD1.M           N.R.                                  :ZAPATA PERFORACION
TDL.M            N.R.                                  :PROFUNDIDAD REGISTRO
TDD.M            1851.0                                :PROFUNDIDAD PERFORADOR
DFT.             N.R.                                  :TIPO DE LODO
DFD.G/C3         1.25                                  :DENSIDAD DE LODO
DFV.S            45                                    :VISCOSIDAD DEL LODO
DFPH.            N.R.                                  :PH DEL LODO
DFL.C3           N.R.                                  :PERDIDA DE LODO
MSS.             PRESA                                 :FUENTE DE LA MUESTRA DE LODO
RMS.ohm.m        1.8                                   :RESISTIVIDAD DE LODO
MST.DEGC         29                                    :TEMPERATURA DE LA MUESTRA DE LODO
MFSS.            PRENSA                                :FUENTE DEL FILTRADO DE LODO
RMFS.ohm.m       N.R.                                  :RESISTIVIDAD DEL FILTRADO
MFST.DEGC        N.R.                                  :TEMPERATURA DEL FILTRADO
MCSS.            PRENSA                                :FUENTE DEL ENJARRE DE LODO
RMCS.ohm.m       N.R.                                  :RESISTIVIDAD DEL ENJARRE DE LODO
MCST.DEGC        N.R.                                  :TEMPERATURA DEL ENJARRE
BSAL.PPM         N.R.                                  :SALINIDAD DEL LODO
TCS.             N.R.                                  :HORA EN QUE PARO CIRCULACION
STEM.DEGC        29                                    :TEMPERATURA DE SUPERFICIE
BHT.DEGC         70                                    :TEMPERATURA DE FONDO
MRT.DEGC         70                                    :MAXIMA TEMPERATURA REGISTRADA
BS.IN            8.5                                   :DIAMETRO DE BARRENA
CSIZ.IN          9.625                                 :DIAMETRO DE T.R.
CWEI.lbm/ft      N.R.                                  :PESO DE LA T.R.
CTD1.M           N.R.                                  :FONDO DE LA T.R. DEL PERFORADOR
CTL1.M           N.R.                                  :FONDO DE LA T.R. DEL REGISTRO
ENGI.            ROBERTO VICTORIA                      :NOMBRE DEL INGENIERO
WITN.            RAFAEL SANDOVAL                       :NOMBRE DEL TESTIGO
LUN.             8-A                                   :NUMERO DE LA UNIDAD
RUN.             UNO                                   :NUMERO DE LA CORRIDA
OS1.             N.R.                                  :SERVICIOS
HIDE.            REGISTRO DENSIDAD COMPENSADO          :NOMBRE DEL SERVICIO
HID1.            1:500                                 :NOMBRE DEL SERVICIO
LUL.             POZA RICA                             :LUGAR DE LA UNIDAD
R1.              POZA RICA                             :Remarks 1
R2.                                                    :Remarks 2
R3.                                                    :Remarks 3
R4.                                                    :Remarks 4
R5.     Track 1        DIAMETRO DE AGUJERO             :Remarks 5
R6.                          CALI                      :Remarks 6
R7.                           IN                       :Remarks 7
R8.                  3"_________________13"            :Remarks 8
R9.                                                    :Remarks 9
R10.                                                   :Remarks 10
R11.    Track 2-3     DENSIDAD VOLUMETRICA             :Remarks 11
R12.                         RHOB                      :Remarks 12
R13.                         G/C3                      :Remarks 13
R14.                  2_________________3              :Remarks 14
R15.                                                   :Remarks 15
R16.                       POROSIDAD                   :Remarks 16
R17.                         DPHI                      :Remarks 17
R18.                          V/V                      :Remarks 18
R19.                0.3_________________-0.1           :Remarks 19
R20.                                                   :Remarks 20
R21.    Track 3           CORRECCION                   :Remarks 21
R22.                         DRHO                      :Remarks 22
R23.                         G/C3                      :Remarks 23
R24.              -0.25_________________0.25           :Remarks 24
R25. RM  @ TF / 1.0  @ 70 degC                         :Remarks 25
R26. RMF @ TF / 0.75 @ 70 degC                         :Remarks 26
R27. RMC @ TF / 1.0  @ 70 degC                         :Remarks 27
R28.                                                   :Remarks 28
R29.                                                   :Remarks 29
R30.                                                   :Remarks 30
~Curve Information Block
#MNEM.UNIT       API Code            Curve    Description
#--------        --------------      -----    -------------------
DEPT  .M                             :0       Index
CALI  .IN                            :1       Caliper                       
DPHI  .V/V                           :2       Density Porosity              
RHOB  .G/C3                          :3       Bulk Density                  
DRHO  .G/C3                          :4       Bulk Density Correction       
~Ascii Data Section
# ...
    868.88480       8.39473       0.10580       2.52908       0.13331 
    869.03720       8.11203       0.10305       2.53378       0.13188 
    869.18960       8.09539       0.09546       2.54677       0.13479 
    869.34200       8.37391       0.09569       2.54637       0.13860 
    869.49440       8.61948       0.10152       2.53640       0.14289 
    869.64680       8.79071       0.10799       2.52533       0.14642 
    869.79920       8.89342       0.11408       2.51492       0.13941 
    869.95160       8.96723       0.11935       2.50592       0.12120 
    870.10400       9.01882       0.12396       2.49802       0.10355 
    870.25640       9.03444       0.12823       2.49072       0.09662 
    870.40880       9.01579       0.13343       2.48184       0.10196 
    870.56120       8.97985       0.14047       2.46979       0.11187 
    870.71360       8.92259       0.14396       2.46383       0.11787 
    870.86600       8.82935       0.13799       2.47403       0.11611 
    871.01840       8.70186       0.13111       2.48581       0.10876 
    871.17080       8.56853       0.13050       2.48684       0.10482 
    871.32320       8.54107       0.13431       2.48032       0.10908 
    871.47560       8.63705       0.13824       2.47360       0.11672 
    871.62800       8.68645       0.14223       2.46678       0.11291 
    871.78040       8.70468       0.14709       2.45848       0.10064 
    871.93280       8.36521       0.15186       2.45033       0.09026 
    872.08520       8.30281       0.15326       2.44792       0.09170 
    872.23760       8.50852       0.15020       2.45316       0.10364 
    872.39000       8.73956       0.14543       2.46132       0.11698 
    872.54240       8.97060       0.13966       2.47118       0.13673 
    872.69480       8.88438       0.13416       2.48059       0.16411 
    872.84720       8.71193       0.13012       2.48750       0.17762 
    872.99960       8.41640       0.12630       2.49403       0.17328 
    873.15200       8.02110       0.12157       2.50212       0.15341 
    873.30440       7.77899       0.11652       2.51075       0.13038 
    873.45680       7.73448       0.11210       2.51830       0.11399 
    873.60920       7.89370       0.10761       2.52599       0.11581 
    873.76160       8.13512       0.10764       2.52594       0.13009 
    873.91400       8.38328       0.11521       2.51299       0.13186 
    874.06640       8.63144       0.12891       2.48956       0.12491 
    874.21880       8.87960       0.14377       2.46415       0.12074 
    874.37120       9.00537       0.15102       2.45176       0.11783 
    874.52360       9.11477       0.14716       2.45836       0.11407 
    874.67600       9.22384       0.13661       2.47640       0.10978 
    874.82840       9.21870       0.12880       2.48976       0.10546 
    874.98080       9.18225       0.12129       2.50259       0.10137 
    875.13320       9.14375       0.14816       2.45665       0.09806 
    875.28560       9.15385       0.15191       2.45023       0.09185 
    875.43800       9.18623       0.14882       2.45552       0.09051 
    875.59040       9.16130       0.14606       2.46024       0.09496 
    875.74280       9.04242       0.14354       2.46455       0.09537 
    875.89520       8.93319       0.14132       2.46835       0.09396 
    876.04760       9.09639       0.13843       2.47329       0.09817 
    876.20000       9.28886       0.13331       2.48203       0.10713 
    876.35240       9.48133       0.12666       2.49341       0.11695 
    876.50480       9.33770       0.11929       2.50602       0.12579 
    876.65720       9.17252       0.11673       2.51040       0.13315 
    876.80960       9.02521       0.12454       2.49705       0.13902 
    876.96200       8.90999       0.13333       2.48201       0.14447 
    877.11440       8.82373       0.14005       2.47052       0.13891 
    877.26680       8.74963       0.14474       2.46250       0.12789 
    877.41920       8.68904       0.15088       2.45200       0.13225 
    877.57160       8.63055       0.15536       2.44433       0.14446 
    877.72400       8.60807       0.15272       2.44885       0.14128 
    877.87640       8.61766       0.15315       2.44812       0.12560 
    878.02880       8.64728       0.16788       2.42293       0.11020 
    878.18120       8.58062       0.18398       2.39540       0.09766 
    878.33360       8.24749       0.19614       2.37460       0.08781 
    878.48600       7.84188       0.17026       2.41885       0.09257 
    878.63840       7.64565       0.15574       2.44368       0.11248 
    878.79080       7.70891       0.14547       2.46125       0.12891 
    878.94320       8.12347       0.13874       2.47275       0.13086 
    879.09560       8.63232       0.13476       2.47955       0.12294 
    879.24800       8.87091       0.13101       2.48597       0.11726 
    879.40040       8.77074       0.13031       2.48717       0.12503 
    879.55280       8.64544       0.13442       2.48013       0.13712 
    879.70520       8.52104       0.14257       2.46620       0.13882 
    879.85760       8.56838       0.15170       2.45059       0.12816 
    880.01000       8.81859       0.15828       2.43934       0.09813 
    880.16240       9.04191       0.15815       2.43957       0.08425 
    880.31480       9.26016       0.14998       2.45353       0.09033 
    880.46720       9.37784       0.14145       2.46813       0.09046 
    880.61960       9.36513       0.13702       2.47570       0.08515 
    880.77200       9.33947       0.13913       2.47208       0.07905 
    880.92440       9.31380       0.14232       2.46664       0.07290 
    881.07680       9.28814       0.14521       2.46169       0.06904 
    881.22920       9.29863       0.14543       2.46132       0.07232 
    881.38160       9.32321       0.13903       2.47226       0.08082 
    881.53400       9.34888       0.12981       2.48802       0.08941 
    881.68640       9.33863       0.12333       2.49911       0.09735 
    881.83880       9.30638       0.11615       2.51138       0.10615 
    881.99120       9.29739       0.10486       2.53069       0.12275 
    882.14360       9.34310       0.09832       2.54188       0.14102 
    882.29600       9.30247       0.10555       2.52950       0.14302 
    882.44840       9.22417       0.11475       2.51378       0.13378 
    882.60080       9.14291       0.12052       2.50391       0.13328 
    882.75320       9.06162       0.12318       2.49937       0.14292 
    882.90560       8.99603       0.12115       2.50283       0.15363 
    883.05800       9.08408       0.11432       2.51452       0.15515 
    883.21040       9.18858       0.10650       2.52788       0.14811 
    883.36280       9.29309       0.10345       2.53310       0.14009 
    883.51520       9.39758       0.11131       2.51966       0.13189 
    883.66760       9.50208       0.12037       2.50416       0.12276 
    883.82000       9.34661       0.12378       2.49834       0.12100 
    883.97240       9.34779       0.12393       2.49808       0.13522 
    884.12480       9.42321       0.12310       2.49950       0.14487 
    884.27720       9.50449       0.12185       2.50164       0.14420 
    884.42960       9.58575       0.11976       2.50521       0.15057 
    884.58200       9.64072       0.11609       2.51148       0.16094 
    884.73440       9.57632       0.10944       2.52286       0.16782 
    884.88680       9.49931       0.10832       2.52477       0.17271 
    885.03920       9.42230       0.11902       2.50647       0.15918 
    885.19160       9.41550       0.12837       2.49049       0.13331 
    885.34400       9.58924       0.13002       2.48766       0.11984 
    885.49640       9.49432       0.12461       2.49691       0.12054 
    885.64880       9.51301       0.12399       2.49797       0.12558 
    885.80120       9.56038       0.13056       2.48675       0.12940 
    885.95360       9.60916       0.13830       2.47350       0.12943 
