~Version Information
VERS  .          2.0                                   :CWLS Log Ascii Standard - Version 2.0
WRAP  .          NO                                    :One line per depth step
~Well Information Block
#MNEM.UNIT       Data Type                             Information
#---------       ---------                             -------------------------------
STRT  .M         800.00000                             :PROFUNDIDAD INICIAL
STOP  .M         1845.00000                            :PROFUNDIDAD FINAL
STEP  .M          0.15240                              :INCREMENTO
NULL  .          -999.25                               :VALOR NULO
COMP  .          PETROLEOS MEXICANOS                   :COMPANIA
WELL  .          ABEDUL-1                              :NOMBRE DEL POZO
FLD   .          ABEDUL                                :CAMPO
STAT  .          VERACRUZ                              :ESTADO
CNTY  .          COATZINTLA                            :MUNICIPIO
CTRY  .          MEXICO                                :PAIS
DATE  .          05-MAR-79                             :FECHA
UWI   .          1030022740                            :VALOR UNICO DEL POZO
SRVC  .          PEMEX                                 :COMPANIA DE SERVICIOS
~Parameter Information Block
#MNEM.UNIT       Value                                 Description
#---------       ---------                             -------------
FL.              X=                                    :LOCALIZACION DEL CAMPO
FL1.             Y=                                    :LOCALIZACION DEL CAMPO
PDAT.            NIVEL DEL TERRENO                     :DATO PERMANENTE
EPD.M            135.10                                :ELEVACION DEL DATO PERMANENTE
APD.M            3.8                                   :DIFERENCIA ENTRE MR Y NIVEL DE TERRENO
EKB.M            139.58                                :ELEVACION DEL KELLY BUSHING
EDF.M            139.28                                :ELEVACION DE LA MESA ROTARIA
EGL.M            135.10                                :ELEVACION DEL TERRENO
ELZ.M            139.28                                :ELEVACION DEL CERO DE REFERENCIA
LMF.             MESA ROTARIA                          :REGISTRO MEDIDO DESDE
DMF.             MESA ROTARIA                          :PROFUNDIDAD MEDIDA DESDE
SECT.            DISTRITO POZA RICA                    :NOMBRE DEL SECTOR
CN.              PETROLEOS MEXICANOS                   :NOMBRE DE LA COMPANIA
LATI.            Y=78,766.8 M.                         :LATITUD
LONG.            X=119,309.85 M.                       :LONGITUD
NATI.            MEXICO                                :NACION
RANG.            ZONA NORTE                            :NOMBRE DE LA ZONA
SLAB.            ESTADO                                :ESTADO
STAT.            VERACRUZ                              :NOMBRE DEL ESTADO
CLAB.            MUNICIPIO                             :ETIQUETA DEL MUNICIPIO
COUN.            COATZINTLA                            :NOMBRE DEL MUNICIPIO
SRVC.            REGISTRO  FDC  1:500                  :NOMBRE DEL SERVICIO
DATE.            05-MAR-79                             :FECHA DEL SERVICIO
BLI.M            1845.00000                            :PRIMERA LECTURA
TLI.M            800.00000                             :ULTIMA LECTURA
QCEN.            EDGAR ARTURO OSORNIO RIVERA           :NOMBRE DEL INGENIERO DEL CONTROL DE CALIDAD DEL REGISTRO 
DLQC.            20-NOV-2007                           :FECHA DEL CONTROL DE CALIDAD DEL REGISTRO
CBL1.M           N.R.                                  :ZAPATA SCHLUMBERGER
CBD1.M           N.R.                                  :ZAPATA PERFORACION
TDL.M            N.R.                                  :PROFUNDIDAD REGISTRO
TDD.M            1851.0                                :PROFUNDIDAD PERFORADOR
DFT.             N.R.                                  :TIPO DE LODO
DFD.G/C3         1.25                                  :DENSIDAD DE LODO
DFV.S            45                                    :VISCOSIDAD DEL LODO
DFPH.            N.R.                                  :PH DEL LODO
DFL.C3           N.R.                                  :PERDIDA DE LODO
MSS.             PRESA                                 :FUENTE DE LA MUESTRA DE LODO
RMS.ohm.m        1.8                                   :RESISTIVIDAD DE LODO
MST.DEGC         29                                    :TEMPERATURA DE LA MUESTRA DE LODO
MFSS.            PRENSA                                :FUENTE DEL FILTRADO DE LODO
RMFS.ohm.m       N.R.                                  :RESISTIVIDAD DEL FILTRADO
MFST.DEGC        N.R.                                  :TEMPERATURA DEL FILTRADO
MCSS.            PRENSA                                :FUENTE DEL ENJARRE DE LODO
RMCS.ohm.m       N.R.                                  :RESISTIVIDAD DEL ENJARRE DE LODO
MCST.DEGC        N.R.                                  :TEMPERATURA DEL ENJARRE
BSAL.PPM         N.R.                                  :SALINIDAD DEL LODO
TCS.             N.R.                                  :HORA EN QUE PARO CIRCULACION
STEM.DEGC        29                                    :TEMPERATURA DE SUPERFICIE
BHT.DEGC         70                                    :TEMPERATURA DE FONDO
MRT.DEGC         70                                    :MAXIMA TEMPERATURA REGISTRADA
BS.IN            8.5                                   :DIAMETRO DE BARRENA
CSIZ.IN          9.625                                 :DIAMETRO DE T.R.
CWEI.lbm/ft      N.R.                                  :PESO DE LA T.R.
CTD1.M           N.R.                                  :FONDO DE LA T.R. DEL PERFORADOR
CTL1.M           N.R.                                  :FONDO DE LA T.R. DEL REGISTRO
ENGI.            ROBERTO VICTORIA                      :NOMBRE DEL INGENIERO
WITN.            RAFAEL SANDOVAL                       :NOMBRE DEL TESTIGO
LUN.             8-A                                   :NUMERO DE LA UNIDAD
RUN.             UNO                                   :NUMERO DE LA CORRIDA
OS1.             N.R.                                  :SERVICIOS
HIDE.            REGISTRO DENSIDAD COMPENSADO          :NOMBRE DEL SERVICIO
HID1.            1:500                                 :NOMBRE DEL SERVICIO
LUL.             POZA RICA                             :LUGAR DE LA UNIDAD
R1.              POZA RICA                             :Remarks 1
R2.                                                    :Remarks 2
R3.                                                    :Remarks 3
R4.                                                    :Remarks 4
R5.     Track 1        DIAMETRO DE AGUJERO             :Remarks 5
R6.                          CALI                      :Remarks 6
R7.                           IN                       :Remarks 7
R8.                  3"_________________13"            :Remarks 8
R9.                                                    :Remarks 9
R10.                                                   :Remarks 10
R11.    Track 2-3     DENSIDAD VOLUMETRICA             :Remarks 11
R12.                         RHOB                      :Remarks 12
R13.                         G/C3                      :Remarks 13
R14.                  2_________________3              :Remarks 14
R15.                                                   :Remarks 15
R16.                       POROSIDAD                   :Remarks 16
R17.                         DPHI                      :Remarks 17
R18.                          V/V                      :Remarks 18
R19.                0.3_________________-0.1           :Remarks 19
R20.                                                   :Remarks 20
R21.    Track 3           CORRECCION                   :Remarks 21
R22.                         DRHO                      :Remarks 22
R23.                         G/C3                      :Remarks 23
R24.              -0.25_________________0.25           :Remarks 24
R25. RM  @ TF / 1.0  @ 70 degC                         :Remarks 25
R26. RMF @ TF / 0.75 @ 70 degC                         :Remarks 26
R27. RMC @ TF / 1.0  @ 70 degC                         :Remarks 27
R28.                                                   :Remarks 28
R29.                                                   :Remarks 29
R30.                                                   :Remarks 30
~Curve Information Block
#MNEM.UNIT       API Code            Curve    Description
#--------        --------------      -----    -------------------
DEPT  .M                             :0       Index
CALI  .IN                            :1       Caliper                       
DPHI  .V/V                           :2       Density Porosity              
RHOB  .G/C3                          :3       Bulk Density                  
DRHO  .G/C3                          :4       Bulk Density Correction       
~Ascii Data Section
# ...
   1557.73280       7.30545       0.04864       2.62683       0.04608 
   1557.88520       7.29612       0.05094       2.62289       0.04586 
   1558.03760       7.28679       0.04411       2.63458       0.05084 
   1558.19000       7.27745       0.03324       2.65316       0.05674 
   1558.34240       7.26812       0.02430       2.66845       0.06228 
   1558.49480       7.26290       0.02291       2.67082       0.06701 
   1558.64720       7.27209       0.02056       2.67483       0.07069 
   1558.79960       7.28278       0.01806       2.67911       0.07124 
   1558.95200       7.29348       0.02661       2.66450       0.05991 
   1559.10440       7.30417       0.03736       2.64612       0.04339 
   1559.25680       7.31487       0.04743       2.62889       0.03751 
   1559.40920       7.32556       0.05744       2.61178       0.04370 
   1559.56160       7.33626       0.05622       2.61387       0.05695 
   1559.71400       7.34695       0.05374       2.61811       0.07298 
   1559.86640       7.35765       0.02179       2.67275       0.08764 
   1560.01880       7.36834       0.01428       2.68558       0.10039 
   1560.17120       7.37903       0.01615       2.68239       0.11095 
   1560.32360       7.38973       0.01563       2.68327       0.11286 
   1560.47600       7.40042       0.01213       2.68925       0.10635 
   1560.62840       7.40536       0.01836       2.67860       0.09766 
   1560.78080       7.40043       0.02161       2.67305       0.09012 
   1560.93320       7.41388       0.01842       2.67851       0.08442 
   1561.08560       7.43051       0.03332       2.65303       0.08441 
   1561.23800       7.44542       0.03015       2.65845       0.09278 
   1561.39040       7.45534       0.02514       2.66701       0.10318 
   1561.54280       7.46474       0.03864       2.64393       0.11062 
   1561.69520       7.47413       0.04906       2.62611       0.11718 
   1561.84760       7.48354       0.05848       2.60999       0.12499 
   1562.00000       7.49294       0.06787       2.59394       0.13450 
   1562.15240       7.50234       0.06955       2.59107       0.14974 
   1562.30480       7.51170       0.05249       2.62025       0.15643 
   1562.45720       7.52104       0.03678       2.64711       0.14555 
   1562.60960       7.53044       0.03981       2.64193       0.12883 
   1562.76200       7.53983       0.04786       2.62816       0.11319 
   1562.91440       7.54924       0.05415       2.61741       0.09991 
   1563.06680       7.55863       0.05958       2.60813       0.08922 
   1563.21920       7.56804       0.06464       2.59947       0.08136 
   1563.37160       7.57744       0.06872       2.59248       0.07581 
   1563.52400       7.58680       0.07455       2.58252       0.07184 
   1563.67640       7.59625       0.07792       2.57675       0.08172 
   1563.82880       7.60293       0.07121       2.58823       0.11066 
   1563.98120       7.59315       0.05849       2.60998       0.13672 
   1564.13360       7.57034       0.04605       2.63126       0.13449 
   1564.28600       7.54877       0.03965       2.64220       0.11435 
   1564.43840       7.54302       0.04373       2.63521       0.09738 
   1564.59080       7.57622       0.03676       2.64714       0.08601 
   1564.74320       7.61651       0.03141       2.65628       0.07561 
   1564.89560       7.65716       0.03327       2.65310       0.06545 
   1565.04800       7.69779       0.03150       2.65613       0.05675 
   1565.20040       7.73844       0.02170       2.67289       0.06073 
   1565.35280       7.72925       0.01119       2.69086       0.07553 
   1565.50520       7.70321       0.00069       2.70882       0.08985 
   1565.65760       7.67594      -0.00139       2.71238       0.10083 
   1565.81000       7.64866       0.00708       2.69789       0.09961 
   1565.96240       7.62140       0.01646       2.68185       0.08808 
   1566.11480       7.59413       0.02287       2.67089       0.07664 
   1566.26720       7.56685       0.02729       2.66334       0.07523 
   1566.41960       7.53959       0.03440       2.65117       0.08379 
   1566.57200       7.51230       0.02815       2.66186       0.09658 
   1566.72440       7.48504       0.02065       2.67469       0.11005 
   1566.87680       7.45776       0.02006       2.67570       0.12455 
   1567.02920       7.43049       0.02311       2.67048       0.14090 
   1567.18160       7.42379       0.02339       2.67000       0.15926 
   1567.33400       7.45807       0.02339       2.67000       0.17228 
   1567.48640       7.49658       0.05015       2.62424       0.17275 
   1567.63880       7.52016       0.04814       2.62768       0.16498 
   1567.79120       7.49201       0.05985       2.60765       0.12383 
   1567.94360       7.45846       0.06925       2.59158       0.07820 
   1568.09600       7.42490       0.05972       2.60787       0.06598 
   1568.24840       7.39132       0.02922       2.66004       0.07602 
   1568.40080       7.35777       0.01145       2.69042       0.09010 
   1568.55320       7.32419       0.01666       2.68151       0.09583 
   1568.70560       7.29063       0.02364       2.66958       0.09361 
   1568.85800       7.25706       0.03059       2.65769       0.08997 
   1569.01040       7.22350       0.03753       2.64582       0.09041 
   1569.16280       7.18498       0.04445       2.63398       0.09604 
   1569.31520       7.16870       0.05095       2.62288       0.09780 
   1569.46760       7.25155       0.05534       2.61536       0.08932 
   1569.62000       7.33333       0.05824       2.61040       0.08228 
   1569.77240       7.38582       0.04515       2.63279       0.09522 
   1569.92480       7.43601       0.03018       2.65840       0.13041 
   1570.07720       7.53983       0.01517       2.68406       0.15445 
   1570.22960       7.59880       0.00288       2.70507       0.15043 
   1570.38200       7.51987       0.02475       2.66768       0.13218 
   1570.53440       7.43806       0.04977       2.62490       0.11062 
   1570.68680       7.38140       0.05287       2.61960       0.08926 
   1570.83920       7.33430       0.05923       2.60872       0.06898 
   1570.99160       7.27957       0.06668       2.59597       0.05249 
   1571.14400       7.25260       0.06143       2.60496       0.04123 
   1571.29640       7.28606       0.04882       2.62653       0.03878 
   1571.44880       7.33598       0.05434       2.61708       0.04491 
   1571.60120       7.37096       0.04350       2.63561       0.05461 
   1571.75360       7.38603       0.03100       2.65699       0.06515 
   1571.90600       7.39430       0.03903       2.64325       0.07516 
   1572.05840       7.40141       0.03029       2.65821       0.08415 
   1572.21080       7.41410       0.01528       2.68387       0.09097 
   1572.36320       7.42370       0.01708       2.68080       0.09523 
   1572.51560       7.42460       0.01393       2.68619       0.09805 
   1572.66800       7.41883       0.01522       2.68397       0.09974 
   1572.82040       7.40990       0.02224       2.67197       0.09994 
   1572.97280       7.40327       0.01908       2.67737       0.09765 
   1573.12520       7.39439       0.01415       2.68580       0.09313 
   1573.27760       7.38773       0.01595       2.68273       0.08646 
   1573.43000       7.37880       0.02116       2.67382       0.07660 
   1573.58240       7.37217       0.02620       2.66520       0.06493 
   1573.73480       7.35178       0.03120       2.65664       0.06006 
   1573.88720       7.33309       0.03621       2.64809       0.06420 
   1574.03960       7.32553       0.03961       2.64226       0.07096 
   1574.19200       7.31086       0.03302       2.65354       0.07237 
   1574.34440       7.25751       0.02551       2.66637       0.06445 
   1574.49680       7.22837       0.01854       2.67830       0.04914 
   1574.64920       7.22119       0.03397       2.65191       0.03240 
   1574.80160       7.21605       0.05147       2.62198       0.02706 
