~Version Information
VERS  .          2.0                                   :CWLS Log Ascii Standard - Version 2.0
WRAP  .          NO                                    :One line per depth step
~Well Information Block
#MNEM.UNIT       Data Type                             Information
#---------       ---------                             -------------------------------
STRT  .M         800.00000                             :PROFUNDIDAD INICIAL
STOP  .M         1845.00000                            :PROFUNDIDAD FINAL
STEP  .M          0.15240                              :INCREMENTO
NULL  .          -999.25                               :VALOR NULO
COMP  .          PETROLEOS MEXICANOS                   :COMPANIA
WELL  .          ABEDUL-1                              :NOMBRE DEL POZO
FLD   .          ABEDUL                                :CAMPO
STAT  .          VERACRUZ                              :ESTADO
CNTY  .          COATZINTLA                            :MUNICIPIO
CTRY  .          MEXICO                                :PAIS
DATE  .          05-MAR-79                             :FECHA
UWI   .          1030022740                            :VALOR UNICO DEL POZO
SRVC  .          PEMEX                                 :COMPANIA DE SERVICIOS
~Parameter Information Block
#MNEM.UNIT       Value                                 Description
#---------       ---------                             -------------
FL.              X=                                    :LOCALIZACION DEL CAMPO
FL1.             Y=                                    :LOCALIZACION DEL CAMPO
PDAT.            NIVEL DEL TERRENO                     :DATO PERMANENTE
EPD.M            135.10                                :ELEVACION DEL DATO PERMANENTE
APD.M            3.8                                   :DIFERENCIA ENTRE MR Y NIVEL DE TERRENO
EKB.M            139.58                                :ELEVACION DEL KELLY BUSHING
EDF.M            139.28                                :ELEVACION DE LA MESA ROTARIA
EGL.M            135.10                                :ELEVACION DEL TERRENO
ELZ.M            139.28                                :ELEVACION DEL CERO DE REFERENCIA
LMF.             MESA ROTARIA                          :REGISTRO MEDIDO DESDE
DMF.             MESA ROTARIA                          :PROFUNDIDAD MEDIDA DESDE
SECT.            DISTRITO POZA RICA                    :NOMBRE DEL SECTOR
CN.              PETROLEOS MEXICANOS                   :NOMBRE DE LA COMPANIA
LATI.            Y=78,766.8 M.                         :LATITUD
LONG.            X=119,309.85 M.                       :LONGITUD
NATI.            MEXICO                                :NACION
RANG.            ZONA NORTE                            :NOMBRE DE LA ZONA
SLAB.            ESTADO                                :ESTADO
STAT.            VERACRUZ                              :NOMBRE DEL ESTADO
CLAB.            MUNICIPIO                             :ETIQUETA DEL MUNICIPIO
COUN.            COATZINTLA                            :NOMBRE DEL MUNICIPIO
SRVC.            REGISTRO  FDC  1:500                  :NOMBRE DEL SERVICIO
DATE.            05-MAR-79                             :FECHA DEL SERVICIO
BLI.M            1845.00000                            :PRIMERA LECTURA
TLI.M            800.00000                             :ULTIMA LECTURA
QCEN.            EDGAR ARTURO OSORNIO RIVERA           :NOMBRE DEL INGENIERO DEL CONTROL DE CALIDAD DEL REGISTRO 
DLQC.            20-NOV-2007                           :FECHA DEL CONTROL DE CALIDAD DEL REGISTRO
CBL1.M           N.R.                                  :ZAPATA SCHLUMBERGER
CBD1.M           N.R.                                  :ZAPATA PERFORACION
TDL.M            N.R.                                  :PROFUNDIDAD REGISTRO
TDD.M            1851.0                                :PROFUNDIDAD PERFORADOR
DFT.             N.R.                                  :TIPO DE LODO
DFD.G/C3         1.25                                  :DENSIDAD DE LODO
DFV.S            45                                    :VISCOSIDAD DEL LODO
DFPH.            N.R.                                  :PH DEL LODO
DFL.C3           N.R.                                  :PERDIDA DE LODO
MSS.             PRESA                                 :FUENTE DE LA MUESTRA DE LODO
RMS.ohm.m        1.8                                   :RESISTIVIDAD DE LODO
MST.DEGC         29                                    :TEMPERATURA DE LA MUESTRA DE LODO
MFSS.            PRENSA                                :FUENTE DEL FILTRADO DE LODO
RMFS.ohm.m       N.R.                                  :RESISTIVIDAD DEL FILTRADO
MFST.DEGC        N.R.                                  :TEMPERATURA DEL FILTRADO
MCSS.            PRENSA                                :FUENTE DEL ENJARRE DE LODO
RMCS.ohm.m       N.R.                                  :RESISTIVIDAD DEL ENJARRE DE LODO
MCST.DEGC        N.R.                                  :TEMPERATURA DEL ENJARRE
BSAL.PPM         N.R.                                  :SALINIDAD DEL LODO
TCS.             N.R.                                  :HORA EN QUE PARO CIRCULACION
STEM.DEGC        29                                    :TEMPERATURA DE SUPERFICIE
BHT.DEGC         70                                    :TEMPERATURA DE FONDO
MRT.DEGC         70                                    :MAXIMA TEMPERATURA REGISTRADA
BS.IN            8.5                                   :DIAMETRO DE BARRENA
CSIZ.IN          9.625                                 :DIAMETRO DE T.R.
CWEI.lbm/ft      N.R.                                  :PESO DE LA T.R.
CTD1.M           N.R.                                  :FONDO DE LA T.R. DEL PERFORADOR
CTL1.M           N.R.                                  :FONDO DE LA T.R. DEL REGISTRO
ENGI.            ROBERTO VICTORIA                      :NOMBRE DEL INGENIERO
WITN.            RAFAEL SANDOVAL                       :NOMBRE DEL TESTIGO
LUN.             8-A                                   :NUMERO DE LA UNIDAD
RUN.             UNO                                   :NUMERO DE LA CORRIDA
OS1.             N.R.                                  :SERVICIOS
HIDE.            REGISTRO DENSIDAD COMPENSADO          :NOMBRE DEL SERVICIO
HID1.            1:500                                 :NOMBRE DEL SERVICIO
LUL.             POZA RICA                             :LUGAR DE LA UNIDAD
R1.              POZA RICA                             :Remarks 1
R2.                                                    :Remarks 2
R3.                                                    :Remarks 3
R4.                                                    :Remarks 4
R5.     Track 1        DIAMETRO DE AGUJERO             :Remarks 5
R6.                          CALI                      :Remarks 6
R7.                           IN                       :Remarks 7
R8.                  3"_________________13"            :Remarks 8
R9.                                                    :Remarks 9
R10.                                                   :Remarks 10
R11.    Track 2-3     DENSIDAD VOLUMETRICA             :Remarks 11
R12.                         RHOB                      :Remarks 12
R13.                         G/C3                      :Remarks 13
R14.                  2_________________3              :Remarks 14
R15.                                                   :Remarks 15
R16.                       POROSIDAD                   :Remarks 16
R17.                         DPHI                      :Remarks 17
R18.                          V/V                      :Remarks 18
R19.                0.3_________________-0.1           :Remarks 19
R20.                                                   :Remarks 20
R21.    Track 3           CORRECCION                   :Remarks 21
R22.                         DRHO                      :Remarks 22
R23.                         G/C3                      :Remarks 23
R24.              -0.25_________________0.25           :Remarks 24
R25. RM  @ TF / 1.0  @ 70 degC                         :Remarks 25
R26. RMF @ TF / 0.75 @ 70 degC                         :Remarks 26
R27. RMC @ TF / 1.0  @ 70 degC                         :Remarks 27
R28.                                                   :Remarks 28
R29.                                                   :Remarks 29
R30.                                                   :Remarks 30
~Curve Information Block
#MNEM.UNIT       API Code            Curve    Description
#--------        --------------      -----    -------------------
DEPT  .M                             :0       Index
CALI  .IN                            :1       Caliper                       
DPHI  .V/V                           :2       Density Porosity              
RHOB  .G/C3                          :3       Bulk Density                  
DRHO  .G/C3                          :4       Bulk Density Correction       
~Ascii Data Section
# ...
   1144.42400       8.01473       0.13500       2.47915       0.18476 
   1144.57640       8.00812       0.14749       2.45779       0.18928 
   1144.72880       7.98773       0.15712       2.44133       0.20335 
   1144.88120       7.96483       0.15953       2.43720       0.21602 
   1145.03360       8.02977       0.15333       2.44780       0.22645 
   1145.18600       8.20591       0.14424       2.46336       0.23138 
   1145.33840       8.43031       0.14326       2.46503       0.22733 
   1145.49080       8.61815       0.15296       2.44843       0.22040 
   1145.64320       8.56142       0.15762       2.44047       0.22281 
   1145.79560       8.39347       0.15110       2.45161       0.23409 
   1145.94800       8.29813       0.15066       2.45238       0.24559 
   1146.10040       8.34807       0.15724       2.44112       0.25302 
   1146.25280       8.54716       0.15836       2.43920       0.25255 
   1146.40520       8.55945       0.14201       2.46717       0.24568 
   1146.55760       8.23826       0.14393       2.46389       0.23322 
   1146.71000       8.04314       0.14340       2.46478       0.21495 
   1146.86240       7.99646       0.13783       2.47431       0.20253 
   1147.01480       8.04661       0.13183       2.48458       0.20442 
   1147.16720       8.21097       0.12582       2.49484       0.21474 
   1147.31960       8.35901       0.13903       2.47225       0.22597 
   1147.47200       8.33863       0.15122       2.45142       0.23596 
   1147.62440       8.40972       0.15699       2.44154       0.24404 
   1147.77680       8.66446       0.15572       2.44372       0.23111 
   1147.92920       8.94027       0.15384       2.44693       0.20309 
   1148.08160       9.04101       0.15307       2.44826       0.18660 
   1148.23400       8.91768       0.15988       2.43661       0.18853 
   1148.38640       8.80533       0.16347       2.43047       0.20304 
   1148.53880       8.68499       0.16383       2.42986       0.21961 
   1148.69120       8.54115       0.16591       2.42629       0.22989 
   1148.84360       8.39802       0.16170       2.43350       0.22734 
   1148.99600       8.45021       0.16816       2.42244       0.21123 
   1149.14840       8.68896       0.17094       2.41769       0.19492 
   1149.30080       8.73782       0.16682       2.42474       0.18183 
   1149.45320       8.66084       0.15711       2.44133       0.17994 
   1149.60560       8.56827       0.15406       2.44656       0.19509 
   1149.75800       8.45187       0.15354       2.44744       0.21641 
   1149.91040       8.26747       0.15724       2.44112       0.23388 
   1150.06280       8.08620       0.16436       2.42894       0.23638 
   1150.21520       8.15687       0.17311       2.41398       0.22693 
   1150.36760       8.39621       0.18196       2.39885       0.21460 
   1150.52000       8.57905       0.19070       2.38390       0.20117 
   1150.67240       8.66625       0.19108       2.38325       0.18884 
   1150.82480       8.66744       0.17856       2.40467       0.18934 
   1150.97720       8.51552       0.16436       2.42894       0.21135 
   1151.12960       8.41243       0.15828       2.43935       0.23361 
   1151.28200       8.53901       0.16449       2.42873       0.24397 
   1151.43440       8.63321       0.16300       2.43127       0.24508 
   1151.58680       8.80601       0.15371       2.44715       0.23861 
   1151.73920       9.10179       0.14723       2.45824       0.21745 
   1151.89160       9.32932       0.14874       2.45565       0.19410 
   1152.04400       9.13818       0.15268       2.44892       0.18714 
   1152.19640       8.62247       0.14913       2.45499       0.19894 
   1152.34880       8.51562       0.13967       2.47117       0.21632 
   1152.50120       8.57195       0.13380       2.48121       0.22789 
   1152.65360       8.60633       0.13312       2.48237       0.23478 
   1152.80600       8.62556       0.13213       2.48406       0.23999 
   1152.95840       8.60459       0.12153       2.50218       0.24465 
   1153.11080       8.54048       0.11427       2.51459       0.24890 
   1153.26320       8.45817       0.11907       2.50639       0.25215 
   1153.41560       8.36604       0.12891       2.48956       0.25462 
   1153.56800       8.27302       0.13628       2.47697       0.25662 
   1153.72040       8.26630       0.12226       2.50093       0.25762 
   1153.87280       8.41617       0.11747       2.50912       0.25546 
   1154.02520       8.55175       0.11914       2.50626       0.24965 
   1154.17760       8.58724       0.12162       2.50203       0.24016 
   1154.33000       8.59820       0.12272       2.50014       0.23201 
   1154.48240       8.59362       0.12281       2.50000       0.23179 
   1154.63480       8.57349       0.12281       2.50000       0.23646 
   1154.78720       8.53206       0.12957       2.48843       0.24167 
   1154.93960       8.45470       0.12727       2.49236       0.24635 
   1155.09200       8.32000       0.11739       2.50926       0.25076 
   1155.24440       8.18320       0.10688       2.52724       0.25503 
   1155.39680       8.13469       0.09638       2.54520       0.25834 
   1155.54920       8.17586       0.09932       2.54016       0.25819 
   1155.70160       8.29224       0.10935       2.52302       0.25532 
   1155.85400       8.40374       0.12082       2.50340       0.25145 
   1156.00640       8.49208       0.13237       2.48365       0.24269 
   1156.15880       8.57554       0.14390       2.46394       0.22855 
   1156.31120       8.67269       0.15023       2.45311       0.21122 
   1156.46360       8.77972       0.14837       2.45628       0.19503 
   1156.61600       8.87409       0.14656       2.45938       0.18913 
   1156.76840       8.95183       0.14573       2.46081       0.19233 
   1156.92080       8.91693       0.14475       2.46249       0.19671 
   1157.07320       8.72041       0.13973       2.47106       0.20066 
   1157.22560       8.57130       0.12945       2.48863       0.20513 
   1157.37800       8.49185       0.11888       2.50671       0.21635 
   1157.53040       8.39507       0.10835       2.52473       0.23410 
   1157.68280       8.37006       0.10231       2.53505       0.24590 
   1157.83520       8.62921       0.10743       2.52630       0.24400 
   1157.98760       8.91101       0.12534       2.49567       0.23291 
   1158.14000       8.91035       0.12351       2.49879       0.21828 
   1158.29240       8.79579       0.11976       2.50521       0.20425 
   1158.44480       8.77810       0.12104       2.50302       0.19387 
   1158.59720       8.83543       0.13263       2.48320       0.18535 
   1158.74960       8.92892       0.14514       2.46181       0.17390 
   1158.90200       9.06234       0.15994       2.43650       0.15478 
   1159.05440       9.19336       0.17494       2.41085       0.13533 
   1159.20680       9.22724       0.17479       2.41111       0.12073 
   1159.35920       9.17109       0.16550       2.42700       0.11876 
   1159.51160       9.11142       0.15921       2.43775       0.12827 
   1159.66400       9.03580       0.16100       2.43469       0.13935 
   1159.81640       8.96405       0.16350       2.43041       0.15322 
   1159.96880       8.90123       0.15462       2.44559       0.17209 
   1160.12120       8.83352       0.13700       2.47573       0.19196 
   1160.27360       8.78000       0.12796       2.49119       0.21248 
   1160.42600       8.76689       0.12475       2.49668       0.23190 
   1160.57840       8.85832       0.12723       2.49244       0.24626 
   1160.73080       9.19679       0.14306       2.46537       0.23990 
   1160.88320       9.54039       0.15581       2.44356       0.21053 
   1161.03560       9.47265       0.15421       2.44630       0.18321 
   1161.18800       9.16430       0.15053       2.45260       0.17038 
   1161.34040       8.98658       0.14705       2.45855       0.16862 
   1161.49280       8.96021       0.14442       2.46304       0.17325 
