~Version Information
VERS  .          2.0                                   :CWLS Log Ascii Standard - Version 2.0
WRAP  .          NO                                    :One line per depth step
~Well Information Block
#MNEM.UNIT       Data Type                             Information
#---------       ---------                             -------------------------------
STRT  .M         800.00000                             :PROFUNDIDAD INICIAL
STOP  .M         1845.00000                            :PROFUNDIDAD FINAL
STEP  .M          0.15240                              :INCREMENTO
NULL  .          -999.25                               :VALOR NULO
COMP  .          PETROLEOS MEXICANOS                   :COMPANIA
WELL  .          ABEDUL-1                              :NOMBRE DEL POZO
FLD   .          ABEDUL                                :CAMPO
STAT  .          VERACRUZ                              :ESTADO
CNTY  .          COATZINTLA                            :MUNICIPIO
CTRY  .          MEXICO                                :PAIS
DATE  .          05-MAR-79                             :FECHA
UWI   .          1030022740                            :VALOR UNICO DEL POZO
SRVC  .          PEMEX                                 :COMPANIA DE SERVICIOS
~Parameter Information Block
#MNEM.UNIT       Value                                 Description
#---------       ---------                             -------------
FL.              X=                                    :LOCALIZACION DEL CAMPO
FL1.             Y=                                    :LOCALIZACION DEL CAMPO
PDAT.            NIVEL DEL TERRENO                     :DATO PERMANENTE
EPD.M            135.10                                :ELEVACION DEL DATO PERMANENTE
APD.M            3.8                                   :DIFERENCIA ENTRE MR Y NIVEL DE TERRENO
EKB.M            139.58                                :ELEVACION DEL KELLY BUSHING
EDF.M            139.28                                :ELEVACION DE LA MESA ROTARIA
EGL.M            135.10                                :ELEVACION DEL TERRENO
ELZ.M            139.28                                :ELEVACION DEL CERO DE REFERENCIA
LMF.             MESA ROTARIA                          :REGISTRO MEDIDO DESDE
DMF.             MESA ROTARIA                          :PROFUNDIDAD MEDIDA DESDE
SECT.            DISTRITO POZA RICA                    :NOMBRE DEL SECTOR
CN.              PETROLEOS MEXICANOS                   :NOMBRE DE LA COMPANIA
LATI.            Y=78,766.8 M.                         :LATITUD
LONG.            X=119,309.85 M.                       :LONGITUD
NATI.            MEXICO                                :NACION
RANG.            ZONA NORTE                            :NOMBRE DE LA ZONA
SLAB.            ESTADO                                :ESTADO
STAT.            VERACRUZ                              :NOMBRE DEL ESTADO
CLAB.            MUNICIPIO                             :ETIQUETA DEL MUNICIPIO
COUN.            COATZINTLA                            :NOMBRE DEL MUNICIPIO
SRVC.            REGISTRO  FDC  1:500                  :NOMBRE DEL SERVICIO
DATE.            05-MAR-79                             :FECHA DEL SERVICIO
BLI.M            1845.00000                            :PRIMERA LECTURA
TLI.M            800.00000                             :ULTIMA LECTURA
QCEN.            EDGAR ARTURO OSORNIO RIVERA           :NOMBRE DEL INGENIERO DEL CONTROL DE CALIDAD DEL REGISTRO 
DLQC.            20-NOV-2007                           :FECHA DEL CONTROL DE CALIDAD DEL REGISTRO
CBL1.M           N.R.                                  :ZAPATA SCHLUMBERGER
CBD1.M           N.R.                                  :ZAPATA PERFORACION
TDL.M            N.R.                                  :PROFUNDIDAD REGISTRO
TDD.M            1851.0                                :PROFUNDIDAD PERFORADOR
DFT.             N.R.                                  :TIPO DE LODO
DFD.G/C3         1.25                                  :DENSIDAD DE LODO
DFV.S            45                                    :VISCOSIDAD DEL LODO
DFPH.            N.R.                                  :PH DEL LODO
DFL.C3           N.R.                                  :PERDIDA DE LODO
MSS.             PRESA                                 :FUENTE DE LA MUESTRA DE LODO
RMS.ohm.m        1.8                                   :RESISTIVIDAD DE LODO
MST.DEGC         29                                    :TEMPERATURA DE LA MUESTRA DE LODO
MFSS.            PRENSA                                :FUENTE DEL FILTRADO DE LODO
RMFS.ohm.m       N.R.                                  :RESISTIVIDAD DEL FILTRADO
MFST.DEGC        N.R.                                  :TEMPERATURA DEL FILTRADO
MCSS.            PRENSA                                :FUENTE DEL ENJARRE DE LODO
RMCS.ohm.m       N.R.                                  :RESISTIVIDAD DEL ENJARRE DE LODO
MCST.DEGC        N.R.                                  :TEMPERATURA DEL ENJARRE
BSAL.PPM         N.R.                                  :SALINIDAD DEL LODO
TCS.             N.R.                                  :HORA EN QUE PARO CIRCULACION
STEM.DEGC        29                                    :TEMPERATURA DE SUPERFICIE
BHT.DEGC         70                                    :TEMPERATURA DE FONDO
MRT.DEGC         70                                    :MAXIMA TEMPERATURA REGISTRADA
BS.IN            8.5                                   :DIAMETRO DE BARRENA
CSIZ.IN          9.625                                 :DIAMETRO DE T.R.
CWEI.lbm/ft      N.R.                                  :PESO DE LA T.R.
CTD1.M           N.R.                                  :FONDO DE LA T.R. DEL PERFORADOR
CTL1.M           N.R.                                  :FONDO DE LA T.R. DEL REGISTRO
ENGI.            ROBERTO VICTORIA                      :NOMBRE DEL INGENIERO
WITN.            RAFAEL SANDOVAL                       :NOMBRE DEL TESTIGO
LUN.             8-A                                   :NUMERO DE LA UNIDAD
RUN.             UNO                                   :NUMERO DE LA CORRIDA
OS1.             N.R.                                  :SERVICIOS
HIDE.            REGISTRO DENSIDAD COMPENSADO          :NOMBRE DEL SERVICIO
HID1.            1:500                                 :NOMBRE DEL SERVICIO
LUL.             POZA RICA                             :LUGAR DE LA UNIDAD
R1.              POZA RICA                             :Remarks 1
R2.                                                    :Remarks 2
R3.                                                    :Remarks 3
R4.                                                    :Remarks 4
R5.     Track 1        DIAMETRO DE AGUJERO             :Remarks 5
R6.                          CALI                      :Remarks 6
R7.                           IN                       :Remarks 7
R8.                  3"_________________13"            :Remarks 8
R9.                                                    :Remarks 9
R10.                                                   :Remarks 10
R11.    Track 2-3     DENSIDAD VOLUMETRICA             :Remarks 11
R12.                         RHOB                      :Remarks 12
R13.                         G/C3                      :Remarks 13
R14.                  2_________________3              :Remarks 14
R15.                                                   :Remarks 15
R16.                       POROSIDAD                   :Remarks 16
R17.                         DPHI                      :Remarks 17
R18.                          V/V                      :Remarks 18
R19.                0.3_________________-0.1           :Remarks 19
R20.                                                   :Remarks 20
R21.    Track 3           CORRECCION                   :Remarks 21
R22.                         DRHO                      :Remarks 22
R23.                         G/C3                      :Remarks 23
R24.              -0.25_________________0.25           :Remarks 24
R25. RM  @ TF / 1.0  @ 70 degC                         :Remarks 25
R26. RMF @ TF / 0.75 @ 70 degC                         :Remarks 26
R27. RMC @ TF / 1.0  @ 70 degC                         :Remarks 27
R28.                                                   :Remarks 28
R29.                                                   :Remarks 29
R30.                                                   :Remarks 30
~Curve Information Block
#MNEM.UNIT       API Code            Curve    Description
#--------        --------------      -----    -------------------
DEPT  .M                             :0       Index
CALI  .IN                            :1       Caliper                       
DPHI  .V/V                           :2       Density Porosity              
RHOB  .G/C3                          :3       Bulk Density                  
DRHO  .G/C3                          :4       Bulk Density Correction       
~Ascii Data Section
# ...
   1764.38720       7.03863       0.10282       2.53417       0.19585 
   1764.53960       7.13279       0.08451       2.56549       0.21269 
   1764.69200       7.23780       0.06477       2.59925       0.23812 
   1764.84440       7.20357       0.05127       2.62233       0.25224 
   1764.99680       7.06071       0.05022       2.62413       0.25173 
   1765.14920       7.12113       0.08767       2.56008       0.24996 
   1765.30160       7.28779       0.11849       2.50738       0.24966 
   1765.45400       7.46919       0.12424       2.49756       0.24927 
   1765.60640       7.65398       0.12612       2.49434       0.24889 
   1765.75880       7.82611       0.12703       2.49278       0.24846 
   1765.91120       8.02638       0.12626       2.49409       0.24809 
   1766.06360       8.08652       0.12093       2.50321       0.24800 
   1766.21600       7.92822       0.10972       2.52239       0.24800 
   1766.36840       7.87992       0.09977       2.53940       0.24796 
   1766.52080       7.88542       0.09732       2.54358       0.24791 
   1766.67320       7.89871       0.10139       2.53662       0.24790 
   1766.82560       7.95087       0.10896       2.52368       0.24790 
   1766.97800       7.82127       0.11596       2.51170       0.24786 
   1767.13040       7.56475       0.12017       2.50451       0.24781 
   1767.28280       7.58899       0.12446       2.49718       0.24784 
   1767.43520       7.43527       0.13053       2.48679       0.24819 
   1767.58760       7.18194       0.13522       2.47877       0.24852 
   1767.74000       7.23812       0.13591       2.47760       0.24860 
   1767.89240       7.36834       0.12803       2.49106       0.24856 
   1768.04480       7.53585       0.10756       2.52607       0.24851 
   1768.19720       7.68407       0.08993       2.55622       0.24850 
   1768.34960       7.71027       0.09121       2.55403       0.24850 
   1768.50200       7.63283       0.09926       2.54027       0.24354 
   1768.65440       7.58368       0.09963       2.53962       0.23153 
   1768.80680       7.52429       0.08795       2.55961       0.22728 
   1768.95920       7.46359       0.05990       2.60757       0.23634 
   1769.11160       7.37280       0.04236       2.63757       0.24677 
   1769.26400       7.30336       0.05441       2.61696       0.25003 
   1769.41640       7.37249       0.07514       2.58151       0.24780 
   1769.56880       7.50400       0.10381       2.53249       0.24428 
   1769.72120       7.59646       0.13036       2.48709       0.24033 
   1769.87360       7.57128       0.14630       2.45983       0.23468 
   1770.02600       7.46009       0.15033       2.45294       0.23141 
   1770.17840       7.35281       0.14617       2.46006       0.23662 
   1770.33080       7.20028       0.13693       2.47585       0.24574 
   1770.48320       7.10701       0.12426       2.49751       0.25087 
   1770.63560       7.21884       0.10905       2.52353       0.25202 
   1770.78800       7.36388       0.09612       2.54563       0.25210 
   1770.94040       7.42953       0.10031       2.53847       0.25176 
   1771.09280       7.45724       0.12708       2.49269       0.25135 
   1771.24520       7.46226       0.14518       2.46173       0.25121 
   1771.39760       7.43706       0.13390       2.48102       0.25120 
   1771.55000       7.36925       0.12451       2.49710       0.24492 
   1771.70240       7.31591       0.12748       2.49201       0.21829 
   1771.85480       7.36207       0.14385       2.46401       0.20389 
   1772.00720       7.45763       0.17057       2.41833       0.22452 
   1772.15960       7.58290       0.19960       2.36868       0.24453 
   1772.31200       7.74165       0.20975       2.35132       0.24880 
   1772.46440       7.94063       0.20952       2.35172       0.24897 
   1772.61680       8.16244       0.20285       2.36313       0.24869 
   1772.76920       8.35691       0.19266       2.38055       0.24080 
   1772.92160       8.51964       0.18043       2.40146       0.22836 
   1773.07400       8.63124       0.16788       2.42293       0.22885 
   1773.22640       8.74247       0.15750       2.44068       0.24066 
   1773.37880       8.67892       0.14161       2.46784       0.25073 
   1773.53120       8.40109       0.11674       2.51037       0.25475 
   1773.68360       8.22715       0.09888       2.54091       0.25282 
   1773.83600       8.10310       0.09583       2.54614       0.24425 
   1773.98840       7.98851       0.09343       2.55023       0.22042 
   1774.14080       7.89030       0.08810       2.55935       0.19773 
   1774.29320       7.76554       0.07719       2.57800       0.19550 
   1774.44560       7.63477       0.05607       2.61411       0.20510 
   1774.59800       7.53839       0.03218       2.65498       0.20461 
   1774.75040       7.45465       0.02663       2.66447       0.16951 
   1774.90280       7.37179       0.04209       2.63803       0.13884 
   1775.05520       7.28896       0.06248       2.60316       0.13771 
   1775.20760       7.20613       0.05779       2.61117       0.14532 
   1775.36000       7.12331       0.04012       2.64140       0.15223 
   1775.51240       7.04043       0.03691       2.64688       0.15467 
   1775.66480       6.95761       0.04364       2.63537       0.14903 
   1775.81720       6.90383       0.05234       2.62051       0.15810 
   1775.96960       6.91493       0.06121       2.60533       0.19141 
   1776.12200       6.97158       0.06927       2.59155       0.21082 
   1776.27440       7.05845       0.07535       2.58116       0.20731 
   1776.42680       7.17018       0.07926       2.57447       0.19899 
   1776.57920       7.27614       0.08144       2.57074       0.19169 
   1776.73160       7.38536       0.08030       2.57268       0.18531 
   1776.88400       7.46171       0.07415       2.58321       0.17860 
   1777.03640       7.38084       0.06798       2.59376       0.17312 
   1777.18880       7.21123       0.07048       2.58948       0.19352 
   1777.34120       7.05441       0.08229       2.56928       0.22688 
   1777.49360       7.02172       0.09157       2.55341       0.23967 
   1777.64600       7.12386       0.09711       2.54394       0.24311 
   1777.79840       7.23599       0.10185       2.53583       0.24795 
   1777.95080       7.32419       0.10555       2.52951       0.25006 
   1778.10320       7.41829       0.10594       2.52884       0.24996 
   1778.25560       7.53015       0.10118       2.53698       0.24959 
   1778.40800       7.63578       0.09267       2.55153       0.24950 
   1778.56040       7.75761       0.08777       2.55992       0.24946 
   1778.71280       7.90354       0.09140       2.55370       0.24941 
   1778.86520       8.09958       0.10605       2.52865       0.24940 
   1779.01760       8.34131       0.12595       2.49463       0.24970 
   1779.17000       8.47491       0.14075       2.46932       0.25002 
   1779.32240       8.43284       0.14227       2.46672       0.25010 
   1779.47480       8.33947       0.13919       2.47198       0.25010 
   1779.62720       8.19253       0.13120       2.48565       0.25006 
   1779.77960       7.99812       0.12357       2.49869       0.25001 
   1779.93200       7.78675       0.12430       2.49745       0.25000 
   1780.08440       7.76148       0.12622       2.49417       0.24996 
   1780.23680       8.00384       0.11078       2.52057       0.24961 
   1780.38920       8.17962       0.08099       2.57151       0.24720 
   1780.54160       8.20324       0.08033       2.57264       0.23865 
   1780.69400       8.08112       0.09676       2.54455       0.22934 
   1780.84640       7.97538       0.10305       2.53378       0.23342 
   1780.99880       7.86980       0.09580       2.54618       0.24712 
   1781.15120       7.75300       0.09918       2.54040       0.25269 
   1781.30360       7.65484       0.11859       2.50720       0.25032 
   1781.45600       7.57536       0.12886       2.48964       0.23931 
