~Version Information
VERS  .          2.0                                   :CWLS Log Ascii Standard - Version 2.0
WRAP  .          NO                                    :One line per depth step
~Well Information Block
#MNEM.UNIT       Data Type                             Information
#---------       ---------                             -------------------------------
STRT  .M         800.00000                             :PROFUNDIDAD INICIAL
STOP  .M         1845.00000                            :PROFUNDIDAD FINAL
STEP  .M          0.15240                              :INCREMENTO
NULL  .          -999.25                               :VALOR NULO
COMP  .          PETROLEOS MEXICANOS                   :COMPANIA
WELL  .          ABEDUL-1                              :NOMBRE DEL POZO
FLD   .          ABEDUL                                :CAMPO
STAT  .          VERACRUZ                              :ESTADO
CNTY  .          COATZINTLA                            :MUNICIPIO
CTRY  .          MEXICO                                :PAIS
DATE  .          05-MAR-79                             :FECHA
UWI   .          1030022740                            :VALOR UNICO DEL POZO
SRVC  .          PEMEX                                 :COMPANIA DE SERVICIOS
~Parameter Information Block
#MNEM.UNIT       Value                                 Description
#---------       ---------                             -------------
FL.              X=                                    :LOCALIZACION DEL CAMPO
FL1.             Y=                                    :LOCALIZACION DEL CAMPO
PDAT.            NIVEL DEL TERRENO                     :DATO PERMANENTE
EPD.M            135.10                                :ELEVACION DEL DATO PERMANENTE
APD.M            3.8                                   :DIFERENCIA ENTRE MR Y NIVEL DE TERRENO
EKB.M            139.58                                :ELEVACION DEL KELLY BUSHING
EDF.M            139.28                                :ELEVACION DE LA MESA ROTARIA
EGL.M            135.10                                :ELEVACION DEL TERRENO
ELZ.M            139.28                                :ELEVACION DEL CERO DE REFERENCIA
LMF.             MESA ROTARIA                          :REGISTRO MEDIDO DESDE
DMF.             MESA ROTARIA                          :PROFUNDIDAD MEDIDA DESDE
SECT.            DISTRITO POZA RICA                    :NOMBRE DEL SECTOR
CN.              PETROLEOS MEXICANOS                   :NOMBRE DE LA COMPANIA
LATI.            Y=78,766.8 M.                         :LATITUD
LONG.            X=119,309.85 M.                       :LONGITUD
NATI.            MEXICO                                :NACION
RANG.            ZONA NORTE                            :NOMBRE DE LA ZONA
SLAB.            ESTADO                                :ESTADO
STAT.            VERACRUZ                              :NOMBRE DEL ESTADO
CLAB.            MUNICIPIO                             :ETIQUETA DEL MUNICIPIO
COUN.            COATZINTLA                            :NOMBRE DEL MUNICIPIO
SRVC.            REGISTRO  FDC  1:500                  :NOMBRE DEL SERVICIO
DATE.            05-MAR-79                             :FECHA DEL SERVICIO
BLI.M            1845.00000                            :PRIMERA LECTURA
TLI.M            800.00000                             :ULTIMA LECTURA
QCEN.            EDGAR ARTURO OSORNIO RIVERA           :NOMBRE DEL INGENIERO DEL CONTROL DE CALIDAD DEL REGISTRO 
DLQC.            20-NOV-2007                           :FECHA DEL CONTROL DE CALIDAD DEL REGISTRO
CBL1.M           N.R.                                  :ZAPATA SCHLUMBERGER
CBD1.M           N.R.                                  :ZAPATA PERFORACION
TDL.M            N.R.                                  :PROFUNDIDAD REGISTRO
TDD.M            1851.0                                :PROFUNDIDAD PERFORADOR
DFT.             N.R.                                  :TIPO DE LODO
DFD.G/C3         1.25                                  :DENSIDAD DE LODO
DFV.S            45                                    :VISCOSIDAD DEL LODO
DFPH.            N.R.                                  :PH DEL LODO
DFL.C3           N.R.                                  :PERDIDA DE LODO
MSS.             PRESA                                 :FUENTE DE LA MUESTRA DE LODO
RMS.ohm.m        1.8                                   :RESISTIVIDAD DE LODO
MST.DEGC         29                                    :TEMPERATURA DE LA MUESTRA DE LODO
MFSS.            PRENSA                                :FUENTE DEL FILTRADO DE LODO
RMFS.ohm.m       N.R.                                  :RESISTIVIDAD DEL FILTRADO
MFST.DEGC        N.R.                                  :TEMPERATURA DEL FILTRADO
MCSS.            PRENSA                                :FUENTE DEL ENJARRE DE LODO
RMCS.ohm.m       N.R.                                  :RESISTIVIDAD DEL ENJARRE DE LODO
MCST.DEGC        N.R.                                  :TEMPERATURA DEL ENJARRE
BSAL.PPM         N.R.                                  :SALINIDAD DEL LODO
TCS.             N.R.                                  :HORA EN QUE PARO CIRCULACION
STEM.DEGC        29                                    :TEMPERATURA DE SUPERFICIE
BHT.DEGC         70                                    :TEMPERATURA DE FONDO
MRT.DEGC         70                                    :MAXIMA TEMPERATURA REGISTRADA
BS.IN            8.5                                   :DIAMETRO DE BARRENA
CSIZ.IN          9.625                                 :DIAMETRO DE T.R.
CWEI.lbm/ft      N.R.                                  :PESO DE LA T.R.
CTD1.M           N.R.                                  :FONDO DE LA T.R. DEL PERFORADOR
CTL1.M           N.R.                                  :FONDO DE LA T.R. DEL REGISTRO
ENGI.            ROBERTO VICTORIA                      :NOMBRE DEL INGENIERO
WITN.            RAFAEL SANDOVAL                       :NOMBRE DEL TESTIGO
LUN.             8-A                                   :NUMERO DE LA UNIDAD
RUN.             UNO                                   :NUMERO DE LA CORRIDA
OS1.             N.R.                                  :SERVICIOS
HIDE.            REGISTRO DENSIDAD COMPENSADO          :NOMBRE DEL SERVICIO
HID1.            1:500                                 :NOMBRE DEL SERVICIO
LUL.             POZA RICA                             :LUGAR DE LA UNIDAD
R1.              POZA RICA                             :Remarks 1
R2.                                                    :Remarks 2
R3.                                                    :Remarks 3
R4.                                                    :Remarks 4
R5.     Track 1        DIAMETRO DE AGUJERO             :Remarks 5
R6.                          CALI                      :Remarks 6
R7.                           IN                       :Remarks 7
R8.                  3"_________________13"            :Remarks 8
R9.                                                    :Remarks 9
R10.                                                   :Remarks 10
R11.    Track 2-3     DENSIDAD VOLUMETRICA             :Remarks 11
R12.                         RHOB                      :Remarks 12
R13.                         G/C3                      :Remarks 13
R14.                  2_________________3              :Remarks 14
R15.                                                   :Remarks 15
R16.                       POROSIDAD                   :Remarks 16
R17.                         DPHI                      :Remarks 17
R18.                          V/V                      :Remarks 18
R19.                0.3_________________-0.1           :Remarks 19
R20.                                                   :Remarks 20
R21.    Track 3           CORRECCION                   :Remarks 21
R22.                         DRHO                      :Remarks 22
R23.                         G/C3                      :Remarks 23
R24.              -0.25_________________0.25           :Remarks 24
R25. RM  @ TF / 1.0  @ 70 degC                         :Remarks 25
R26. RMF @ TF / 0.75 @ 70 degC                         :Remarks 26
R27. RMC @ TF / 1.0  @ 70 degC                         :Remarks 27
R28.                                                   :Remarks 28
R29.                                                   :Remarks 29
R30.                                                   :Remarks 30
~Curve Information Block
#MNEM.UNIT       API Code            Curve    Description
#--------        --------------      -----    -------------------
DEPT  .M                             :0       Index
CALI  .IN                            :1       Caliper                       
DPHI  .V/V                           :2       Density Porosity              
RHOB  .G/C3                          :3       Bulk Density                  
DRHO  .G/C3                          :4       Bulk Density Correction       
~Ascii Data Section
# ...
   1833.27200       7.11787       0.08470       2.56517       0.23192 
   1833.42440       7.36568       0.08719       2.56091       0.19469 
   1833.57680       7.59758       0.08307       2.56795       0.16366 
   1833.72920       7.54067       0.06501       2.59883       0.15233 
   1833.88160       7.27147       0.03333       2.65301       0.18063 
   1834.03400       6.94751       0.01339       2.68711       0.21646 
   1834.18640       6.76850       0.02390       2.66912       0.22055 
   1834.33880       6.79116       0.04252       2.63729       0.20566 
   1834.49120       6.85856       0.05617       2.61395       0.21353 
   1834.64360       6.92702       0.06787       2.59394       0.23557 
   1834.79600       7.00395       0.08045       2.57243       0.23411 
   1834.94840       7.02427       0.09274       2.55142       0.17576 
   1835.10080       6.96130       0.09953       2.53980       0.09926 
   1835.25320       6.89254       0.08965       2.55670       0.07166 
   1835.40560       6.82150       0.06479       2.59920       0.14284 
   1835.55800       6.76428       0.04614       2.63110       0.22786 
   1835.71040       6.72261       0.05085       2.62304       0.24601 
   1835.86280       6.70222       0.15958       2.43712       0.22444 
   1836.01520       6.70172       0.16959       2.42000       0.21222 
   1836.16760       6.72295       0.16959       2.42000       0.22540 
   1836.32000       6.81178       0.19098       2.38342       0.24621 
   1836.47240       7.10737       0.22503       2.32520       0.25296 
   1836.62480       7.67938       0.26004       2.26532       0.23668 
   1836.77720       8.34519       0.29508       2.20541       0.22041 
   1836.92960       8.94069       0.33010       2.14554       0.22776 
   1837.08200       9.61388       0.36513       2.08562       0.24521 
   1837.23440      10.14830       0.40015       2.02575       0.23873 
   1837.38680       9.88746       0.37897       2.06196       0.21990 
   1837.53920       9.25947       0.32290       2.15783       0.20830 
   1837.69160       8.60527       0.26413       2.25833       0.19908 
   1837.84400       8.13892       0.20532       2.35890       0.20960 
   1837.99640       7.95079       0.14655       2.45939       0.23504 
   1838.14880       7.87811       0.15077       2.45218       0.25155 
   1838.30120       7.90052       0.20313       2.36266       0.25282 
   1838.45360       8.26223       0.25944       2.26636       0.24544 
   1838.60600       9.15301       0.31199       2.17650       0.23670 
   1838.75840      10.03363       0.32329       2.15718       0.22852 
   1838.91080      10.40457       0.33079       2.14436       0.22758 
   1839.06320      10.53692       0.33146       2.14320       0.23710 
   1839.21560      10.26228       0.32918       2.14711       0.24849 
   1839.36800       9.71552       0.32761       2.14979       0.25577 
   1839.52040       9.71991       0.32749       2.15000       0.25816 
   1839.67280       9.91292       0.30655       2.18579       0.25156 
   1839.82520      10.01155       0.31149       2.17735       0.23774 
   1839.97760      10.02806       0.31899       2.16452       0.22158 
   1840.13000       9.93905       0.33993       2.12872       0.23102 
   1840.28240       9.68858       0.36699       2.08245       0.24865 
   1840.43480       9.44396       0.37867       2.06248       0.25034 
   1840.58720       9.64601       0.36465       2.08644       0.25210 
   1840.73960      10.12069       0.34839       2.11426       0.25127 
   1840.89200      10.19663       0.33213       2.14205       0.24284 
   1841.04440       9.63360       0.31587       2.16987       0.23207 
   1841.19680       9.02765       0.34494       2.12015       0.22123 
   1841.34920       8.92770       0.38329       2.05458       0.21214 
   1841.50160       9.16759       0.35680       2.09987       0.20434 
   1841.65400       8.93086       0.32429       2.15547       0.19857 
   1841.80640       8.41264       0.29175       2.21110       0.20244 
   1841.95880       8.45145       0.25924       2.26669       0.21582 
   1842.11120       8.67655       0.24118       2.29758       0.23096 
   1842.26360       8.83246       0.26405       2.25847       0.24408 
   1842.41600       8.63943       0.29452       2.20638       0.21577 
   1842.56840       7.71622       0.29026       2.21365       0.18922 
   1842.72080       7.13785       0.30405       2.19008       0.21121 
   1842.87320       7.61774       0.33456       2.13789       0.23632 
   1843.02560       8.08762       0.36645       2.08337       0.23517 
   1843.17800       8.50049       0.35961       2.09506       0.22008 
   1843.33040       8.61653       0.30609       2.18659       0.20518 
   1843.48280       8.34994       0.24853       2.28502       0.20217 
   1843.63520       7.69947       0.19101       2.38338       0.14533 
   1843.78760       7.40018       0.13345       2.48180       0.13754 
   1843.94000       8.02603       0.13505       2.47906       0.19850 
   1844.09240       8.05003       0.20942       2.35190       0.23912 
   1844.24480       7.69121       0.31906       2.16440       0.25000 
   1844.39720       7.96698       0.32501       2.15424       0.25000 
   1844.54960       8.62424       0.31485       2.17160       0.25000 
   1844.70200       9.00309       0.30020       2.19666       0.25000 
   1844.85440       9.70066       0.29683       2.20242       0.25000 
