~Version Information
VERS  .          2.0                                   :CWLS Log Ascii Standard - Version 2.0
WRAP  .          NO                                    :One line per depth step
~Well Information Block
#MNEM.UNIT       Data Type                             Information
#---------       ---------                             -------------------------------
STRT  .M         800.00000                             :PROFUNDIDAD INICIAL
STOP  .M         1845.00000                            :PROFUNDIDAD FINAL
STEP  .M          0.15240                              :INCREMENTO
NULL  .          -999.25                               :VALOR NULO
COMP  .          PETROLEOS MEXICANOS                   :COMPANIA
WELL  .          ABEDUL-1                              :NOMBRE DEL POZO
FLD   .          ABEDUL                                :CAMPO
STAT  .          VERACRUZ                              :ESTADO
CNTY  .          COATZINTLA                            :MUNICIPIO
CTRY  .          MEXICO                                :PAIS
DATE  .          05-MAR-79                             :FECHA
UWI   .          1030022740                            :VALOR UNICO DEL POZO
SRVC  .          PEMEX                                 :COMPANIA DE SERVICIOS
~Parameter Information Block
#MNEM.UNIT       Value                                 Description
#---------       ---------                             -------------
FL.              X=                                    :LOCALIZACION DEL CAMPO
FL1.             Y=                                    :LOCALIZACION DEL CAMPO
PDAT.            NIVEL DEL TERRENO                     :DATO PERMANENTE
EPD.M            135.10                                :ELEVACION DEL DATO PERMANENTE
APD.M            3.8                                   :DIFERENCIA ENTRE MR Y NIVEL DE TERRENO
EKB.M            139.58                                :ELEVACION DEL KELLY BUSHING
EDF.M            139.28                                :ELEVACION DE LA MESA ROTARIA
EGL.M            135.10                                :ELEVACION DEL TERRENO
ELZ.M            139.28                                :ELEVACION DEL CERO DE REFERENCIA
LMF.             MESA ROTARIA                          :REGISTRO MEDIDO DESDE
DMF.             MESA ROTARIA                          :PROFUNDIDAD MEDIDA DESDE
SECT.            DISTRITO POZA RICA                    :NOMBRE DEL SECTOR
CN.              PETROLEOS MEXICANOS                   :NOMBRE DE LA COMPANIA
LATI.            Y=78,766.8 M.                         :LATITUD
LONG.            X=119,309.85 M.                       :LONGITUD
NATI.            MEXICO                                :NACION
RANG.            ZONA NORTE                            :NOMBRE DE LA ZONA
SLAB.            ESTADO                                :ESTADO
STAT.            VERACRUZ                              :NOMBRE DEL ESTADO
CLAB.            MUNICIPIO                             :ETIQUETA DEL MUNICIPIO
COUN.            COATZINTLA                            :NOMBRE DEL MUNICIPIO
SRVC.            REGISTRO  FDC  1:500                  :NOMBRE DEL SERVICIO
DATE.            05-MAR-79                             :FECHA DEL SERVICIO
BLI.M            1845.00000                            :PRIMERA LECTURA
TLI.M            800.00000                             :ULTIMA LECTURA
QCEN.            EDGAR ARTURO OSORNIO RIVERA           :NOMBRE DEL INGENIERO DEL CONTROL DE CALIDAD DEL REGISTRO 
DLQC.            20-NOV-2007                           :FECHA DEL CONTROL DE CALIDAD DEL REGISTRO
CBL1.M           N.R.                                  :ZAPATA SCHLUMBERGER
CBD1.M           N.R.                                  :ZAPATA PERFORACION
TDL.M            N.R.                                  :PROFUNDIDAD REGISTRO
TDD.M            1851.0                                :PROFUNDIDAD PERFORADOR
DFT.             N.R.                                  :TIPO DE LODO
DFD.G/C3         1.25                                  :DENSIDAD DE LODO
DFV.S            45                                    :VISCOSIDAD DEL LODO
DFPH.            N.R.                                  :PH DEL LODO
DFL.C3           N.R.                                  :PERDIDA DE LODO
MSS.             PRESA                                 :FUENTE DE LA MUESTRA DE LODO
RMS.ohm.m        1.8                                   :RESISTIVIDAD DE LODO
MST.DEGC         29                                    :TEMPERATURA DE LA MUESTRA DE LODO
MFSS.            PRENSA                                :FUENTE DEL FILTRADO DE LODO
RMFS.ohm.m       N.R.                                  :RESISTIVIDAD DEL FILTRADO
MFST.DEGC        N.R.                                  :TEMPERATURA DEL FILTRADO
MCSS.            PRENSA                                :FUENTE DEL ENJARRE DE LODO
RMCS.ohm.m       N.R.                                  :RESISTIVIDAD DEL ENJARRE DE LODO
MCST.DEGC        N.R.                                  :TEMPERATURA DEL ENJARRE
BSAL.PPM         N.R.                                  :SALINIDAD DEL LODO
TCS.             N.R.                                  :HORA EN QUE PARO CIRCULACION
STEM.DEGC        29                                    :TEMPERATURA DE SUPERFICIE
BHT.DEGC         70                                    :TEMPERATURA DE FONDO
MRT.DEGC         70                                    :MAXIMA TEMPERATURA REGISTRADA
BS.IN            8.5                                   :DIAMETRO DE BARRENA
CSIZ.IN          9.625                                 :DIAMETRO DE T.R.
CWEI.lbm/ft      N.R.                                  :PESO DE LA T.R.
CTD1.M           N.R.                                  :FONDO DE LA T.R. DEL PERFORADOR
CTL1.M           N.R.                                  :FONDO DE LA T.R. DEL REGISTRO
ENGI.            ROBERTO VICTORIA                      :NOMBRE DEL INGENIERO
WITN.            RAFAEL SANDOVAL                       :NOMBRE DEL TESTIGO
LUN.             8-A                                   :NUMERO DE LA UNIDAD
RUN.             UNO                                   :NUMERO DE LA CORRIDA
OS1.             N.R.                                  :SERVICIOS
HIDE.            REGISTRO DENSIDAD COMPENSADO          :NOMBRE DEL SERVICIO
HID1.            1:500                                 :NOMBRE DEL SERVICIO
LUL.             POZA RICA                             :LUGAR DE LA UNIDAD
R1.              POZA RICA                             :Remarks 1
R2.                                                    :Remarks 2
R3.                                                    :Remarks 3
R4.                                                    :Remarks 4
R5.     Track 1        DIAMETRO DE AGUJERO             :Remarks 5
R6.                          CALI                      :Remarks 6
R7.                           IN                       :Remarks 7
R8.                  3"_________________13"            :Remarks 8
R9.                                                    :Remarks 9
R10.                                                   :Remarks 10
R11.    Track 2-3     DENSIDAD VOLUMETRICA             :Remarks 11
R12.                         RHOB                      :Remarks 12
R13.                         G/C3                      :Remarks 13
R14.                  2_________________3              :Remarks 14
R15.                                                   :Remarks 15
R16.                       POROSIDAD                   :Remarks 16
R17.                         DPHI                      :Remarks 17
R18.                          V/V                      :Remarks 18
R19.                0.3_________________-0.1           :Remarks 19
R20.                                                   :Remarks 20
R21.    Track 3           CORRECCION                   :Remarks 21
R22.                         DRHO                      :Remarks 22
R23.                         G/C3                      :Remarks 23
R24.              -0.25_________________0.25           :Remarks 24
R25. RM  @ TF / 1.0  @ 70 degC                         :Remarks 25
R26. RMF @ TF / 0.75 @ 70 degC                         :Remarks 26
R27. RMC @ TF / 1.0  @ 70 degC                         :Remarks 27
R28.                                                   :Remarks 28
R29.                                                   :Remarks 29
R30.                                                   :Remarks 30
~Curve Information Block
#MNEM.UNIT       API Code            Curve    Description
#--------        --------------      -----    -------------------
DEPT  .M                             :0       Index
CALI  .IN                            :1       Caliper                       
DPHI  .V/V                           :2       Density Porosity              
RHOB  .G/C3                          :3       Bulk Density                  
DRHO  .G/C3                          :4       Bulk Density Correction       
~Ascii Data Section
# ...
   1351.07840       7.90720       0.05357       2.61840       0.07663 
   1351.23080       7.91599       0.04456       2.63380       0.07387 
   1351.38320       7.92166       0.03614       2.64821       0.07903 
   1351.53560       7.92053       0.03772       2.64549       0.08813 
   1351.68800       7.91389       0.04022       2.64122       0.09070 
   1351.84040       7.89582       0.03814       2.64477       0.09177 
   1351.99280       7.87639       0.03450       2.65101       0.09984 
   1352.14520       7.86828       0.03074       2.65743       0.10268 
   1352.29760       7.86015       0.03169       2.65581       0.08804 
   1352.45000       7.85261       0.03696       2.64680       0.06944 
   1352.60240       7.83265       0.05462       2.61660       0.05672 
   1352.75480       7.81508       0.06438       2.59991       0.04585 
   1352.90720       7.75663       0.05783       2.61112       0.04249 
   1353.05960       7.76977       0.05118       2.62248       0.04984 
   1353.21200       7.79117       0.03783       2.64530       0.06006 
   1353.36440       7.81255       0.03678       2.64710       0.06764 
   1353.51680       7.83394       0.04594       2.63145       0.06589 
   1353.66920       7.85532       0.04678       2.63000       0.05615 
   1353.82160       7.87672       0.04678       2.63000       0.04684 
   1353.97400       7.89787       0.04678       2.63000       0.04657 
   1354.12640       7.89332       0.03756       2.64577       0.05410 
   1354.27880       7.88598       0.04358       2.63547       0.06248 
   1354.43120       7.87865       0.05109       2.62264       0.06951 
   1354.58360       7.87132       0.04249       2.63735       0.07834 
   1354.73600       7.86398       0.03019       2.65837       0.08796 
   1354.88840       7.82818       0.02574       2.66599       0.09620 
   1355.04080       7.76649       0.02886       2.66065       0.10501 
   1355.19320       7.71995       0.02417       2.66867       0.11464 
   1355.34560       7.73874       0.01855       2.67827       0.12401 
   1355.49800       7.76441       0.01293       2.68790       0.13272 
   1355.65040       7.78809       0.01771       2.67971       0.14050 
   1355.80280       7.79386       0.02506       2.66714       0.14097 
   1355.95520       7.79771       0.03257       2.65430       0.12397 
   1356.10760       7.80156       0.04008       2.64147       0.10037 
   1356.26000       7.80541       0.03869       2.64383       0.08494 
   1356.41240       7.80926       0.03622       2.64807       0.08086 
   1356.56480       7.81311       0.05257       2.62011       0.08409 
   1356.71720       7.81696       0.05224       2.62066       0.08862 
   1356.86960       7.81538       0.04774       2.62837       0.09429 
   1357.02200       7.80102       0.04905       2.62612       0.09336 
   1357.17440       7.78532       0.05093       2.62291       0.08457 
   1357.32680       7.76964       0.05281       2.61970       0.07476 
   1357.47920       7.75395       0.05468       2.61649       0.06552 
   1357.63160       7.73827       0.05656       2.61328       0.05637 
   1357.78400       7.72258       0.05749       2.61169       0.04590 
   1357.93640       7.70475       0.05009       2.62435       0.03523 
   1358.08880       7.69610       0.04266       2.63706       0.03480 
   1358.24120       7.71512       0.03636       2.64782       0.04609 
   1358.39360       7.76140       0.03605       2.64835       0.06095 
   1358.54600       7.85198       0.04209       2.63802       0.07612 
   1358.69840       7.95168       0.04796       2.62799       0.08692 
   1358.85080       7.99046       0.05641       2.61354       0.08883 
   1359.00320       7.97957       0.06741       2.59472       0.08514 
   1359.15560       7.95591       0.07092       2.58872       0.08006 
   1359.30800       7.92014       0.06746       2.59464       0.07756 
   1359.46040       7.88420       0.06298       2.60231       0.08311 
   1359.61280       7.86202       0.05200       2.62108       0.09421 
   1359.76520       7.87936       0.03019       2.65838       0.10657 
   1359.91760       7.91329       0.01670       2.68144       0.11788 
   1360.07000       7.94857       0.02202       2.67234       0.11882 
   1360.22240       7.94739       0.02885       2.66066       0.11076 
   1360.37480       7.90445       0.03486       2.65039       0.10068 
   1360.52720       7.85738       0.03640       2.64776       0.09059 
   1360.67960       7.81033       0.03440       2.65117       0.08110 
   1360.83200       7.76326       0.03218       2.65497       0.07149 
   1360.98440       7.71621       0.03475       2.65058       0.06120 
   1361.13680       7.66914       0.03157       2.65602       0.04992 
   1361.28920       7.66684       0.03579       2.64879       0.04443 
   1361.44160       7.71813       0.04995       2.62458       0.04827 
   1361.59400       7.76574       0.04895       2.62629       0.05738 
   1361.74640       7.81814       0.04482       2.63336       0.07089 
   1361.89880       7.87370       0.04053       2.64069       0.08771 
   1362.05120       7.92124       0.03624       2.64803       0.10178 
   1362.20360       7.96212       0.03195       2.65536       0.10819 
   1362.35600       7.97687       0.02789       2.66231       0.10593 
   1362.50840       7.96069       0.02411       2.66877       0.09792 
   1362.66080       7.94184       0.02956       2.65945       0.08673 
   1362.81320       7.94000       0.03696       2.64679       0.08211 
   1362.96560       7.92022       0.04094       2.63999       0.08614 
   1363.11800       7.88333       0.04711       2.62945       0.09267 
   1363.27040       7.84485       0.04863       2.62684       0.09933 
   1363.42280       7.80634       0.04408       2.63462       0.10194 
   1363.57520       7.77565       0.03513       2.64992       0.09232 
   1363.72760       7.74956       0.03116       2.65671       0.07535 
   1363.88000       7.72390       0.03649       2.64759       0.06104 
   1364.03240       7.63584       0.03874       2.64376       0.06159 
   1364.18480       7.65761       0.03546       2.64936       0.08162 
   1364.33720       7.69297       0.03171       2.65577       0.10688 
   1364.48960       7.73721       0.02796       2.66219       0.11844 
   1364.64200       7.78379       0.02421       2.66861       0.11215 
   1364.79440       7.82927       0.03934       2.64273       0.10124 
   1364.94680       7.88060       0.03905       2.64322       0.09482 
   1365.09920       7.93592       0.03718       2.64643       0.09171 
   1365.25160       7.97771       0.03530       2.64964       0.08941 
   1365.40400       8.00972       0.04734       2.62906       0.08786 
   1365.55640       8.03508       0.04900       2.62620       0.08808 
   1365.70880       8.02278       0.04593       2.63146       0.09089 
   1365.86120       7.95923       0.04073       2.64036       0.09721 
   1366.01360       7.88817       0.04605       2.63126       0.10550 
   1366.16600       7.81355       0.05789       2.61101       0.10379 
   1366.31840       7.72207       0.05465       2.61656       0.08578 
   1366.47080       7.64251       0.04209       2.63802       0.06547 
   1366.62320       7.60417       0.03462       2.65080       0.05827 
   1366.77560       7.63195       0.02742       2.66310       0.06168 
   1366.92800       7.68548       0.02037       2.67516       0.06690 
   1367.08040       7.74111       0.02069       2.67462       0.10451 
   1367.23280       7.79671       0.02857       2.66115       0.13723 
   1367.38520       7.85234       0.03533       2.64959       0.13539 
   1367.53760       7.84756       0.03784       2.64530       0.12614 
   1367.69000       7.83372       0.03429       2.65136       0.11874 
   1367.84240       7.81960       0.03420       2.65152       0.10920 
   1367.99480       7.80549       0.04223       2.63778       0.09202 
   1368.14720       7.79136       0.04726       2.62919       0.07446 
