~Version Information
VERS  .          2.0                                   :CWLS Log Ascii Standard - Version 2.0
WRAP  .          NO                                    :One line per depth step
~Well Information Block
#MNEM.UNIT       Data Type                             Information
#---------       ---------                             -------------------------------
STRT  .M         800.0000                              :PROFUNDIDAD INICIAL
STOP  .M         1845.0000                             :PROFUNDIDAD FINAL
STEP  .M         0.1524                                :INCREMENTO
NULL  .          -999.2500                             :VALOR NULO 
COMP  .          PETROLEOS MEXICANOS                   :COMPANIA
WELL  .          ABEDUL-1                              :NOMBRE DEL POZO 
FLD   .          ABEDUL                                :CAMPO 
STAT  .          VERACRUZ                              :ESTADO
CNTY  .          COATZINTLA                            :MUNICIPIO
CTRY  .          MEXICO                                :PAIS
DATE  .          04-MAR-79                             :FECHA
UWI   .          1030022740                            :VALOR UNICO DEL POZO
SRVC  .          PEMEX                                 :COMPANIA DE SERVICIOS
~Parameter Information Block
#MNEM.UNIT       Value                                 Description
#---------       ---------                             -------------
FL.              X=                                    :LOCALIZACION DEL CAMPO
FL1.             Y=                                    :LOCALIZACION DEL CAMPO
PDAT.            NIVEL DEL TERRENO                     :DATO PERMANENTE
EPD.M            135.10                                :ELEVACION DEL DATO PERMANENTE
APD.M            4.18                                  :DIFERENCIA ENTRE MR Y NIVEL DE TERRENO
EKB.M            139.58                                :ELEVACION DEL KELLY BUSHING
EDF.M            139.28                                :ELEVACION DE LA MESA ROTARIA
EGL.M            135.10                                :ELEVACION DEL TERRENO
ELZ.M            139.28                                :ELEVACION DEL CERO DE REFERENCIA
LMF.             MESA ROTARIA                          :REGISTRO MEDIDO DESDE
DMF.             MESA ROTARIA                          :PROFUNDIDAD MEDIDA DESDE
SECT.            DISTRITO POZA RICA                    :NOMBRE DEL SECTOR
CN.              PETROLEOS MEXICANOS                   :NOMBRE DE LA COMPANIA
LATI.            Y=78,766.87 M.                        :LATITUD
LONG.            X=119,309.85 M.                       :LONGITUD
NATI.            MEXICO                                :NACION
RANG.            ZONA NORTE                            :NOMBRE DE LA ZONA
SLAB.            ESTADO                                :ESTADO 
STAT.            VERACRUZ                              :NOMBRE DEL ESTADO
CLAB.            MUNICIPIO                             :ETIQUETA DEL MUNICIPIO
COUN.            COATZINTLA                            :NOMBRE DEL MUNICIPIO
SRVC.            REGISTRO  MLL  1:500                  :NOMBRE DEL SERVICIO
DATE.            04-MAR-79                             :FECHA DEL SERVICIO
BLI.M            1845.0000                             :PRIMERA LECTURA
TLI.M            800.0000                              :ULTIMA LECTURA
QCEN.            ELVIS LUNA GARCIA                     :NOMBRE DEL INGENIERO DEL CONTROL DE CALIDAD DEL REGISTRO
DLQC.            02-APR-2009                           :FECHA DEL CONTROL DE CALIDAD DEL REGISTRO
CBL1.M           291.0                                 :ZAPATA SCHLUMBERGER
CBD1.M           300.0                                 :ZAPATA PERFORACION
TDL.M            1845.0                                :PROFUNDIDAD REGISTRO
TDD.M            1851.0                                :PROFUNDIDAD PERFORADOR
DFT.             SODICO                                :TIPO DE LODO
DFD.G/C3         1.25                                  :DENSIDAD DE LODO
DFV.S            45                                    :VISCOSIDAD DEL LODO
DFPH.            8.6                                   :PH DEL LODO
DFL.C3           N.R.                                  :PERDIDA DE LODO
MSS.             PRESA                                 :FUENTE DE LA MUESTRA DE LODO
RMS.ohm.m        1.8                                   :RESISTIVIDAD DE LODO
MST.DEGC         29                                    :TEMPERATURA DE LA MUESTRA DE LODO
MFSS.            PRENSA                                :FUENTE DEL FILTRADO DE LODO
RMFS.ohm.m       N.R.                                  :RESISTIVIDAD DEL FILTRADO
MFST.DEGC        N.R.                                  :TEMPERATURA DEL FILTRADO
MCSS.            PRENSA                                :FUENTE DEL ENJARRE DE LODO
RMCS.ohm.m       N.R.                                  :RESISTIVIDAD DEL ENJARRE DE LODO
MCST.DEGC        N.R.                                  :TEMPERATURA DEL ENJARRE
BSAL.PPM         N.R.                                  :SALINIDAD DEL LODO
TCS.             N.R.                                  :HORA EN QUE PARO CIRCULACION
STEM.DEGC        N.R.                                  :TEMPERATURA DE SUPERFICIE
BHT.DEGC         70                                    :TEMPERATURA DE FONDO
MRT.DEGC         70                                    :MAXIMA TEMPERATURA REGISTRADA
BS.IN            8.5                                   :DIAMETRO DE BARRENA
CSIZ.IN          9.625                                 :DIAMETRO DE T.R.
CWEI.lbm/ft      N.R.                                  :PESO DE LA T.R.
CTD1.M           300.0                                 :FONDO DE LA T.R. DEL PERFORADOR
CTL1.M           291.0                                 :FONDO DE LA T.R. DEL REGISTRO
ENGI.            DANIEL ORDONEZ                        :NOMBRE DEL INGENIERO
WITN.            RAFAEL SANDOVAL C.                    :NOMBRE DEL TESTIGO
LUN.             8-A                                   :NUMERO DE LA UNIDAD
RUN.             UNO                                   :NUMERO DE LA CORRIDA
OS1.             N.R.                                  :SERVICIOS
HIDE.            REGISTRO MICROLOG-MICROLATEROLOG      :NOMBRE DEL SERVICIO
HID1.            1:500                                 :NOMBRE DEL SERVICIO
LUL.             N.R.                                  :LUGAR DE LA UNIDAD
R1.              POZA RICA                             :Remarks 1
R2.                                                    :Remarks 2
R3.                                                    :Remarks 3
R4.      TRACK1    DIAMETRO DE AGUJERO                 :Remarks 4
R5.                      CALI                          :Remarks 5
R6.                       IN                           :Remarks 6
R7.               6"_______________16"                 :Remarks 7
R8.                                                    :Remarks 8
R9.                   RESISTIVIDAD                     :Remarks 9
R10.                                                   :Remarks 10
R11.                   MINV 1"X1"                      :Remarks 11
R12.                   OHMS.M2/M                       :Remarks 12
R13.              10_______________0                   :Remarks 13
R14.                                                   :Remarks 14
R15.                    MNOR 2"                        :Remarks 15
R16.                   OHMS.M2/M                       :Remarks 16
R17.              10_______________0                   :Remarks 17
R18.                                                   :Remarks 18
R19.  TRACK2          RESISTIVIDAD                     :Remarks 19
R20.                      MLL                          :Remarks 20
R21.                   OHMS-M2/M                       :Remarks 21
R22.             0.2_______________2000                :Remarks 22
R23.                                                   :Remarks 23
R24.                                                   :Remarks 24
R25. RM  A T.F.= 1.0 A 70 DEGC                         :Remarks 25
R26. RMF A T.F.= 0.75 A 70 DEGC                        :Remarks 26
R27. RMC A T.F.= 1.0 A 70 DEGC                         :Remarks 27
R28.                                                   :Remarks 28
R29.                                                   :Remarks 29
R30.                                                   :Remarks 30
~Curve Information Block
#MNEM.UNIT       API Code            Curve    Description
#--------        --------------      -----    -------------------
DEPT  .M                             :0       Index
CALI  .IN                            :1       Caliper                       
MINV  .OHMM                          :2       Micro Inverse Resistivity     
MLL   .OHMM                          :3       Microlaterolog Resistivity    
MNOR  .OHMM                          :4       Micro Normal Resistivity      
~Ascii Data Section
# ...
   1064.5664      11.4273       2.9802       3.4284       2.6040
   1064.7188      11.4206       2.7624       3.4274       2.5446
   1064.8712      11.3738       2.8218       3.2168       2.3267
   1065.0236      11.3292       2.0891       2.6525       1.9280
   1065.1760      11.3095       2.1683       2.5335       1.9086
   1065.3284      11.3075       2.3055       2.7740       2.0101
   1065.4808      11.3265       2.3857       2.7546       2.1301
   1065.6332      11.3139       2.4441       2.6514       2.0471
   1065.7856      11.2885       2.1881       2.6770       1.9681
   1065.9380      11.2854       2.2079       2.7266       1.9505
   1066.0905      11.3071       2.3663       2.6770       2.0505
   1066.2428      11.2721       2.3069       2.7509       1.9344
   1066.3951      11.2488       2.1089       2.4191       1.7564
   1066.5476      11.2490       2.0134       2.4660       1.7921
   1066.7000      11.2486       2.0905       2.5593       1.7327
   1066.8524      11.2641       2.0500       2.5325       1.8317
   1067.0048      11.2673       2.2063       2.5805       1.8713
   1067.1572      11.2571       2.1226       2.6043       1.8713
   1067.3096      11.2488       2.1076       2.7266       1.9307
   1067.4620      11.2490       2.2292       2.8028       2.1089
   1067.6144      11.2490       2.3861       2.9077       2.0495
   1067.7668      11.2490       2.1683       2.7518       1.9307
   1067.9192      11.2490       2.0891       2.7518       1.8515
   1068.0717      11.2490       2.2277       2.8811       2.0099
   1068.2240      11.2490       2.0330       2.6770       1.8115
   1068.3763      11.2490       2.2361       2.7518       1.8145
   1068.5288      11.2490       2.3267       2.8547       1.9109
   1068.6812      11.2487       2.2475       2.8028       1.9505
   1068.8336      11.2539       2.1287       2.7505       1.8713
   1068.9860      11.2697       2.2871       2.7769       1.7921
   1069.1384      11.2640       2.0495       2.7258       1.7921
   1069.2908      11.2486       2.1881       2.7509       1.8731
   1069.4432      11.2490       2.4257       3.0456       2.0710
   1069.5956      11.2490       2.3069       3.2250       2.1523
   1069.7480      11.2490       2.6040       3.2994       2.0146
   1069.9004      11.2491       2.0297       2.7425       1.8505
   1070.0529      11.2482       1.9505       2.7266       1.7519
   1070.2052      11.2283       2.0297       2.9615       1.7730
   1070.3575      11.2510       2.1683       2.7772       1.9293
   1070.5100      11.2703       2.3267       2.7024       1.9901
   1070.6624      11.2883       2.2681       2.7002       1.9505
   1070.8148      11.2692       2.3259       2.9043       2.0495
   1070.9672      11.2485       2.5653       3.0164       2.1307
   1071.1196      11.2681       2.4289       3.0723       2.0684
   1071.2720      11.2689       2.3267       3.0164       2.0693
   1071.4244      11.2702       2.5446       3.1293       2.1683
   1071.5768      11.2494       2.4059       3.2763       2.1485
   1071.7292      11.2536       2.4455       3.2167       2.0693
   1071.8816      11.2698       2.2475       2.9889       1.9901
   1072.0341      11.2936       2.1485       3.1293       2.0099
   1072.1864      11.3284       2.4257       3.2167       2.1089
   1072.3387      11.3555       2.2277       3.0723       1.9901
   1072.4912      11.3907       2.3069       3.1582       2.1287
   1072.6436      11.4080       2.2277       3.3371       1.9703
   1072.7960      11.4284       2.4851       3.6246       2.1089
   1072.9484      11.4487       2.3861       3.7949       2.1701
   1073.1008      11.4623       2.6832       3.9368       2.2325
   1073.2532      11.4484       2.7426       4.0468       2.3114
   1073.4056      11.4737       2.3663       3.3678       2.1312
   1073.5580      11.4679       2.3267       3.1293       2.1710
   1073.7104      11.4277       2.4455       3.3371       2.2292
   1073.8628      11.4270       2.2475       3.1007       2.0710
   1074.0153      11.4673       2.3069       3.1007       2.0891
   1074.1676      11.4342       2.4455       3.3678       2.2475
   1074.3199      11.4262       2.5446       3.3678       2.3267
   1074.4724      11.4626       2.3880       3.3065       2.2473
   1074.6248      11.4684       2.2907       3.3371       2.1913
   1074.7772      11.4687       2.4653       3.1007       2.2686
   1074.9296      11.5028       2.5842       3.0443       2.3454
   1075.0820      11.5007       2.5050       3.1293       2.2862
   1075.2344      11.4674       2.6957       3.0999       2.3250
   1075.3868      11.4643       2.4052       3.1258       2.3234
   1075.5392      11.4666       2.6634       3.2127       2.3067
   1075.6917      11.5026       2.5248       3.1027       2.3684
   1075.8440      11.4949       2.4851       3.0431       2.2867
   1075.9965      11.4670       2.7034       3.0723       2.3861
   1076.1488      11.4880       2.5276       3.0443       2.4455
   1076.3011      11.4722       2.5261       3.0164       2.2871
   1076.4536      11.4480       2.4851       2.9615       2.1287
   1076.6060      11.4289       2.2277       3.0164       2.0693
   1076.7584      11.4286       2.3267       3.0407       2.1683
   1076.9108      11.4503       2.6040       3.1035       2.2277
   1077.0632      11.4691       2.6436       3.1009       2.3069
   1077.2156      11.4318       2.3861       2.9077       2.2286
   1077.3680      11.4279       2.4851       2.9345       2.2308
   1077.5204      11.4331       2.6040       2.8547       2.2277
   1077.6729      11.4501       2.2874       2.7772       2.1485
   1077.8252      11.3800       2.3926       2.8286       2.1287
   1077.9775      11.3124       2.6238       2.8811       2.2475
   1078.1300      11.2998       2.6238       2.8547       2.3465
   1078.2823      11.2902       2.4455       2.7266       2.2673
   1078.4348      11.2695       2.4653       2.7772       2.0891
   1078.5872      11.2688       2.2079       2.7017       2.0099
   1078.7396      11.2689       2.5090       2.7017       2.1089
   1078.8920      11.2686       2.4690       2.5569       2.1089
   1079.0444      11.2740       2.4437       2.6770       2.0891
   1079.1968      11.2792       2.5644       2.8495       2.1683
   1079.3492      11.2688       2.3465       2.7979       2.0495
   1079.5016      11.2682       2.1485       2.7062       1.9703
   1079.6541      11.2482       2.3861       2.8028       1.9307
   1079.8064      11.2710       1.9505       2.4874       1.7921
   1079.9587      11.2895       1.9896       2.5335       1.7327
   1080.1112      11.2673       1.8891       2.5569       1.7723
   1080.2635      11.2694       2.0256       2.4198       1.8119
   1080.4160      11.2674       2.0683       2.5568       1.8119
   1080.5684      11.2741       2.0096       2.5310       1.8317
   1080.7208      11.2434       2.0893       2.6525       1.8911
   1080.8732      11.2508       2.0290       2.7017       1.9109
   1081.0256      11.2697       2.1493       2.7266       1.8119
   1081.1780      11.2524       2.1683       2.7772       1.9047
   1081.3304      11.2703       2.5248       2.9441       2.1661
   1081.4828      11.2685       2.3069       2.9623       2.2475
   1081.6353      11.2698       2.4851       2.8806       2.1683
   1081.7876      11.2889       2.3465       3.0418       2.1683
   1081.9399      11.3079       2.4059       3.1284       2.2280
   1082.0924      11.2988       2.2871       3.0388       2.1678
   1082.2448      11.2890       2.4653       3.2827       2.1090
   1082.3972      11.2884       2.5446       3.4938       2.2871
   1082.5496      11.3039       3.0396       3.2167       2.4653
   1082.7020      11.3091       2.2079       2.9889       2.2079
   1082.8544      11.3088       2.5050       3.1293       2.2277
   1083.0068      11.3080       2.3663       3.0414       2.3069
   1083.1592      11.2909       2.4111       3.1294       2.2280
   1083.3116      11.2697       2.5478       3.0394       2.3060
