~Version Information
VERS  .          2.0                                   :CWLS Log Ascii Standard - Version 2.0
WRAP  .          NO                                    :One line per depth step
~Well Information Block
#MNEM.UNIT       Data Type                             Information
#---------       ---------                             -------------------------------
STRT  .M         800.0000                              :PROFUNDIDAD INICIAL
STOP  .M         1845.0000                             :PROFUNDIDAD FINAL
STEP  .M         0.1524                                :INCREMENTO
NULL  .          -999.2500                             :VALOR NULO 
COMP  .          PETROLEOS MEXICANOS                   :COMPANIA
WELL  .          ABEDUL-1                              :NOMBRE DEL POZO 
FLD   .          ABEDUL                                :CAMPO 
STAT  .          VERACRUZ                              :ESTADO
CNTY  .          COATZINTLA                            :MUNICIPIO
CTRY  .          MEXICO                                :PAIS
DATE  .          04-MAR-79                             :FECHA
UWI   .          1030022740                            :VALOR UNICO DEL POZO
SRVC  .          PEMEX                                 :COMPANIA DE SERVICIOS
~Parameter Information Block
#MNEM.UNIT       Value                                 Description
#---------       ---------                             -------------
FL.              X=                                    :LOCALIZACION DEL CAMPO
FL1.             Y=                                    :LOCALIZACION DEL CAMPO
PDAT.            NIVEL DEL TERRENO                     :DATO PERMANENTE
EPD.M            135.10                                :ELEVACION DEL DATO PERMANENTE
APD.M            4.18                                  :DIFERENCIA ENTRE MR Y NIVEL DE TERRENO
EKB.M            139.58                                :ELEVACION DEL KELLY BUSHING
EDF.M            139.28                                :ELEVACION DE LA MESA ROTARIA
EGL.M            135.10                                :ELEVACION DEL TERRENO
ELZ.M            139.28                                :ELEVACION DEL CERO DE REFERENCIA
LMF.             MESA ROTARIA                          :REGISTRO MEDIDO DESDE
DMF.             MESA ROTARIA                          :PROFUNDIDAD MEDIDA DESDE
SECT.            DISTRITO POZA RICA                    :NOMBRE DEL SECTOR
CN.              PETROLEOS MEXICANOS                   :NOMBRE DE LA COMPANIA
LATI.            Y=78,766.87 M.                        :LATITUD
LONG.            X=119,309.85 M.                       :LONGITUD
NATI.            MEXICO                                :NACION
RANG.            ZONA NORTE                            :NOMBRE DE LA ZONA
SLAB.            ESTADO                                :ESTADO 
STAT.            VERACRUZ                              :NOMBRE DEL ESTADO
CLAB.            MUNICIPIO                             :ETIQUETA DEL MUNICIPIO
COUN.            COATZINTLA                            :NOMBRE DEL MUNICIPIO
SRVC.            REGISTRO  MLL  1:500                  :NOMBRE DEL SERVICIO
DATE.            04-MAR-79                             :FECHA DEL SERVICIO
BLI.M            1845.0000                             :PRIMERA LECTURA
TLI.M            800.0000                              :ULTIMA LECTURA
QCEN.            ELVIS LUNA GARCIA                     :NOMBRE DEL INGENIERO DEL CONTROL DE CALIDAD DEL REGISTRO
DLQC.            02-APR-2009                           :FECHA DEL CONTROL DE CALIDAD DEL REGISTRO
CBL1.M           291.0                                 :ZAPATA SCHLUMBERGER
CBD1.M           300.0                                 :ZAPATA PERFORACION
TDL.M            1845.0                                :PROFUNDIDAD REGISTRO
TDD.M            1851.0                                :PROFUNDIDAD PERFORADOR
DFT.             SODICO                                :TIPO DE LODO
DFD.G/C3         1.25                                  :DENSIDAD DE LODO
DFV.S            45                                    :VISCOSIDAD DEL LODO
DFPH.            8.6                                   :PH DEL LODO
DFL.C3           N.R.                                  :PERDIDA DE LODO
MSS.             PRESA                                 :FUENTE DE LA MUESTRA DE LODO
RMS.ohm.m        1.8                                   :RESISTIVIDAD DE LODO
MST.DEGC         29                                    :TEMPERATURA DE LA MUESTRA DE LODO
MFSS.            PRENSA                                :FUENTE DEL FILTRADO DE LODO
RMFS.ohm.m       N.R.                                  :RESISTIVIDAD DEL FILTRADO
MFST.DEGC        N.R.                                  :TEMPERATURA DEL FILTRADO
MCSS.            PRENSA                                :FUENTE DEL ENJARRE DE LODO
RMCS.ohm.m       N.R.                                  :RESISTIVIDAD DEL ENJARRE DE LODO
MCST.DEGC        N.R.                                  :TEMPERATURA DEL ENJARRE
BSAL.PPM         N.R.                                  :SALINIDAD DEL LODO
TCS.             N.R.                                  :HORA EN QUE PARO CIRCULACION
STEM.DEGC        N.R.                                  :TEMPERATURA DE SUPERFICIE
BHT.DEGC         70                                    :TEMPERATURA DE FONDO
MRT.DEGC         70                                    :MAXIMA TEMPERATURA REGISTRADA
BS.IN            8.5                                   :DIAMETRO DE BARRENA
CSIZ.IN          9.625                                 :DIAMETRO DE T.R.
CWEI.lbm/ft      N.R.                                  :PESO DE LA T.R.
CTD1.M           300.0                                 :FONDO DE LA T.R. DEL PERFORADOR
CTL1.M           291.0                                 :FONDO DE LA T.R. DEL REGISTRO
ENGI.            DANIEL ORDONEZ                        :NOMBRE DEL INGENIERO
WITN.            RAFAEL SANDOVAL C.                    :NOMBRE DEL TESTIGO
LUN.             8-A                                   :NUMERO DE LA UNIDAD
RUN.             UNO                                   :NUMERO DE LA CORRIDA
OS1.             N.R.                                  :SERVICIOS
HIDE.            REGISTRO MICROLOG-MICROLATEROLOG      :NOMBRE DEL SERVICIO
HID1.            1:500                                 :NOMBRE DEL SERVICIO
LUL.             N.R.                                  :LUGAR DE LA UNIDAD
R1.              POZA RICA                             :Remarks 1
R2.                                                    :Remarks 2
R3.                                                    :Remarks 3
R4.      TRACK1    DIAMETRO DE AGUJERO                 :Remarks 4
R5.                      CALI                          :Remarks 5
R6.                       IN                           :Remarks 6
R7.               6"_______________16"                 :Remarks 7
R8.                                                    :Remarks 8
R9.                   RESISTIVIDAD                     :Remarks 9
R10.                                                   :Remarks 10
R11.                   MINV 1"X1"                      :Remarks 11
R12.                   OHMS.M2/M                       :Remarks 12
R13.              10_______________0                   :Remarks 13
R14.                                                   :Remarks 14
R15.                    MNOR 2"                        :Remarks 15
R16.                   OHMS.M2/M                       :Remarks 16
R17.              10_______________0                   :Remarks 17
R18.                                                   :Remarks 18
R19.  TRACK2          RESISTIVIDAD                     :Remarks 19
R20.                      MLL                          :Remarks 20
R21.                   OHMS-M2/M                       :Remarks 21
R22.             0.2_______________2000                :Remarks 22
R23.                                                   :Remarks 23
R24.                                                   :Remarks 24
R25. RM  A T.F.= 1.0 A 70 DEGC                         :Remarks 25
R26. RMF A T.F.= 0.75 A 70 DEGC                        :Remarks 26
R27. RMC A T.F.= 1.0 A 70 DEGC                         :Remarks 27
R28.                                                   :Remarks 28
R29.                                                   :Remarks 29
R30.                                                   :Remarks 30
~Curve Information Block
#MNEM.UNIT       API Code            Curve    Description
#--------        --------------      -----    -------------------
DEPT  .M                             :0       Index
CALI  .IN                            :1       Caliper                       
MINV  .OHMM                          :2       Micro Inverse Resistivity     
MLL   .OHMM                          :3       Microlaterolog Resistivity    
MNOR  .OHMM                          :4       Micro Normal Resistivity      
~Ascii Data Section
# ...
   1688.1873      10.0075       1.9092       2.9323       2.3065
   1688.3396      10.0585       2.0108       2.8495       2.3086
   1688.4919      10.1989       2.0891       3.0967       2.3094
   1688.6444      10.3484       1.9307       3.1007       2.3064
   1688.7968      10.4835       1.7723       3.0443       2.2074
   1688.9492      10.5309       2.0891       2.1873       2.2673
   1689.1016      10.5535       2.0297       2.3541       2.4257
   1689.2540      10.6159       1.8911       2.1279       2.3267
   1689.4064      10.6313       1.7737       1.9766       2.2079
   1689.5588      10.6177       1.9619       2.1490       2.2682
   1689.7112      10.6430       1.8236       2.1084       2.2860
   1689.8636      10.6763       2.3850       2.2484       2.4455
   1690.0160      10.6665       2.3232       2.5335       2.4851
   1690.1685      10.5385       1.7408       2.7806       2.2871
   1690.3208      10.4137       1.7409       2.5083       2.4455
   1690.4731      10.4115       2.3756       3.1007       2.5842
   1690.6256      10.3927       1.9901       2.7772       2.3861
   1690.7780      10.2963       2.6040       2.8811       2.7228
   1690.9304      10.1950       2.0297       2.3758       2.5248
   1691.0828      10.0851       2.7822       2.9331       2.8812
   1691.2352      10.0325       2.5050       2.6503       2.6040
   1691.3876      10.2076       3.5941       3.0443       3.5565
   1691.5400      10.3955       1.9307       3.9732       2.1128
   1691.6924      10.3862       1.8515       3.4938       1.9558
   1691.8448      10.1225       2.3861       3.7602       2.5842
   1691.9972       9.7751       2.8416       2.7017       2.5842
   1692.1497       9.7578       2.8218       3.9732       2.4455
   1692.3020       9.8344       2.5050       2.7266       2.2475
   1692.4543       9.7152       2.2475       2.4198       2.3663
   1692.6068       9.7606       2.5446       2.6770       2.3045
   1692.7592       9.9280       2.5248       2.8811       2.5059
   1692.9116      10.1085       2.9802       3.1293       2.9269
   1693.0640      10.3754       2.0297       2.7266       1.8551
   1693.2164      10.2396       2.2673       2.9345       1.9720
   1693.3688       9.9873       2.5842       4.1982       2.3663
   1693.5212       9.8109       2.3861       4.0841       2.1287
   1693.6736       9.8358       3.0594       4.7305       2.5644
   1693.8260       9.9731       1.8911       4.6020       2.3663
   1693.9784      10.0285       1.9703       2.7266       2.2475
   1694.1309       9.9528       1.7921       3.1990       2.5446
   1694.2832       9.9520       2.2079       3.5921       2.3069
   1694.4355      10.0332       1.8713       2.7772       2.4851
   1694.5880      10.0038       2.0301       2.8028       2.2673
   1694.7404       9.8880       1.9307       2.7266       2.5842
   1694.8928       9.8882       2.2623       2.6283       2.6898
   1695.0452      10.0412       2.0866       3.0128       2.4518
   1695.1976      10.2704       1.9079       2.8279       2.4903
   1695.3500      10.4162       2.0891       3.0026       2.5446
   1695.5024      10.3502       1.9703       2.7772       2.2673
   1695.6548      10.4185       1.6931       2.8547       2.4059
   1695.8073      10.3764       1.7921       3.0443       2.3069
   1695.9596      10.3779       1.9703       3.5586       2.3861
   1696.1121      10.5618       1.7859       3.1293       2.3663
   1696.2644      10.6533       1.7266       2.6770       2.3248
   1696.4167      10.4868       2.0281       2.9345       2.2475
   1696.5692      10.4325       2.4257       2.6996       2.6436
   1696.7216      10.4186       2.0693       2.5164       2.8020
   1696.8740      10.1984       2.3861       2.0927       2.6832
   1697.0264      10.0157       2.2277       2.6718       2.5050
   1697.1788       9.9519       2.0495       3.4938       2.4059
   1697.3312      10.0048       2.3663       3.1582       2.5228
   1697.4836      10.1111       2.1485       2.8286       2.6533
   1697.6360      10.3323       1.8515       2.4647       2.5050
   1697.7885      10.6534       1.9901       2.6043       2.4653
   1697.9408      10.9244       1.9109       2.6525       2.5644
   1698.0931      10.9343       2.0099       2.4472       2.2079
   1698.2456      10.6780       1.8317       2.5750       2.2871
   1698.3979      10.4578       2.0153       2.9353       2.3267
   1698.5504      10.4293       2.0282       3.0723       2.1485
   1698.7028      10.5618       1.9075       2.7266       2.2673
   1698.8552      10.7203       1.8317       3.1007       2.3069
   1699.0076      10.8065       1.6733       2.8286       2.1881
   1699.1600      10.7651       1.5743       3.1582       2.0495
   1699.3124      10.6697       1.8515       2.5335       2.1652
   1699.4648      10.7368       2.1683       2.6525       2.3456
   1699.6172      10.7314       2.0891       2.8028       2.2871
   1699.7697      10.6319       2.2277       2.4198       2.5644
   1699.9220      10.7593       1.7921       2.5805       2.4851
   1700.0743      10.8688       1.9109       2.8028       2.2475
   1700.2268      10.7365       2.1287       2.3325       2.2673
   1700.3792      10.5393       1.7921       2.9615       2.3861
   1700.5316      10.3681       1.9505       2.8286       2.4257
   1700.6840      10.3691       2.1287       3.1007       2.2277
   1700.8364      10.5057       1.9307       2.4553       2.3861
   1700.9888      10.3786       2.1485       3.0171       2.2475
   1701.1412      10.2036       2.7030       3.4938       2.6634
   1701.2936      10.3206       1.9109       2.3541       2.7624
   1701.4460      10.4262       2.0891       2.8028       2.4455
   1701.5984      10.4379       2.0135       2.7518       2.5842
   1701.7509      10.3681       2.4438       4.3553       2.5050
   1701.9032      10.4977       1.8095       3.1234       2.6238
   1702.0555      10.5290       1.7525       3.1902       2.2475
   1702.2080      10.3946       2.1485       2.7732       2.3861
   1702.3604      10.0824       1.9703       3.0164       2.3054
   1702.5128      10.1738       2.3267       3.2763       2.7631
   1702.6652      10.3906       1.8911       4.2760       2.5217
   1702.8176      10.6085       1.6139       3.6246       1.9307
   1702.9700      10.7287       1.6139       2.9077       2.0693
   1703.1224      10.5135       2.3069       2.8028       2.4301
   1703.2748      10.4691       2.1089       3.0443       2.3420
   1703.4272      10.3515       1.8515       3.2464       2.1659
   1703.5796      10.3865       2.4257       2.3977       2.6238
   1703.7321      10.4553       2.2871       2.7266       2.5050
   1703.8844      10.4341       2.4455       3.3989       2.6040
   1704.0367      10.6329       1.8119       2.3977       2.2079
   1704.1892      10.7522       1.8317       2.4647       1.9109
   1704.3416      11.0443       1.5743       2.1323       1.7726
   1704.4940      10.9731       1.5545       2.2525       1.8527
   1704.6464      10.8216       2.5446       2.5882       2.2316
   1704.7988      10.7839       2.3465       2.3869       2.6238
   1704.9512      10.9334       1.7723       2.3319       2.0693
   1705.1036      10.7376       1.8911       2.5317       2.1287
   1705.2560      10.6245       1.7921       2.4857       2.0248
   1705.4084      10.5957       1.9901       2.5759       2.2717
   1705.5608      10.3393       1.7723       2.7772       2.1118
   1705.7133       9.9213       2.3069       2.6043       2.4855
   1705.8656       9.9571       1.9109       2.8811       2.3033
   1706.0179      10.1283       2.5050       2.3977       2.4653
   1706.1704      10.2523       1.8515       2.8028       2.1881
   1706.3228      10.3125       2.0693       3.2464       2.5644
   1706.4752      10.2982       2.0297       3.4619       2.3465
   1706.6276      10.1711       1.6931       3.0723       2.1089
   1706.7800      10.1425       2.3465       2.8351       2.5636
   1706.9324      10.5831       2.0495       3.0369       2.4037
