~Version Information
VERS  .          2.0                                   :CWLS Log Ascii Standard - Version 2.0
WRAP  .          NO                                    :One line per depth step
~Well Information Block
#MNEM.UNIT       Data Type                             Information
#---------       ---------                             -------------------------------
STRT  .M         800.0000                              :PROFUNDIDAD INICIAL
STOP  .M         1845.0000                             :PROFUNDIDAD FINAL
STEP  .M         0.1524                                :INCREMENTO
NULL  .          -999.2500                             :VALOR NULO 
COMP  .          PETROLEOS MEXICANOS                   :COMPANIA
WELL  .          ABEDUL-1                              :NOMBRE DEL POZO 
FLD   .          ABEDUL                                :CAMPO 
STAT  .          VERACRUZ                              :ESTADO
CNTY  .          COATZINTLA                            :MUNICIPIO
CTRY  .          MEXICO                                :PAIS
DATE  .          04-MAR-79                             :FECHA
UWI   .          1030022740                            :VALOR UNICO DEL POZO
SRVC  .          PEMEX                                 :COMPANIA DE SERVICIOS
~Parameter Information Block
#MNEM.UNIT       Value                                 Description
#---------       ---------                             -------------
FL.              X=                                    :LOCALIZACION DEL CAMPO
FL1.             Y=                                    :LOCALIZACION DEL CAMPO
PDAT.            NIVEL DEL TERRENO                     :DATO PERMANENTE
EPD.M            135.10                                :ELEVACION DEL DATO PERMANENTE
APD.M            4.18                                  :DIFERENCIA ENTRE MR Y NIVEL DE TERRENO
EKB.M            139.58                                :ELEVACION DEL KELLY BUSHING
EDF.M            139.28                                :ELEVACION DE LA MESA ROTARIA
EGL.M            135.10                                :ELEVACION DEL TERRENO
ELZ.M            139.28                                :ELEVACION DEL CERO DE REFERENCIA
LMF.             MESA ROTARIA                          :REGISTRO MEDIDO DESDE
DMF.             MESA ROTARIA                          :PROFUNDIDAD MEDIDA DESDE
SECT.            DISTRITO POZA RICA                    :NOMBRE DEL SECTOR
CN.              PETROLEOS MEXICANOS                   :NOMBRE DE LA COMPANIA
LATI.            Y=78,766.87 M.                        :LATITUD
LONG.            X=119,309.85 M.                       :LONGITUD
NATI.            MEXICO                                :NACION
RANG.            ZONA NORTE                            :NOMBRE DE LA ZONA
SLAB.            ESTADO                                :ESTADO 
STAT.            VERACRUZ                              :NOMBRE DEL ESTADO
CLAB.            MUNICIPIO                             :ETIQUETA DEL MUNICIPIO
COUN.            COATZINTLA                            :NOMBRE DEL MUNICIPIO
SRVC.            REGISTRO  MLL  1:500                  :NOMBRE DEL SERVICIO
DATE.            04-MAR-79                             :FECHA DEL SERVICIO
BLI.M            1845.0000                             :PRIMERA LECTURA
TLI.M            800.0000                              :ULTIMA LECTURA
QCEN.            ELVIS LUNA GARCIA                     :NOMBRE DEL INGENIERO DEL CONTROL DE CALIDAD DEL REGISTRO
DLQC.            02-APR-2009                           :FECHA DEL CONTROL DE CALIDAD DEL REGISTRO
CBL1.M           291.0                                 :ZAPATA SCHLUMBERGER
CBD1.M           300.0                                 :ZAPATA PERFORACION
TDL.M            1845.0                                :PROFUNDIDAD REGISTRO
TDD.M            1851.0                                :PROFUNDIDAD PERFORADOR
DFT.             SODICO                                :TIPO DE LODO
DFD.G/C3         1.25                                  :DENSIDAD DE LODO
DFV.S            45                                    :VISCOSIDAD DEL LODO
DFPH.            8.6                                   :PH DEL LODO
DFL.C3           N.R.                                  :PERDIDA DE LODO
MSS.             PRESA                                 :FUENTE DE LA MUESTRA DE LODO
RMS.ohm.m        1.8                                   :RESISTIVIDAD DE LODO
MST.DEGC         29                                    :TEMPERATURA DE LA MUESTRA DE LODO
MFSS.            PRENSA                                :FUENTE DEL FILTRADO DE LODO
RMFS.ohm.m       N.R.                                  :RESISTIVIDAD DEL FILTRADO
MFST.DEGC        N.R.                                  :TEMPERATURA DEL FILTRADO
MCSS.            PRENSA                                :FUENTE DEL ENJARRE DE LODO
RMCS.ohm.m       N.R.                                  :RESISTIVIDAD DEL ENJARRE DE LODO
MCST.DEGC        N.R.                                  :TEMPERATURA DEL ENJARRE
BSAL.PPM         N.R.                                  :SALINIDAD DEL LODO
TCS.             N.R.                                  :HORA EN QUE PARO CIRCULACION
STEM.DEGC        N.R.                                  :TEMPERATURA DE SUPERFICIE
BHT.DEGC         70                                    :TEMPERATURA DE FONDO
MRT.DEGC         70                                    :MAXIMA TEMPERATURA REGISTRADA
BS.IN            8.5                                   :DIAMETRO DE BARRENA
CSIZ.IN          9.625                                 :DIAMETRO DE T.R.
CWEI.lbm/ft      N.R.                                  :PESO DE LA T.R.
CTD1.M           300.0                                 :FONDO DE LA T.R. DEL PERFORADOR
CTL1.M           291.0                                 :FONDO DE LA T.R. DEL REGISTRO
ENGI.            DANIEL ORDONEZ                        :NOMBRE DEL INGENIERO
WITN.            RAFAEL SANDOVAL C.                    :NOMBRE DEL TESTIGO
LUN.             8-A                                   :NUMERO DE LA UNIDAD
RUN.             UNO                                   :NUMERO DE LA CORRIDA
OS1.             N.R.                                  :SERVICIOS
HIDE.            REGISTRO MICROLOG-MICROLATEROLOG      :NOMBRE DEL SERVICIO
HID1.            1:500                                 :NOMBRE DEL SERVICIO
LUL.             N.R.                                  :LUGAR DE LA UNIDAD
R1.              POZA RICA                             :Remarks 1
R2.                                                    :Remarks 2
R3.                                                    :Remarks 3
R4.      TRACK1    DIAMETRO DE AGUJERO                 :Remarks 4
R5.                      CALI                          :Remarks 5
R6.                       IN                           :Remarks 6
R7.               6"_______________16"                 :Remarks 7
R8.                                                    :Remarks 8
R9.                   RESISTIVIDAD                     :Remarks 9
R10.                                                   :Remarks 10
R11.                   MINV 1"X1"                      :Remarks 11
R12.                   OHMS.M2/M                       :Remarks 12
R13.              10_______________0                   :Remarks 13
R14.                                                   :Remarks 14
R15.                    MNOR 2"                        :Remarks 15
R16.                   OHMS.M2/M                       :Remarks 16
R17.              10_______________0                   :Remarks 17
R18.                                                   :Remarks 18
R19.  TRACK2          RESISTIVIDAD                     :Remarks 19
R20.                      MLL                          :Remarks 20
R21.                   OHMS-M2/M                       :Remarks 21
R22.             0.2_______________2000                :Remarks 22
R23.                                                   :Remarks 23
R24.                                                   :Remarks 24
R25. RM  A T.F.= 1.0 A 70 DEGC                         :Remarks 25
R26. RMF A T.F.= 0.75 A 70 DEGC                        :Remarks 26
R27. RMC A T.F.= 1.0 A 70 DEGC                         :Remarks 27
R28.                                                   :Remarks 28
R29.                                                   :Remarks 29
R30.                                                   :Remarks 30
~Curve Information Block
#MNEM.UNIT       API Code            Curve    Description
#--------        --------------      -----    -------------------
DEPT  .M                             :0       Index
CALI  .IN                            :1       Caliper                       
MINV  .OHMM                          :2       Micro Inverse Resistivity     
MLL   .OHMM                          :3       Microlaterolog Resistivity    
MNOR  .OHMM                          :4       Micro Normal Resistivity      
~Ascii Data Section
# ...
   1348.0304       9.6159       4.1089       5.6842       3.1629
   1348.1827       9.5749       3.6535       7.4186       4.3109
   1348.3352       9.5135       8.7122      11.8498       6.5992
   1348.4875       9.5325      10.0495       6.0062       9.4950
   1348.6400       9.5562       3.8713       5.6842       3.0594
   1348.7924       9.5338       3.8317       6.5236       3.2970
   1348.9448       9.5171      10.0693       9.0794       7.3168
   1349.0972       9.5582       4.0891       6.0062       5.0376
   1349.2496       9.5172       5.5910       7.6962       3.3960
   1349.4020       9.4920       4.2277       5.8969       3.9703
   1349.5544       9.4767       9.4308      31.1284       6.4423
   1349.7068       9.4809      10.2277       6.3923       7.7921
   1349.8593       9.5371       3.7723       5.9887       5.3762
   1350.0116       9.5220       6.0772       9.0589       6.5882
   1350.1639       9.4961      10.1287     136.3106       9.1573
   1350.3164       9.5099      10.1881      73.4033      10.0640
   1350.4688       9.5698      10.1881      18.1641      10.0495
   1350.6212       9.6503       6.2463       5.2970       3.0990
   1350.7736       9.6307       3.1980       4.3106       2.8614
   1350.9260       9.5706       5.4140       8.8327       4.0695
   1351.0784       9.5146       6.9010       7.4031       5.3489
   1351.2308       9.5189       7.0792       5.3089       3.9678
   1351.3832       9.6000       3.7327       4.3955       2.8812
   1351.5356       9.5682       5.6591       7.9408       4.1704
   1351.6880       9.5616      10.1485      11.5278       5.6733
   1351.8405       9.5831       4.6634       5.3795       4.5221
   1351.9928       9.5327       3.7129       5.6322       3.1188
   1352.1451       9.5646       5.4667       8.2833       4.5037
   1352.2976       9.5762      10.2079      11.4225       6.1089
   1352.4500       9.5787       3.4950       4.6668       3.0000
   1352.6024       9.5825       8.3548      11.1121       7.3960
   1352.7548       9.5964      10.1485       6.2884       6.0119
   1352.9072       9.5550       4.3895       9.6671       3.7525
   1353.0596       9.5551       9.6138      25.3933       9.7901
   1353.2120       9.6001      10.2673       5.8969       7.0888
   1353.3644       9.6200       3.7525       6.8967       3.2218
   1353.5168       9.6206       7.6337       8.3683       4.8245
   1353.6692       9.6214       3.4752       5.2413       3.1782
   1353.8217       9.5395       3.9703       8.3787       4.0524
   1353.9740       9.5171       9.6764       5.2816       5.4554
   1354.1263       9.5370       3.7753       6.4817       3.1386
   1354.2788       9.5362       5.7525       8.3592       3.9109
   1354.4312       9.5573       3.8713       5.3867       3.6050
   1354.5836       9.5545       4.3861       5.4259       2.7822
   1354.7360       9.5747       3.5116       5.6842       4.3300
   1354.8884       9.5504       6.2991       9.5229       7.3297
   1355.0408       9.4958      10.1573      42.0786       9.8119
   1355.1932       9.4820      10.2519      10.5612       9.9307
   1355.3456       9.5213       4.8740       5.2333       3.8119
   1355.4980       9.5555       3.4554       4.4360       3.2695
   1355.6504       9.5404       2.9010       5.2756       2.5776
   1355.8029       9.5227       4.2259       7.2923       3.5983
   1355.9552       9.5263       7.9111      17.8456       4.7064
   1356.1075       9.5244      10.2079      43.3586      10.0099
   1356.2600       9.4974       6.1485       8.9142       5.7743
   1356.4124       9.5160       4.0891       5.7896       3.9281
   1356.5648       9.5338       6.8711       9.7884       6.2004
   1356.7172       9.4984      10.2079      33.4472       9.5611
   1356.8696       9.5168      10.2079       5.1855       9.9703
   1357.0220       9.5264       3.6139       5.6322       3.0396
   1357.1744       9.5022       4.3861       7.0209       3.2574
   1357.3268       9.4796       4.3069       5.8430       3.9703
   1357.4792       9.5083       7.0125      18.7549       6.0700
   1357.6316       9.4999      10.2079      11.3181       9.2634
   1357.7841       9.4959      10.2079      42.8953      10.0891
   1357.9364       9.4960      10.2079      64.1964      10.0495
   1358.0887       9.4958      10.2079      89.9043      10.0297
   1358.2412       9.5236      10.2079     122.0880      10.0297
   1358.3936       9.5602      10.2079      38.2978      10.0297
   1358.5460       9.5866      10.2475       9.9527       9.9307
   1358.6984       9.5798       7.1782       6.7058       6.8218
   1358.8508       9.5558       9.5545       8.9964       4.7228
   1359.0032       9.5770       9.6139       5.2333       5.8515
   1359.1556       9.5888       3.4950       4.9528       3.0198
   1359.3080       9.5743       4.3909       7.5516       5.4679
   1359.4604       9.5727       7.5703      46.5997       9.3746
   1359.6128       9.5964      10.1485      45.9999      10.1683
   1359.7653       9.5551      10.1881      13.0477      10.1683
   1359.9176       9.5601      10.1881       7.0209      10.1485
   1360.0699       9.5727      10.1287       6.2884       8.6617
   1360.2224       9.6016       4.5883       5.1381       3.8713
   1360.3748       9.6173       5.2766       7.7853       3.2178
   1360.5272       9.5956       4.2709       7.7068       3.8911
   1360.6796       9.5754       6.1903      18.0277       5.9669
   1360.8320       9.5577       9.4457      52.4534       9.4017
   1360.9844       9.5379      10.3222      45.7039      10.1485
   1361.1368       9.5146      10.3069     113.4407      10.1683
   1361.2892       9.5409      10.3069      40.8148      10.1485
   1361.4417       9.6138       9.3156       7.2170       8.0435
   1361.5940       9.5882       4.4153      11.1121       4.2753
   1361.7465       9.5686      10.2336      13.2303       9.0761
   1361.8988       9.6548       3.1560       5.0911       6.0032
   1362.0511       9.6214       4.0082       5.1855       2.7670
   1362.2036       9.6003       3.6086       7.9841       4.0693
   1362.3560       9.5943       5.8317       5.8430       3.3366
   1362.5084       9.6379       4.0693       5.5808       3.9703
   1362.6608       9.6112       4.2079       8.0578       3.1396
   1362.8132       9.5947       6.8020       6.8388       4.0720
   1362.9656       9.6172       5.3116       4.9985       4.2871
   1363.1180       9.5956       3.7413       4.5505       3.1610
   1363.2704       9.5741       3.3762       5.6141       2.8218
   1363.4229       9.5801       6.5356       5.5297       3.8106
   1363.5752       9.6356       4.0284       5.8969       3.9808
   1363.7275       9.5795       4.9061       8.9094       3.4070
   1363.8800       9.5516       9.1122      57.3082       7.6470
   1364.0323       9.5349      10.3069      16.9859      10.0495
   1364.1848       9.5402      10.3069      18.2452      10.0693
   1364.3372       9.6167      10.2277       5.8430       8.3269
   1364.4896       9.6890       3.5941       5.9513       3.2970
   1364.6420       9.7614       3.9307       4.4769       2.4851
   1364.7944       9.7822       2.8812       6.2272       2.6238
   1364.9468       9.7333       6.1089       8.3592       2.5842
   1365.0992       9.7535       4.7126       4.9762       3.4554
   1365.2516       9.8568       3.2178       5.7366       2.8812
   1365.4041       9.8572       4.1683       4.5599       3.0792
   1365.5564       9.9350       3.3168       5.0911       2.4851
   1365.7087       9.9352       3.1188       4.3427       2.6436
   1365.8612       9.8820       2.7412       3.7258       2.2673
   1366.0135       9.7174       3.1976       4.6020       2.1683
   1366.1660       9.5719       3.7327       9.9314       2.5842
   1366.3184       9.4560       6.3267      69.7273       6.7714
   1366.4708       9.4167      10.1683      60.7513       9.9901
   1366.6232       9.4375      10.1881      48.2927       9.9901
   1366.7756       9.4362      10.1683      69.0899       9.9901
