~Version Information
VERS  .          2.0                                   :CWLS Log Ascii Standard - Version 2.0
WRAP  .          NO                                    :One line per depth step
~Well Information Block
#MNEM.UNIT       Data Type                             Information
#---------       ---------                             -------------------------------
STRT  .M         800.0000                              :PROFUNDIDAD INICIAL
STOP  .M         1845.0000                             :PROFUNDIDAD FINAL
STEP  .M         0.1524                                :INCREMENTO
NULL  .          -999.2500                             :VALOR NULO 
COMP  .          PETROLEOS MEXICANOS                   :COMPANIA
WELL  .          ABEDUL-1                              :NOMBRE DEL POZO 
FLD   .          ABEDUL                                :CAMPO 
STAT  .          VERACRUZ                              :ESTADO
CNTY  .          COATZINTLA                            :MUNICIPIO
CTRY  .          MEXICO                                :PAIS
DATE  .          04-MAR-79                             :FECHA
UWI   .          1030022740                            :VALOR UNICO DEL POZO
SRVC  .          PEMEX                                 :COMPANIA DE SERVICIOS
~Parameter Information Block
#MNEM.UNIT       Value                                 Description
#---------       ---------                             -------------
FL.              X=                                    :LOCALIZACION DEL CAMPO
FL1.             Y=                                    :LOCALIZACION DEL CAMPO
PDAT.            NIVEL DEL TERRENO                     :DATO PERMANENTE
EPD.M            135.10                                :ELEVACION DEL DATO PERMANENTE
APD.M            4.18                                  :DIFERENCIA ENTRE MR Y NIVEL DE TERRENO
EKB.M            139.58                                :ELEVACION DEL KELLY BUSHING
EDF.M            139.28                                :ELEVACION DE LA MESA ROTARIA
EGL.M            135.10                                :ELEVACION DEL TERRENO
ELZ.M            139.28                                :ELEVACION DEL CERO DE REFERENCIA
LMF.             MESA ROTARIA                          :REGISTRO MEDIDO DESDE
DMF.             MESA ROTARIA                          :PROFUNDIDAD MEDIDA DESDE
SECT.            DISTRITO POZA RICA                    :NOMBRE DEL SECTOR
CN.              PETROLEOS MEXICANOS                   :NOMBRE DE LA COMPANIA
LATI.            Y=78,766.87 M.                        :LATITUD
LONG.            X=119,309.85 M.                       :LONGITUD
NATI.            MEXICO                                :NACION
RANG.            ZONA NORTE                            :NOMBRE DE LA ZONA
SLAB.            ESTADO                                :ESTADO 
STAT.            VERACRUZ                              :NOMBRE DEL ESTADO
CLAB.            MUNICIPIO                             :ETIQUETA DEL MUNICIPIO
COUN.            COATZINTLA                            :NOMBRE DEL MUNICIPIO
SRVC.            REGISTRO  MLL  1:500                  :NOMBRE DEL SERVICIO
DATE.            04-MAR-79                             :FECHA DEL SERVICIO
BLI.M            1845.0000                             :PRIMERA LECTURA
TLI.M            800.0000                              :ULTIMA LECTURA
QCEN.            ELVIS LUNA GARCIA                     :NOMBRE DEL INGENIERO DEL CONTROL DE CALIDAD DEL REGISTRO
DLQC.            02-APR-2009                           :FECHA DEL CONTROL DE CALIDAD DEL REGISTRO
CBL1.M           291.0                                 :ZAPATA SCHLUMBERGER
CBD1.M           300.0                                 :ZAPATA PERFORACION
TDL.M            1845.0                                :PROFUNDIDAD REGISTRO
TDD.M            1851.0                                :PROFUNDIDAD PERFORADOR
DFT.             SODICO                                :TIPO DE LODO
DFD.G/C3         1.25                                  :DENSIDAD DE LODO
DFV.S            45                                    :VISCOSIDAD DEL LODO
DFPH.            8.6                                   :PH DEL LODO
DFL.C3           N.R.                                  :PERDIDA DE LODO
MSS.             PRESA                                 :FUENTE DE LA MUESTRA DE LODO
RMS.ohm.m        1.8                                   :RESISTIVIDAD DE LODO
MST.DEGC         29                                    :TEMPERATURA DE LA MUESTRA DE LODO
MFSS.            PRENSA                                :FUENTE DEL FILTRADO DE LODO
RMFS.ohm.m       N.R.                                  :RESISTIVIDAD DEL FILTRADO
MFST.DEGC        N.R.                                  :TEMPERATURA DEL FILTRADO
MCSS.            PRENSA                                :FUENTE DEL ENJARRE DE LODO
RMCS.ohm.m       N.R.                                  :RESISTIVIDAD DEL ENJARRE DE LODO
MCST.DEGC        N.R.                                  :TEMPERATURA DEL ENJARRE
BSAL.PPM         N.R.                                  :SALINIDAD DEL LODO
TCS.             N.R.                                  :HORA EN QUE PARO CIRCULACION
STEM.DEGC        N.R.                                  :TEMPERATURA DE SUPERFICIE
BHT.DEGC         70                                    :TEMPERATURA DE FONDO
MRT.DEGC         70                                    :MAXIMA TEMPERATURA REGISTRADA
BS.IN            8.5                                   :DIAMETRO DE BARRENA
CSIZ.IN          9.625                                 :DIAMETRO DE T.R.
CWEI.lbm/ft      N.R.                                  :PESO DE LA T.R.
CTD1.M           300.0                                 :FONDO DE LA T.R. DEL PERFORADOR
CTL1.M           291.0                                 :FONDO DE LA T.R. DEL REGISTRO
ENGI.            DANIEL ORDONEZ                        :NOMBRE DEL INGENIERO
WITN.            RAFAEL SANDOVAL C.                    :NOMBRE DEL TESTIGO
LUN.             8-A                                   :NUMERO DE LA UNIDAD
RUN.             UNO                                   :NUMERO DE LA CORRIDA
OS1.             N.R.                                  :SERVICIOS
HIDE.            REGISTRO MICROLOG-MICROLATEROLOG      :NOMBRE DEL SERVICIO
HID1.            1:500                                 :NOMBRE DEL SERVICIO
LUL.             N.R.                                  :LUGAR DE LA UNIDAD
R1.              POZA RICA                             :Remarks 1
R2.                                                    :Remarks 2
R3.                                                    :Remarks 3
R4.      TRACK1    DIAMETRO DE AGUJERO                 :Remarks 4
R5.                      CALI                          :Remarks 5
R6.                       IN                           :Remarks 6
R7.               6"_______________16"                 :Remarks 7
R8.                                                    :Remarks 8
R9.                   RESISTIVIDAD                     :Remarks 9
R10.                                                   :Remarks 10
R11.                   MINV 1"X1"                      :Remarks 11
R12.                   OHMS.M2/M                       :Remarks 12
R13.              10_______________0                   :Remarks 13
R14.                                                   :Remarks 14
R15.                    MNOR 2"                        :Remarks 15
R16.                   OHMS.M2/M                       :Remarks 16
R17.              10_______________0                   :Remarks 17
R18.                                                   :Remarks 18
R19.  TRACK2          RESISTIVIDAD                     :Remarks 19
R20.                      MLL                          :Remarks 20
R21.                   OHMS-M2/M                       :Remarks 21
R22.             0.2_______________2000                :Remarks 22
R23.                                                   :Remarks 23
R24.                                                   :Remarks 24
R25. RM  A T.F.= 1.0 A 70 DEGC                         :Remarks 25
R26. RMF A T.F.= 0.75 A 70 DEGC                        :Remarks 26
R27. RMC A T.F.= 1.0 A 70 DEGC                         :Remarks 27
R28.                                                   :Remarks 28
R29.                                                   :Remarks 29
R30.                                                   :Remarks 30
~Curve Information Block
#MNEM.UNIT       API Code            Curve    Description
#--------        --------------      -----    -------------------
DEPT  .M                             :0       Index
CALI  .IN                            :1       Caliper                       
MINV  .OHMM                          :2       Micro Inverse Resistivity     
MLL   .OHMM                          :3       Microlaterolog Resistivity    
MNOR  .OHMM                          :4       Micro Normal Resistivity      
~Ascii Data Section
# ...
   1744.8800       9.4613       2.3934       3.6580       3.3564
   1745.0323       9.4863       2.3422       3.7258       2.9406
   1745.1848       9.4076       2.6444       4.0466       3.0594
   1745.3372       9.4357       2.8020       3.9364       2.9802
   1745.4896       9.4827       2.9010       3.4694       3.1188
   1745.6420       9.5115       2.7100       3.9823       3.2970
   1745.7944       9.5857       3.5328       4.6088       3.6535
   1745.9468       9.6641       2.6121       3.3145       3.1188
   1746.0992       9.5025       2.3107       4.3155       2.6832
   1746.2516       9.3964       2.9641       5.4792       3.0990
   1746.4041       9.3582       2.5569       4.2799       3.0865
   1746.5564       9.2514       3.1017       4.4735       3.3122
   1746.7087       9.2018       3.3898       5.3759       3.5296
   1746.8612       9.1973       3.1897       5.1381       3.2734
   1747.0135       9.2249       3.4888       4.1598       3.4528
   1747.1660       9.2889       2.8568       4.5182       3.7502
   1747.3184       9.3722       2.8020       4.7742       3.2675
   1747.4708       9.4458       2.9208       4.4769       3.0000
   1747.6232       9.4570       3.3366       5.6842       3.5601
   1747.7756       9.4769       3.5743       5.6322       3.4927
   1747.9280       9.5140       3.2772       5.9513       3.6544
   1748.0804       9.4329       2.8966       4.4360       3.2574
   1748.2328       9.3378       3.7150       5.1381       3.7723
   1748.3853       9.3605       3.0000       6.2309       3.4554
   1748.5376       9.3687       3.4158       5.3795       3.2772
   1748.6899       9.3657       2.9010       4.9985       3.4356
   1748.8424       9.4506       2.6436       5.4291       2.8812
   1748.9948       9.5536       3.3168       4.9985       3.2178
   1749.1472       9.5560       2.9802       5.4291       3.4752
   1749.2996       9.5470       3.5347       5.8969       3.3317
   1749.4520       9.5382       2.7228       3.7949       3.8366
   1749.6044       9.6014       2.7426       4.0867       3.4833
   1749.7568       9.7177       2.7228       3.0285       3.1967
   1749.9092      10.0536       1.9901       3.2850       2.7608
   1750.0616      10.0662       2.2475       2.9345       2.8416
   1750.2140      10.0004       2.1485       3.9732       2.3861
   1750.3665      10.1316       2.3663       2.6283       2.5050
   1750.5188      10.0672       2.3465       2.8547       2.3861
   1750.6711       9.8601       2.2277       3.1293       2.5446
   1750.8236       9.7639       2.4257       2.7518       2.8020
   1750.9760       9.6870       2.6634       2.9889       2.9208
   1751.1284       9.6092       2.7228       3.7602       3.0792
   1751.2808       9.5369       2.5644       3.2763       2.9802
   1751.4332       9.5356       2.4257       3.4938       3.3564
   1751.5856       9.5459       2.9802       4.1598       3.3166
   1751.7380       9.5632       2.6436       3.9732       3.5946
   1751.8904       9.5919       3.1512       5.8969       3.4502
   1752.0428       9.5618       2.8625       5.2816       3.5545
   1752.1952       9.5565       3.0768       4.0098       3.4158
   1752.3477       9.6009       2.9802       3.6246       3.5347
   1752.5000       9.7909       2.2871       4.8315       3.0668
   1752.6523       9.9838       1.9901       3.0979       2.8074
   1752.8048       9.8242       2.3267       3.0990       2.9814
   1752.9572       9.6320       2.8020       3.1913       3.1584
   1753.1096       9.6804       2.6832       4.1218       3.0000
   1753.2620       9.8210       2.8812       3.6049       3.1980
   1753.4144       9.9208       2.3069       3.1007       2.7228
   1753.5668       9.9932       2.5842       3.5914       2.6287
   1753.7192      10.3003       2.5248       2.9077       2.6020
   1753.8716      10.3749       2.2475       2.4647       2.4046
   1754.0240      10.3147       1.9307       3.3250       2.4455
   1754.1764      10.2419       2.2079       2.7772       2.2871
   1754.3289      10.0451       2.2302       4.1071       2.2079
   1754.4812       9.5494       3.3258       3.7106       2.9999
   1754.6335       9.5125       3.1541       3.5361       2.9771
   1754.7860       9.6305       2.3663       2.8811       2.6634
   1754.9384       9.5498       2.7030       3.6917       2.7426
   1755.0908       9.4937       2.7409       5.4291       2.9604
   1755.2432       9.4561       3.0369       4.6873       3.2772
   1755.3956       9.5760       3.0014       4.7742       3.3960
   1755.5480       9.6174       3.0569       3.5914       3.1386
   1755.7004       9.6994       2.7624       3.7949       3.2574
   1755.8528       9.7507       2.0891       2.8547       2.8020
   1756.0052       9.6193       2.1231       3.2763       3.1386
   1756.1576       9.5058       2.5261       4.2369       3.0396
   1756.3101       9.5878       2.8416       5.9513       3.1980
   1756.4624       9.9861       2.0099       3.4303       2.6634
   1756.6147      10.0758       2.3267       5.1663       2.6238
   1756.7672       9.5627       2.0891       4.8648       3.0792
   1756.9196       9.4988       3.0198       4.0586       3.1188
   1757.0720       9.5009       2.6832       3.5060       3.0000
   1757.2244       9.5749       2.5644       4.7778       3.1584
   1757.3768       9.7275       2.5446       3.4619       2.8614
   1757.5292       9.6377       3.0966       4.0468       3.5691
   1757.6816       9.7139       3.5104       5.1855       3.3239
   1757.8340       9.7557       2.7315       3.3678       2.9652
   1757.9865       9.7536       2.6083       4.0841       2.7624
   1758.1388       9.6590       2.2930       3.6917       2.6040
   1758.2913       9.5367       3.4950       4.3224       3.5545
   1758.4436       9.4961       3.0546       4.7244       3.3960
   1758.5959       9.5253       2.3465       5.3130       3.0594
   1758.7484       9.6525       3.0340       3.2929       3.1782
   1758.9008       9.7126       2.3260       3.5930       2.9208
   1759.0532       9.8052       2.5644       2.7772       3.1201
   1759.2056       9.9051       1.9901       2.8547       2.7802
   1759.3580       9.8161       2.4059       2.9889       2.4813
   1759.5104       9.8015       1.9703       2.5569       2.1485
   1759.6628       9.8059       1.9611       3.0443       2.3267
   1759.8152       9.7994       2.6832       2.6921       2.8218
   1759.9677       9.9333       2.0199       2.3375       2.5842
   1760.1200      10.0813       1.7129       3.3631       2.0099
   1760.2725       9.7603       1.6535       4.9075       2.3069
   1760.4248       9.4851       2.7822       4.1484       2.9802
   1760.5771       9.6180       2.4455       2.9615       2.9208
   1760.7296       9.6735       2.4851       3.9368       3.1980
   1760.8820       9.5910       2.9208       4.2369       3.1188
   1761.0344       9.4986       2.9406       4.9621       3.1334
   1761.1868       9.6018       3.0198       5.9271       3.2975
   1761.3392       9.7648       2.4653       3.8456       3.0046
   1761.4916       9.7942       2.7970       3.6246       2.8020
   1761.6440       9.8576       2.6669       3.2167       2.8812
   1761.7964       9.8088       2.5842       4.6681       2.7228
   1761.9489       9.5798       3.1782       6.7677       3.4554
   1762.1012       9.5308       2.9310       4.7305       3.3564
   1762.2535       9.5890       2.6832       4.7039       3.0595
   1762.4060       9.6344       2.5842       7.5371       3.0279
   1762.5583       9.6099       3.5743       6.2340       2.9314
   1762.7108       9.5657       2.7426       4.8626       3.6139
   1762.8632       9.5087       2.7030      10.5164       2.8812
   1763.0156       9.5212       5.0183       7.1390       4.2583
   1763.1680       9.7176       3.3539       3.6917       3.4008
   1763.3204       9.9337       2.3696       3.1007       2.2921
   1763.4728       9.8382       2.6832       3.9009       2.6634
   1763.6252       9.5909       2.7228       3.5261       2.7228
