~Version Information
VERS  .          2.0                                   :CWLS Log Ascii Standard - Version 2.0
WRAP  .          NO                                    :One line per depth step
~Well Information Block
#MNEM.UNIT       Data Type                             Information
#---------       ---------                             -------------------------------
STRT  .M         800.0000                              :PROFUNDIDAD INICIAL
STOP  .M         1845.0000                             :PROFUNDIDAD FINAL
STEP  .M         0.1524                                :INCREMENTO
NULL  .          -999.2500                             :VALOR NULO 
COMP  .          PETROLEOS MEXICANOS                   :COMPANIA
WELL  .          ABEDUL-1                              :NOMBRE DEL POZO 
FLD   .          ABEDUL                                :CAMPO 
STAT  .          VERACRUZ                              :ESTADO
CNTY  .          COATZINTLA                            :MUNICIPIO
CTRY  .          MEXICO                                :PAIS
DATE  .          04-MAR-79                             :FECHA
UWI   .          1030022740                            :VALOR UNICO DEL POZO
SRVC  .          PEMEX                                 :COMPANIA DE SERVICIOS
~Parameter Information Block
#MNEM.UNIT       Value                                 Description
#---------       ---------                             -------------
FL.              X=                                    :LOCALIZACION DEL CAMPO
FL1.             Y=                                    :LOCALIZACION DEL CAMPO
PDAT.            NIVEL DEL TERRENO                     :DATO PERMANENTE
EPD.M            135.10                                :ELEVACION DEL DATO PERMANENTE
APD.M            4.18                                  :DIFERENCIA ENTRE MR Y NIVEL DE TERRENO
EKB.M            139.58                                :ELEVACION DEL KELLY BUSHING
EDF.M            139.28                                :ELEVACION DE LA MESA ROTARIA
EGL.M            135.10                                :ELEVACION DEL TERRENO
ELZ.M            139.28                                :ELEVACION DEL CERO DE REFERENCIA
LMF.             MESA ROTARIA                          :REGISTRO MEDIDO DESDE
DMF.             MESA ROTARIA                          :PROFUNDIDAD MEDIDA DESDE
SECT.            DISTRITO POZA RICA                    :NOMBRE DEL SECTOR
CN.              PETROLEOS MEXICANOS                   :NOMBRE DE LA COMPANIA
LATI.            Y=78,766.87 M.                        :LATITUD
LONG.            X=119,309.85 M.                       :LONGITUD
NATI.            MEXICO                                :NACION
RANG.            ZONA NORTE                            :NOMBRE DE LA ZONA
SLAB.            ESTADO                                :ESTADO 
STAT.            VERACRUZ                              :NOMBRE DEL ESTADO
CLAB.            MUNICIPIO                             :ETIQUETA DEL MUNICIPIO
COUN.            COATZINTLA                            :NOMBRE DEL MUNICIPIO
SRVC.            REGISTRO  MLL  1:500                  :NOMBRE DEL SERVICIO
DATE.            04-MAR-79                             :FECHA DEL SERVICIO
BLI.M            1845.0000                             :PRIMERA LECTURA
TLI.M            800.0000                              :ULTIMA LECTURA
QCEN.            ELVIS LUNA GARCIA                     :NOMBRE DEL INGENIERO DEL CONTROL DE CALIDAD DEL REGISTRO
DLQC.            02-APR-2009                           :FECHA DEL CONTROL DE CALIDAD DEL REGISTRO
CBL1.M           291.0                                 :ZAPATA SCHLUMBERGER
CBD1.M           300.0                                 :ZAPATA PERFORACION
TDL.M            1845.0                                :PROFUNDIDAD REGISTRO
TDD.M            1851.0                                :PROFUNDIDAD PERFORADOR
DFT.             SODICO                                :TIPO DE LODO
DFD.G/C3         1.25                                  :DENSIDAD DE LODO
DFV.S            45                                    :VISCOSIDAD DEL LODO
DFPH.            8.6                                   :PH DEL LODO
DFL.C3           N.R.                                  :PERDIDA DE LODO
MSS.             PRESA                                 :FUENTE DE LA MUESTRA DE LODO
RMS.ohm.m        1.8                                   :RESISTIVIDAD DE LODO
MST.DEGC         29                                    :TEMPERATURA DE LA MUESTRA DE LODO
MFSS.            PRENSA                                :FUENTE DEL FILTRADO DE LODO
RMFS.ohm.m       N.R.                                  :RESISTIVIDAD DEL FILTRADO
MFST.DEGC        N.R.                                  :TEMPERATURA DEL FILTRADO
MCSS.            PRENSA                                :FUENTE DEL ENJARRE DE LODO
RMCS.ohm.m       N.R.                                  :RESISTIVIDAD DEL ENJARRE DE LODO
MCST.DEGC        N.R.                                  :TEMPERATURA DEL ENJARRE
BSAL.PPM         N.R.                                  :SALINIDAD DEL LODO
TCS.             N.R.                                  :HORA EN QUE PARO CIRCULACION
STEM.DEGC        N.R.                                  :TEMPERATURA DE SUPERFICIE
BHT.DEGC         70                                    :TEMPERATURA DE FONDO
MRT.DEGC         70                                    :MAXIMA TEMPERATURA REGISTRADA
BS.IN            8.5                                   :DIAMETRO DE BARRENA
CSIZ.IN          9.625                                 :DIAMETRO DE T.R.
CWEI.lbm/ft      N.R.                                  :PESO DE LA T.R.
CTD1.M           300.0                                 :FONDO DE LA T.R. DEL PERFORADOR
CTL1.M           291.0                                 :FONDO DE LA T.R. DEL REGISTRO
ENGI.            DANIEL ORDONEZ                        :NOMBRE DEL INGENIERO
WITN.            RAFAEL SANDOVAL C.                    :NOMBRE DEL TESTIGO
LUN.             8-A                                   :NUMERO DE LA UNIDAD
RUN.             UNO                                   :NUMERO DE LA CORRIDA
OS1.             N.R.                                  :SERVICIOS
HIDE.            REGISTRO MICROLOG-MICROLATEROLOG      :NOMBRE DEL SERVICIO
HID1.            1:500                                 :NOMBRE DEL SERVICIO
LUL.             N.R.                                  :LUGAR DE LA UNIDAD
R1.              POZA RICA                             :Remarks 1
R2.                                                    :Remarks 2
R3.                                                    :Remarks 3
R4.      TRACK1    DIAMETRO DE AGUJERO                 :Remarks 4
R5.                      CALI                          :Remarks 5
R6.                       IN                           :Remarks 6
R7.               6"_______________16"                 :Remarks 7
R8.                                                    :Remarks 8
R9.                   RESISTIVIDAD                     :Remarks 9
R10.                                                   :Remarks 10
R11.                   MINV 1"X1"                      :Remarks 11
R12.                   OHMS.M2/M                       :Remarks 12
R13.              10_______________0                   :Remarks 13
R14.                                                   :Remarks 14
R15.                    MNOR 2"                        :Remarks 15
R16.                   OHMS.M2/M                       :Remarks 16
R17.              10_______________0                   :Remarks 17
R18.                                                   :Remarks 18
R19.  TRACK2          RESISTIVIDAD                     :Remarks 19
R20.                      MLL                          :Remarks 20
R21.                   OHMS-M2/M                       :Remarks 21
R22.             0.2_______________2000                :Remarks 22
R23.                                                   :Remarks 23
R24.                                                   :Remarks 24
R25. RM  A T.F.= 1.0 A 70 DEGC                         :Remarks 25
R26. RMF A T.F.= 0.75 A 70 DEGC                        :Remarks 26
R27. RMC A T.F.= 1.0 A 70 DEGC                         :Remarks 27
R28.                                                   :Remarks 28
R29.                                                   :Remarks 29
R30.                                                   :Remarks 30
~Curve Information Block
#MNEM.UNIT       API Code            Curve    Description
#--------        --------------      -----    -------------------
DEPT  .M                             :0       Index
CALI  .IN                            :1       Caliper                       
MINV  .OHMM                          :2       Micro Inverse Resistivity     
MLL   .OHMM                          :3       Microlaterolog Resistivity    
MNOR  .OHMM                          :4       Micro Normal Resistivity      
~Ascii Data Section
# ...
   1480.3136       9.9557       4.1660       2.9077       2.7699
   1480.4659       9.9710       2.8618       2.6770       2.4851
   1480.6184       9.9083       2.3861       3.1007       2.3450
   1480.7708       9.8937       2.6595       3.3065       2.4459
   1480.9232       9.8999       3.0990       3.0723       2.5667
   1481.0756       9.9367       2.7228       2.6043       2.4065
   1481.2280       9.8946       2.7822       2.5335       2.4882
   1481.3804       9.8755       2.2475       2.6770       2.1291
   1481.5328       9.8730       2.4851       2.6283       2.1683
   1481.6852       9.8942       2.4851       2.7518       2.2277
   1481.8376       9.8795       2.2079       2.7017       2.1485
   1481.9900       9.8754       2.3861       2.8286       2.2277
   1482.1425       9.8352       2.4455       2.9974       2.2871
   1482.2948       9.7865       2.4851       3.1920       2.3663
   1482.4471       9.7536       2.3861       3.4950       2.2475
   1482.5996       9.7555       3.2772       3.4956       2.7624
   1482.7520       9.7789       2.8614       3.2464       2.4059
   1482.9044       9.6964       3.0000       3.5261       2.2079
   1483.0568       9.5665       2.6040       6.1739       2.8728
   1483.2092       9.6159       6.2673       3.9009       3.5884
   1483.3616       9.5970       3.0198       5.1546       2.8437
   1483.5140       9.4755       4.6739       7.4186       2.7590
   1483.6664       9.4356       6.8994       6.0062       4.2376
   1483.8188       9.4013       4.5316      11.8498       4.0187
   1483.9712       9.4164      10.1287       4.9528       7.8257
   1484.1237       9.5205       6.4634       5.5512       5.0683
   1484.2760       9.6025       3.6139       6.2260       3.3746
   1484.4283       9.6436       4.1881       5.2360       2.7865
   1484.5808       9.6303       3.6535       5.6876       2.8252
   1484.7332       9.5697       3.4356       6.3464       2.8812
   1484.8856       9.5561       3.6931       6.1739       2.9208
   1485.0380       9.5762       3.8713       6.7058       3.0792
   1485.1904       9.6161       4.2871       4.6873       2.9010
   1485.3428       9.6156       3.3960       5.1266       2.9010
   1485.4952       9.6143       4.0163       6.5921       2.7822
   1485.6476       9.6347       4.3855       6.4709       3.2178
   1485.8000       9.6358       4.1517       7.3706       3.3762
   1485.9524       9.6340       4.9574       4.3553       3.4356
   1486.1049       9.6561       3.3258       3.8652       3.0396
   1486.2572       9.6258       3.3946       3.7258       2.8954
   1486.4095       9.5876       3.3712       4.8603       3.0990
   1486.5620       9.5809       3.1835       5.8573       2.8812
   1486.7144       9.6220       3.9507       6.7144       2.7915
   1486.8668       9.6363       4.0308       5.3254       3.5605
   1487.0192       9.6565       4.2067       4.1954       3.0594
   1487.1716       9.6162       3.3564       3.3371       2.8812
   1487.3240       9.5070       3.2574       3.6580       2.7030
   1487.4764       9.3732       2.9406       6.1175       2.5248
   1487.6288       9.3773       4.2475       5.7366       2.9010
   1487.7812       9.3424       3.4356       7.6962       3.3762
   1487.9336       9.3355       5.0990       6.9328       3.1980
   1488.0861       9.4511       4.1479       4.2369       3.8713
   1488.2384       9.5127       2.7030       4.7705       2.4851
   1488.3907       9.4400       3.3564       4.4410       2.5248
   1488.5432       9.4358       3.1188       3.6090       2.7624
   1488.6956       9.4502       2.8416       2.9889       2.5446
   1488.8480       9.4746       2.7822       4.7742       2.6634
   1489.0004       9.4882       3.8911       4.4360       2.5644
   1489.1528       9.4540       4.2684       5.7366       2.9406
   1489.3052       9.4800       3.6753       3.0443       2.8416
   1489.4576       9.4706       2.6293       4.0993       2.3861
   1489.6100       9.4543       3.2147       4.8966       2.7228
   1489.7625       9.4893       3.4752       4.2369       2.5050
   1489.9148       9.5155       3.1386       4.9075       2.9010
   1490.0673       9.4813       2.8614       3.7949       2.7030
   1490.2196       9.3950       5.0303      19.4566       2.9208
   1490.3719       9.3748      10.1683       6.0062       7.3960
   1490.5244       9.4363       3.4752       7.4870       3.1584
   1490.6768       9.4343       9.5545      12.5210       5.3366
   1490.8292       9.5289       3.5941       3.6580       3.7207
   1490.9816       9.5821       2.5248       3.6917       2.3861
   1491.1340       9.4515       2.9802       4.1598       2.3861
   1491.2864       9.2986       3.6272       5.2333       2.8812
   1491.4388       9.1734       4.0693       6.9610       3.2376
   1491.5912       9.0738       7.5963     174.1815       5.7757
   1491.7437       9.1401      10.0891      59.6573       9.2029
   1491.8960       9.3333      10.1216       4.6422       9.9901
   1492.0483       9.5815       2.7624       4.0388       2.6238
   1492.2008       9.5395       3.1878       5.9982       2.5248
   1492.3531       9.5498       3.0792       4.1584       2.8614
   1492.5056       9.5616       3.3366       4.2369       2.6832
   1492.6580       9.5360       3.1980       6.0062       2.5842
   1492.8104       9.5767       4.4851       5.0911       3.6337
   1492.9628       9.6614       3.7327       5.6181       2.6238
   1493.1152       9.6683       3.4891       3.8678       3.0396
   1493.2676       9.6558       2.7822       4.6468       2.6436
   1493.4200       9.6900       3.1386       3.5522       2.4653
   1493.5724       9.7295       3.1980       3.3663       2.7033
   1493.7249       9.7362       2.5446       3.6246       2.3861
   1493.8772       9.6912       2.8416       4.8626       2.6592
   1494.0295       9.5815       3.3366       4.6873       2.9010
   1494.1820       9.4599       3.7327       6.1175       3.0396
   1494.3344       9.4001       3.8515       5.3795       3.2970
   1494.4868       9.4102       3.8939       4.9304       3.2574
   1494.6392       9.4367       3.6549       5.3212       3.4158
   1494.7916       9.4165       3.5835       4.5603       2.9802
   1494.9440       9.3828       3.3762       5.0911       2.7624
   1495.0964       9.3967       3.5941       6.2309       2.8020
   1495.2488       9.4372       6.1089       8.9142       3.9278
   1495.4012       9.3978       4.0693       8.2885       3.6167
   1495.5536       9.3354       7.4153      76.4334       3.2511
   1495.7061       9.3963      10.1485      14.7719       9.9901
   1495.8584       9.4573       5.7504       5.6842       6.1521
   1496.0107       9.4295       2.7228       5.1855       2.6436
   1496.1632       9.4203       4.3857       8.4364       3.7327
   1496.3156       9.5413       6.5644       3.5914       3.0144
   1496.4680       9.6310       3.0396       4.3865       2.5446
   1496.6204       9.6332       3.2473       6.1175       2.7822
   1496.7728       9.6122       3.4363       4.9985       2.6238
   1496.9252       9.5210       4.2871       7.7672       3.2856
   1497.0776       9.3716       4.2079       8.2071       3.3565
   1497.2300       9.3024       5.1782       6.7058       3.6337
   1497.3824       9.2762       3.9703      15.3242       4.4173
   1497.5348       9.3308       8.2475       6.4640       5.5149
   1497.6873       9.3561       3.6139       8.9142       3.0100
   1497.8396       9.3700       4.5446       6.5236       3.6353
   1497.9919       9.4113       4.0891       7.2836       2.7308
   1498.1444       9.4062       5.6535       8.5927       4.3663
   1498.2968       9.3811       4.1683       8.0402       3.4356
   1498.4492       9.3768       6.1485       7.3911       4.7030
   1498.6016       9.3979       4.7030      10.1483       3.5149
   1498.7540       9.3951       5.1980       7.1700       3.8579
   1498.9064       9.3808       4.3069       8.6789       3.3858
   1499.0588       9.4169       8.6238      12.0695       5.5274
