~Version Information
VERS  .          2.0                                   :CWLS Log Ascii Standard - Version 2.0
WRAP  .          NO                                    :One line per depth step
~Well Information Block
#MNEM.UNIT       Data Type                             Information
#---------       ---------                             -------------------------------
STRT  .M         800.0000                              :PROFUNDIDAD INICIAL
STOP  .M         1845.0000                             :PROFUNDIDAD FINAL
STEP  .M         0.1524                                :INCREMENTO
NULL  .          -999.2500                             :VALOR NULO 
COMP  .          PETROLEOS MEXICANOS                   :COMPANIA
WELL  .          ABEDUL-1                              :NOMBRE DEL POZO 
FLD   .          ABEDUL                                :CAMPO 
STAT  .          VERACRUZ                              :ESTADO
CNTY  .          COATZINTLA                            :MUNICIPIO
CTRY  .          MEXICO                                :PAIS
DATE  .          04-MAR-79                             :FECHA
UWI   .          1030022740                            :VALOR UNICO DEL POZO
SRVC  .          PEMEX                                 :COMPANIA DE SERVICIOS
~Parameter Information Block
#MNEM.UNIT       Value                                 Description
#---------       ---------                             -------------
FL.              X=                                    :LOCALIZACION DEL CAMPO
FL1.             Y=                                    :LOCALIZACION DEL CAMPO
PDAT.            NIVEL DEL TERRENO                     :DATO PERMANENTE
EPD.M            135.10                                :ELEVACION DEL DATO PERMANENTE
APD.M            4.18                                  :DIFERENCIA ENTRE MR Y NIVEL DE TERRENO
EKB.M            139.58                                :ELEVACION DEL KELLY BUSHING
EDF.M            139.28                                :ELEVACION DE LA MESA ROTARIA
EGL.M            135.10                                :ELEVACION DEL TERRENO
ELZ.M            139.28                                :ELEVACION DEL CERO DE REFERENCIA
LMF.             MESA ROTARIA                          :REGISTRO MEDIDO DESDE
DMF.             MESA ROTARIA                          :PROFUNDIDAD MEDIDA DESDE
SECT.            DISTRITO POZA RICA                    :NOMBRE DEL SECTOR
CN.              PETROLEOS MEXICANOS                   :NOMBRE DE LA COMPANIA
LATI.            Y=78,766.87 M.                        :LATITUD
LONG.            X=119,309.85 M.                       :LONGITUD
NATI.            MEXICO                                :NACION
RANG.            ZONA NORTE                            :NOMBRE DE LA ZONA
SLAB.            ESTADO                                :ESTADO 
STAT.            VERACRUZ                              :NOMBRE DEL ESTADO
CLAB.            MUNICIPIO                             :ETIQUETA DEL MUNICIPIO
COUN.            COATZINTLA                            :NOMBRE DEL MUNICIPIO
SRVC.            REGISTRO  MLL  1:500                  :NOMBRE DEL SERVICIO
DATE.            04-MAR-79                             :FECHA DEL SERVICIO
BLI.M            1845.0000                             :PRIMERA LECTURA
TLI.M            800.0000                              :ULTIMA LECTURA
QCEN.            ELVIS LUNA GARCIA                     :NOMBRE DEL INGENIERO DEL CONTROL DE CALIDAD DEL REGISTRO
DLQC.            02-APR-2009                           :FECHA DEL CONTROL DE CALIDAD DEL REGISTRO
CBL1.M           291.0                                 :ZAPATA SCHLUMBERGER
CBD1.M           300.0                                 :ZAPATA PERFORACION
TDL.M            1845.0                                :PROFUNDIDAD REGISTRO
TDD.M            1851.0                                :PROFUNDIDAD PERFORADOR
DFT.             SODICO                                :TIPO DE LODO
DFD.G/C3         1.25                                  :DENSIDAD DE LODO
DFV.S            45                                    :VISCOSIDAD DEL LODO
DFPH.            8.6                                   :PH DEL LODO
DFL.C3           N.R.                                  :PERDIDA DE LODO
MSS.             PRESA                                 :FUENTE DE LA MUESTRA DE LODO
RMS.ohm.m        1.8                                   :RESISTIVIDAD DE LODO
MST.DEGC         29                                    :TEMPERATURA DE LA MUESTRA DE LODO
MFSS.            PRENSA                                :FUENTE DEL FILTRADO DE LODO
RMFS.ohm.m       N.R.                                  :RESISTIVIDAD DEL FILTRADO
MFST.DEGC        N.R.                                  :TEMPERATURA DEL FILTRADO
MCSS.            PRENSA                                :FUENTE DEL ENJARRE DE LODO
RMCS.ohm.m       N.R.                                  :RESISTIVIDAD DEL ENJARRE DE LODO
MCST.DEGC        N.R.                                  :TEMPERATURA DEL ENJARRE
BSAL.PPM         N.R.                                  :SALINIDAD DEL LODO
TCS.             N.R.                                  :HORA EN QUE PARO CIRCULACION
STEM.DEGC        N.R.                                  :TEMPERATURA DE SUPERFICIE
BHT.DEGC         70                                    :TEMPERATURA DE FONDO
MRT.DEGC         70                                    :MAXIMA TEMPERATURA REGISTRADA
BS.IN            8.5                                   :DIAMETRO DE BARRENA
CSIZ.IN          9.625                                 :DIAMETRO DE T.R.
CWEI.lbm/ft      N.R.                                  :PESO DE LA T.R.
CTD1.M           300.0                                 :FONDO DE LA T.R. DEL PERFORADOR
CTL1.M           291.0                                 :FONDO DE LA T.R. DEL REGISTRO
ENGI.            DANIEL ORDONEZ                        :NOMBRE DEL INGENIERO
WITN.            RAFAEL SANDOVAL C.                    :NOMBRE DEL TESTIGO
LUN.             8-A                                   :NUMERO DE LA UNIDAD
RUN.             UNO                                   :NUMERO DE LA CORRIDA
OS1.             N.R.                                  :SERVICIOS
HIDE.            REGISTRO MICROLOG-MICROLATEROLOG      :NOMBRE DEL SERVICIO
HID1.            1:500                                 :NOMBRE DEL SERVICIO
LUL.             N.R.                                  :LUGAR DE LA UNIDAD
R1.              POZA RICA                             :Remarks 1
R2.                                                    :Remarks 2
R3.                                                    :Remarks 3
R4.      TRACK1    DIAMETRO DE AGUJERO                 :Remarks 4
R5.                      CALI                          :Remarks 5
R6.                       IN                           :Remarks 6
R7.               6"_______________16"                 :Remarks 7
R8.                                                    :Remarks 8
R9.                   RESISTIVIDAD                     :Remarks 9
R10.                                                   :Remarks 10
R11.                   MINV 1"X1"                      :Remarks 11
R12.                   OHMS.M2/M                       :Remarks 12
R13.              10_______________0                   :Remarks 13
R14.                                                   :Remarks 14
R15.                    MNOR 2"                        :Remarks 15
R16.                   OHMS.M2/M                       :Remarks 16
R17.              10_______________0                   :Remarks 17
R18.                                                   :Remarks 18
R19.  TRACK2          RESISTIVIDAD                     :Remarks 19
R20.                      MLL                          :Remarks 20
R21.                   OHMS-M2/M                       :Remarks 21
R22.             0.2_______________2000                :Remarks 22
R23.                                                   :Remarks 23
R24.                                                   :Remarks 24
R25. RM  A T.F.= 1.0 A 70 DEGC                         :Remarks 25
R26. RMF A T.F.= 0.75 A 70 DEGC                        :Remarks 26
R27. RMC A T.F.= 1.0 A 70 DEGC                         :Remarks 27
R28.                                                   :Remarks 28
R29.                                                   :Remarks 29
R30.                                                   :Remarks 30
~Curve Information Block
#MNEM.UNIT       API Code            Curve    Description
#--------        --------------      -----    -------------------
DEPT  .M                             :0       Index
CALI  .IN                            :1       Caliper                       
MINV  .OHMM                          :2       Micro Inverse Resistivity     
MLL   .OHMM                          :3       Microlaterolog Resistivity    
MNOR  .OHMM                          :4       Micro Normal Resistivity      
~Ascii Data Section
# ...
   1007.8736      11.4477       1.8540       2.2279       1.5743
   1008.0260      11.4269       1.6914       2.0892       1.4752
   1008.1784      11.4282       1.7726       2.1279       1.5743
   1008.3308      11.4331       1.6535       2.1279       1.4377
   1008.4832      11.4486       1.8515       2.1873       1.5305
   1008.6356      11.4483       1.9040       2.1673       1.7508
   1008.7880      11.4475       2.1287       2.3112       1.9345
   1008.9404      11.4270       2.1089       2.3112       1.7715
   1009.0928      11.4284       1.8911       2.2692       1.6338
   1009.2452      11.4283       2.1287       2.4647       1.9404
   1009.3976      11.4283       2.1485       2.5103       1.9519
   1009.5500      11.4283       2.3267       2.4421       1.9703
   1009.7024      11.4283       1.9307       2.3977       1.8317
   1009.8548      11.4283       2.3465       2.3977       1.8302
   1010.0072      11.4282       1.9109       2.5805       1.8512
   1010.1596      11.4284       2.0495       2.6043       1.8320
   1010.3120      11.4273       2.2475       2.7027       1.9524
   1010.4644      11.4697       2.1089       2.7222       2.0436
   1010.6168      11.4891       2.4653       2.9024       2.4851
   1010.7692      11.4890       2.7426       3.0208       2.2957
   1010.9216      11.4702       2.1683       2.6498       2.0297
   1011.0740      11.4490       2.1444       2.4864       2.0297
   1011.2264      11.4682       2.2027       2.5349       2.1287
   1011.3788      11.4681       2.3465       2.5822       2.1485
   1011.5312      11.4681       2.2475       2.5569       2.0297
   1011.6836      11.4681       2.1881       2.6043       2.0693
   1011.8360      11.4681       2.5050       2.7048       2.1881
   1011.9884      11.4681       2.6634       2.9364       2.3663
   1012.1408      11.4681       2.4257       3.0402       2.1683
   1012.2932      11.4599       2.4059       2.8811       2.2871
   1012.4456      11.4480       2.4851       2.8547       2.3069
   1012.5980      11.4482       2.3085       2.7734       2.1480
   1012.7504      11.4483       2.2258       2.6777       2.0498
   1012.9028      11.4470       2.2873       2.7001       2.1899
   1013.0552      11.4674       2.2277       2.7518       2.0718
   1013.2076      11.4683       2.2475       2.6283       2.0682
   1013.3600      11.4681       2.0693       2.7017       2.0495
   1013.5124      11.4681       2.0495       2.7518       1.8119
   1013.6648      11.4681       2.1683       2.6770       1.9703
   1013.8172      11.4681       2.1845       2.5805       1.8900
   1013.9696      11.4681       1.9490       2.3541       1.7903
   1014.1220      11.4681       2.1287       2.4113       1.7522
   1014.2744      11.4681       1.9703       2.5103       1.7921
   1014.4268      11.4682       1.8119       2.4421       1.5941
   1014.5792      11.4669       1.8713       2.3758       1.6336
   1014.7316      11.4549       1.8713       2.3325       1.5353
   1014.8840      11.4483       1.8713       2.3112       1.5753
   1015.0364      11.4482       2.2871       2.5259       1.8515
   1015.1888      11.4482       2.0693       2.6525       1.9901
   1015.3412      11.4476       2.1863       2.6283       1.9299
   1015.4936      11.4638       2.2911       2.7772       2.1101
   1015.6460      11.5027       2.3479       2.7017       2.1464
   1015.7984      11.5061       2.0693       2.5805       1.9703
   1015.9508      11.5095       2.0891       2.4198       1.9901
   1016.1032      11.4887       2.4264       2.8276       2.0891
   1016.2556      11.4878       2.2863       2.8041       2.2069
   1016.4080      11.4879       2.4248       2.7241       2.1447
   1016.5604      11.5025       2.2475       2.6283       2.0471
   1016.7128      11.4866       2.1089       2.6283       1.9697
   1016.8652      11.5031       2.2673       2.6043       2.0479
   1017.0176      11.5099       2.3465       2.7017       2.0495
   1017.1700      11.4839       2.0099       2.4874       1.9307
   1017.3224      11.4663       2.0891       2.5569       1.9335
   1017.4748      11.4864       2.2475       2.6525       2.0298
   1017.6272      11.5072       2.0099       2.4874       1.9490
   1017.7796      11.5086       2.1088       2.4647       2.0068
   1017.9320      11.4933       2.2429       2.5805       2.0891
   1018.0844      11.4727       2.0891       2.4198       1.9883
   1018.2368      11.4678       2.2079       2.5103       2.0494
   1018.3892      11.4683       2.3861       2.6770       2.1896
   1018.5416      11.4847       2.2839       2.7435       2.0903
   1018.6940      11.5011       2.3490       2.3388       2.1679
   1018.8464      11.4899       2.1297       2.5335       2.0486
   1018.9988      11.4536       2.0297       2.4198       1.8713
   1019.1512      11.4482       1.8317       2.1279       1.6535
   1019.3036      11.4332       1.6733       2.0511       1.4554
   1019.4560      11.4276       1.5545       2.0138       1.3366
   1019.6084      11.4426       1.5743       2.1279       1.4158
   1019.7608      11.4888       1.7327       2.2484       1.5941
   1019.9132      11.4930       2.1485       2.0511       1.7723
   1020.0656      11.4946       1.9670       2.1084       1.7723
   1020.2180      11.4880       1.6895       2.0701       1.5743
   1020.3704      11.4880       1.7736       2.0892       1.5149
   1020.5228      11.4880       1.7921       2.1476       1.6535
   1020.6752      11.4880       1.8888       2.2242       1.5545
   1020.8276      11.4886       1.8891       2.1696       1.6733
   1020.9800      11.5096       1.7921       2.2901       1.6337
   1021.1324      11.4993       1.8713       2.2484       1.6733
   1021.2848      11.4906       1.9892       2.2279       1.7931
   1021.4372      11.4688       2.1521       2.3758       1.9102
   1021.5896      11.4674       2.2303       2.4794       1.9906
   1021.7420      11.4839       2.3663       2.6043       2.1501
   1021.8944      11.5096       2.4653       2.6283       2.1813
   1022.0468      11.4904       2.3563       2.4415       2.0693
   1022.1992      11.4878       2.1961       2.5103       2.0297
   1022.3516      11.4895       2.3838       2.4633       2.1089
   1022.5040      11.4675       2.1651       2.4421       1.9665
   1022.6564      11.4872       2.0297       2.4874       1.9293
   1022.8088      11.4885       2.3663       2.5335       2.1047
   1022.9612      11.4830       2.1881       2.5569       2.0043
   1023.1136      11.4689       2.0891       2.3758       1.8695
   1023.2660      11.4495       2.2475       2.4874       2.0495
   1023.4184      11.4694       2.1485       2.3977       1.9901
   1023.5708      11.4676       2.0099       2.3541       1.8713
   1023.7232      11.4731       2.0693       2.4198       1.8119
   1023.8756      11.4887       2.2673       2.5569       2.0099
   1024.0280      11.4877       2.3861       2.6043       2.2135
   1024.1804      11.4586       2.2871       2.4647       2.1499
   1024.3328      11.3668       2.1287       2.3541       1.9684
   1024.4852      11.2938       2.0518       2.4889       1.8713
   1024.6376      11.2693       2.2284       2.4637       1.9901
   1024.7900      11.2676       2.1287       2.3995       1.8910
   1024.9424      11.2882       1.9307       2.2279       1.6764
   1025.0948      11.2894       1.7327       2.1084       1.4968
   1025.2472      11.2832       1.7129       2.1873       1.4752
   1025.3997      11.2475       1.9307       2.3541       1.6337
   1025.5520      11.2474       2.0693       2.4647       1.8515
   1025.7043      11.2842       2.1089       2.6029       1.7327
   1025.8568      11.3050       2.4059       2.6802       1.9901
   1026.0092      11.2670       2.4455       2.6312       2.2240
   1026.1616      11.2688       2.3861       2.8013       2.1879
   1026.3140      11.2738       2.3069       2.8036       2.2070
   1026.4664      11.2896       2.3861       2.8026       2.1881
   1026.6188      11.2839       2.2475       2.6029       2.0891
