~Version Information
VERS  .          2.0                                   :CWLS Log Ascii Standard - Version 2.0
WRAP  .          NO                                    :One line per depth step
~Well Information Block
#MNEM.UNIT       Data Type                             Information
#---------       ---------                             -------------------------------
STRT  .M         800.0000                              :PROFUNDIDAD INICIAL
STOP  .M         1845.0000                             :PROFUNDIDAD FINAL
STEP  .M         0.1524                                :INCREMENTO
NULL  .          -999.2500                             :VALOR NULO 
COMP  .          PETROLEOS MEXICANOS                   :COMPANIA
WELL  .          ABEDUL-1                              :NOMBRE DEL POZO 
FLD   .          ABEDUL                                :CAMPO 
STAT  .          VERACRUZ                              :ESTADO
CNTY  .          COATZINTLA                            :MUNICIPIO
CTRY  .          MEXICO                                :PAIS
DATE  .          04-MAR-79                             :FECHA
UWI   .          1030022740                            :VALOR UNICO DEL POZO
SRVC  .          PEMEX                                 :COMPANIA DE SERVICIOS
~Parameter Information Block
#MNEM.UNIT       Value                                 Description
#---------       ---------                             -------------
FL.              X=                                    :LOCALIZACION DEL CAMPO
FL1.             Y=                                    :LOCALIZACION DEL CAMPO
PDAT.            NIVEL DEL TERRENO                     :DATO PERMANENTE
EPD.M            135.10                                :ELEVACION DEL DATO PERMANENTE
APD.M            4.18                                  :DIFERENCIA ENTRE MR Y NIVEL DE TERRENO
EKB.M            139.58                                :ELEVACION DEL KELLY BUSHING
EDF.M            139.28                                :ELEVACION DE LA MESA ROTARIA
EGL.M            135.10                                :ELEVACION DEL TERRENO
ELZ.M            139.28                                :ELEVACION DEL CERO DE REFERENCIA
LMF.             MESA ROTARIA                          :REGISTRO MEDIDO DESDE
DMF.             MESA ROTARIA                          :PROFUNDIDAD MEDIDA DESDE
SECT.            DISTRITO POZA RICA                    :NOMBRE DEL SECTOR
CN.              PETROLEOS MEXICANOS                   :NOMBRE DE LA COMPANIA
LATI.            Y=78,766.87 M.                        :LATITUD
LONG.            X=119,309.85 M.                       :LONGITUD
NATI.            MEXICO                                :NACION
RANG.            ZONA NORTE                            :NOMBRE DE LA ZONA
SLAB.            ESTADO                                :ESTADO 
STAT.            VERACRUZ                              :NOMBRE DEL ESTADO
CLAB.            MUNICIPIO                             :ETIQUETA DEL MUNICIPIO
COUN.            COATZINTLA                            :NOMBRE DEL MUNICIPIO
SRVC.            REGISTRO  MLL  1:500                  :NOMBRE DEL SERVICIO
DATE.            04-MAR-79                             :FECHA DEL SERVICIO
BLI.M            1845.0000                             :PRIMERA LECTURA
TLI.M            800.0000                              :ULTIMA LECTURA
QCEN.            ELVIS LUNA GARCIA                     :NOMBRE DEL INGENIERO DEL CONTROL DE CALIDAD DEL REGISTRO
DLQC.            02-APR-2009                           :FECHA DEL CONTROL DE CALIDAD DEL REGISTRO
CBL1.M           291.0                                 :ZAPATA SCHLUMBERGER
CBD1.M           300.0                                 :ZAPATA PERFORACION
TDL.M            1845.0                                :PROFUNDIDAD REGISTRO
TDD.M            1851.0                                :PROFUNDIDAD PERFORADOR
DFT.             SODICO                                :TIPO DE LODO
DFD.G/C3         1.25                                  :DENSIDAD DE LODO
DFV.S            45                                    :VISCOSIDAD DEL LODO
DFPH.            8.6                                   :PH DEL LODO
DFL.C3           N.R.                                  :PERDIDA DE LODO
MSS.             PRESA                                 :FUENTE DE LA MUESTRA DE LODO
RMS.ohm.m        1.8                                   :RESISTIVIDAD DE LODO
MST.DEGC         29                                    :TEMPERATURA DE LA MUESTRA DE LODO
MFSS.            PRENSA                                :FUENTE DEL FILTRADO DE LODO
RMFS.ohm.m       N.R.                                  :RESISTIVIDAD DEL FILTRADO
MFST.DEGC        N.R.                                  :TEMPERATURA DEL FILTRADO
MCSS.            PRENSA                                :FUENTE DEL ENJARRE DE LODO
RMCS.ohm.m       N.R.                                  :RESISTIVIDAD DEL ENJARRE DE LODO
MCST.DEGC        N.R.                                  :TEMPERATURA DEL ENJARRE
BSAL.PPM         N.R.                                  :SALINIDAD DEL LODO
TCS.             N.R.                                  :HORA EN QUE PARO CIRCULACION
STEM.DEGC        N.R.                                  :TEMPERATURA DE SUPERFICIE
BHT.DEGC         70                                    :TEMPERATURA DE FONDO
MRT.DEGC         70                                    :MAXIMA TEMPERATURA REGISTRADA
BS.IN            8.5                                   :DIAMETRO DE BARRENA
CSIZ.IN          9.625                                 :DIAMETRO DE T.R.
CWEI.lbm/ft      N.R.                                  :PESO DE LA T.R.
CTD1.M           300.0                                 :FONDO DE LA T.R. DEL PERFORADOR
CTL1.M           291.0                                 :FONDO DE LA T.R. DEL REGISTRO
ENGI.            DANIEL ORDONEZ                        :NOMBRE DEL INGENIERO
WITN.            RAFAEL SANDOVAL C.                    :NOMBRE DEL TESTIGO
LUN.             8-A                                   :NUMERO DE LA UNIDAD
RUN.             UNO                                   :NUMERO DE LA CORRIDA
OS1.             N.R.                                  :SERVICIOS
HIDE.            REGISTRO MICROLOG-MICROLATEROLOG      :NOMBRE DEL SERVICIO
HID1.            1:500                                 :NOMBRE DEL SERVICIO
LUL.             N.R.                                  :LUGAR DE LA UNIDAD
R1.              POZA RICA                             :Remarks 1
R2.                                                    :Remarks 2
R3.                                                    :Remarks 3
R4.      TRACK1    DIAMETRO DE AGUJERO                 :Remarks 4
R5.                      CALI                          :Remarks 5
R6.                       IN                           :Remarks 6
R7.               6"_______________16"                 :Remarks 7
R8.                                                    :Remarks 8
R9.                   RESISTIVIDAD                     :Remarks 9
R10.                                                   :Remarks 10
R11.                   MINV 1"X1"                      :Remarks 11
R12.                   OHMS.M2/M                       :Remarks 12
R13.              10_______________0                   :Remarks 13
R14.                                                   :Remarks 14
R15.                    MNOR 2"                        :Remarks 15
R16.                   OHMS.M2/M                       :Remarks 16
R17.              10_______________0                   :Remarks 17
R18.                                                   :Remarks 18
R19.  TRACK2          RESISTIVIDAD                     :Remarks 19
R20.                      MLL                          :Remarks 20
R21.                   OHMS-M2/M                       :Remarks 21
R22.             0.2_______________2000                :Remarks 22
R23.                                                   :Remarks 23
R24.                                                   :Remarks 24
R25. RM  A T.F.= 1.0 A 70 DEGC                         :Remarks 25
R26. RMF A T.F.= 0.75 A 70 DEGC                        :Remarks 26
R27. RMC A T.F.= 1.0 A 70 DEGC                         :Remarks 27
R28.                                                   :Remarks 28
R29.                                                   :Remarks 29
R30.                                                   :Remarks 30
~Curve Information Block
#MNEM.UNIT       API Code            Curve    Description
#--------        --------------      -----    -------------------
DEPT  .M                             :0       Index
CALI  .IN                            :1       Caliper                       
MINV  .OHMM                          :2       Micro Inverse Resistivity     
MLL   .OHMM                          :3       Microlaterolog Resistivity    
MNOR  .OHMM                          :4       Micro Normal Resistivity      
~Ascii Data Section
# ...
   1404.7231       9.6173       4.9604       6.0062       3.9360
   1404.8756       9.6414       3.8317       7.1511       3.4747
   1405.0280       9.6565       4.3267       8.5927       3.2130
   1405.1804       9.6145       3.8515       9.2477       3.4691
   1405.3328       9.6162       4.8416       8.2071       3.7478
   1405.4852       9.6399       6.9406      10.0445       4.2546
   1405.6376       9.6903       5.4356       6.6446       3.8119
   1405.7900       9.6818       4.7030      13.9797       4.7861
   1405.9424       9.6298       9.2970       9.7883       6.4257
   1406.0948       9.5753       4.1881       6.9567       5.1682
   1406.2472       9.4766       5.0230      10.6134       3.5743
   1406.3997       9.3913       6.4059       7.6258       4.7822
   1406.5520       9.3361       5.1584      14.8449       6.0064
   1406.7043       9.2975      10.2005      28.3515       7.7129
   1406.8568       9.2757      10.1942       6.6446       5.7323
   1407.0092       9.3118       4.7386       7.6047       3.8713
   1407.1616       9.3384       5.4471       9.4191       4.6238
   1407.3140       9.3361       6.1696       4.1982       3.3575
   1407.4664       9.3104       2.4825       4.4626       2.0891
   1407.6188       9.2978       3.3564       2.9686       2.7030
   1407.7712       9.2532       2.7228       3.7599       2.5446
   1407.9236       9.2174       2.8453       3.6917       2.6441
   1408.0760       9.2777       3.1117       5.5808       2.6235
   1408.2284       9.2797       3.5560       5.6322       3.1067
   1408.3809       9.3952       3.4356       4.8182       3.2574
   1408.5332       9.5418       3.7894       5.4291       3.2178
   1408.6855       9.6944       4.1683       4.0841       3.3960
   1408.8380       9.7908       3.2178       4.5182       2.8614
   1408.9904       9.7930       3.4554       3.5914       2.8218
   1409.1428       9.7014       3.5941       3.4938       2.8416
   1409.2952       9.5595       3.9703       4.3003       3.1386
   1409.4476       9.4172       3.8119       5.0768       2.9842
   1409.6000       9.2995       3.5842       6.3556       2.9819
   1409.7524       9.2371       3.4950       4.1227       2.8386
   1409.9048       9.2376       3.3762       8.4872       2.7030
   1410.0573       9.2572       6.6436       7.5247       4.6634
   1410.2096       9.2634       4.9720       6.7677       4.4257
   1410.3621       9.1875       4.3670      19.0444       4.0099
   1410.5144       9.1219       9.4145      70.3705       3.8119
   1410.6667       9.1389      10.1287       8.6720      10.0820
   1410.8192       9.1329       4.7030      14.2615       6.5437
   1410.9716       9.0767       8.8151      35.7424       4.4803
   1411.1240       9.0782      10.1089      52.9373      10.0317
   1411.2764       9.0990      10.1287      10.3250       9.9996
   1411.4288       9.0963       6.7030      17.5872       7.7812
   1411.5812       9.1512      10.1485      11.2146      10.0756
   1411.7336       9.2304      10.1881      36.3289      10.1217
   1411.8860       9.4751       8.9802       4.9216      10.1089
   1412.0385       9.8139       3.5941       4.1982       3.2970
   1412.1908       9.6053       3.4158       6.6446       3.0396
   1412.3431       9.4302       4.1485       6.1175       2.9802
   1412.4956       9.3215       3.5946       5.8430       3.1584
   1412.6479       9.2273       3.4158       7.1875       2.8371
   1412.8004       9.1561       5.5743       9.3735       3.7132
   1412.9528       9.1375       6.2079       7.0857       4.4409
   1413.1052       9.1169       4.4653       9.5937       3.9307
   1413.2576       9.1375       6.9208      23.4672       6.0535
   1413.4100       9.1562      10.2079     116.6092       9.4554
   1413.5624       9.1758      10.2871       8.9142      10.1287
   1413.7148       9.2191       4.6308       7.2836       4.4455
   1413.8672       9.1828       4.5501      23.1653       4.2673
   1414.0197       9.1773      10.2928      10.0445       9.4158
   1414.1720       9.2309       5.8911       9.0743       5.3564
   1414.3243       9.2773       6.9110       6.5838       5.4950
   1414.4768       9.3181       3.9307       7.0209       3.6931
   1414.6292       9.2762       4.6618       8.3592       3.8713
   1414.7816       9.2770       5.6535       6.9567       4.0693
   1414.9340       9.2762       4.2277      12.8708       3.5545
   1415.0864       9.2927       6.9668       8.0578       6.2475
   1415.2388       9.3175       8.5446       7.3508       5.1165
   1415.3912       9.3575       5.6535       8.1321       4.0297
   1415.5436       9.3397       5.0396       6.4049       3.7764
   1415.6960       9.3306       4.4257       7.7672       3.4554
   1415.8484       9.3706       5.0198       8.1321       3.9371
   1416.0009       9.3511       5.5347       7.6962       3.6387
   1416.1532       9.3226       7.5149      10.4203       4.6655
   1416.3055       9.3368       5.7129      12.5210       5.8515
   1416.4580       9.3748       8.7426       7.9841       5.6535
   1416.6104       9.3372       6.0552       9.6822       4.7030
   1416.7628       9.3570       6.9009       7.4186       5.3762
   1416.9152       9.3739       5.1782      16.9502       4.3267
   1417.0676       9.3689      10.2079       8.2071       8.5723
   1417.2200       9.3174       5.3564      11.8498       4.9645
   1417.3724       9.2937       7.7872       7.9841       4.6277
   1417.5248       9.3305       5.4317      12.7531       6.4862
   1417.6772       9.3779       4.1857       5.7366       4.9901
   1417.8296       9.3638       5.0541       6.1175       3.4411
   1417.9821       9.3362       4.2155       8.4364       4.0594
   1418.1344       9.3583       4.8416       8.9142       4.2079
   1418.2867       9.3509       4.3861       7.6962       4.9802
   1418.4392       9.3150       8.7147      15.7522       4.2475
   1418.5916       9.3159      10.1702       7.6962       9.0569
   1418.7440       9.3627       4.9487      12.7531       5.9890
   1418.8964       9.3985       8.4017       9.1238       5.5943
   1419.0488       9.3919       6.2871       6.8301       4.9802
   1419.2012       9.3359       5.1386       7.0209       4.8614
   1419.3536       9.3628       5.9440       5.6322       5.0198
   1419.5060       9.3643       4.9179      12.7531       4.7260
   1419.6584       9.3208       6.5446      11.6342       5.8250
   1419.8108       9.3213       7.9703       6.9567       6.5842
   1419.9633       9.3383       4.1287       7.0857       3.9703
   1420.1156       9.2826       4.7426       4.5523       4.2079
   1420.2679       9.1926       3.6337       4.6419       3.5935
   1420.4204       9.1353       4.0891       4.4375       3.1584
   1420.5728       9.1555       3.7832       7.2513       3.4950
   1420.7252       9.2780       7.1018      10.1725       4.5248
   1420.8776       9.3433       3.9365       6.3222       3.5717
   1421.0300       9.3133       4.7920       9.4923       3.1980
   1421.1824       9.2620       5.8742      12.9895       5.2499
   1421.3348       9.2549       8.6634       7.0209       7.1188
   1421.4872       9.2912       4.6634      13.4755       4.4059
   1421.6396       9.2935       7.9109       8.0578       5.3161
   1421.7920       9.2822       4.8020       8.2828       4.1546
   1421.9445       9.2778       4.1881       6.7677       3.7723
   1422.0968       9.2969       7.0876      17.9132       6.4546
   1422.2491       9.3128       9.7588       7.6962       7.7129
   1422.4016       9.2867       4.9775       8.5927       4.3267
   1422.5540       9.2551       5.3168      10.4203       4.5839
   1422.7064       9.2973       4.3861       6.8301       4.0058
   1422.8588       9.2343       5.6236       7.9841       4.3582
   1423.0112       9.2214       6.4820       7.5561       3.6770
   1423.1636       9.2773       4.2781      13.0630       3.8585
   1423.3160       9.2761       8.6568      24.9312       7.1745
   1423.4684       9.2570      10.2366      16.6444       9.9307
