~Version Information
VERS  .          2.0                                   :CWLS Log Ascii Standard - Version 2.0
WRAP  .          NO                                    :One line per depth step
~Well Information Block
#MNEM.UNIT       Data Type                             Information
#---------       ---------                             -------------------------------
STRT  .M         800.0000                              :PROFUNDIDAD INICIAL
STOP  .M         1845.0000                             :PROFUNDIDAD FINAL
STEP  .M         0.1524                                :INCREMENTO
NULL  .          -999.2500                             :VALOR NULO 
COMP  .          PETROLEOS MEXICANOS                   :COMPANIA
WELL  .          ABEDUL-1                              :NOMBRE DEL POZO 
FLD   .          ABEDUL                                :CAMPO 
STAT  .          VERACRUZ                              :ESTADO
CNTY  .          COATZINTLA                            :MUNICIPIO
CTRY  .          MEXICO                                :PAIS
DATE  .          04-MAR-79                             :FECHA
UWI   .          1030022740                            :VALOR UNICO DEL POZO
SRVC  .          PEMEX                                 :COMPANIA DE SERVICIOS
~Parameter Information Block
#MNEM.UNIT       Value                                 Description
#---------       ---------                             -------------
FL.              X=                                    :LOCALIZACION DEL CAMPO
FL1.             Y=                                    :LOCALIZACION DEL CAMPO
PDAT.            NIVEL DEL TERRENO                     :DATO PERMANENTE
EPD.M            135.10                                :ELEVACION DEL DATO PERMANENTE
APD.M            4.18                                  :DIFERENCIA ENTRE MR Y NIVEL DE TERRENO
EKB.M            139.58                                :ELEVACION DEL KELLY BUSHING
EDF.M            139.28                                :ELEVACION DE LA MESA ROTARIA
EGL.M            135.10                                :ELEVACION DEL TERRENO
ELZ.M            139.28                                :ELEVACION DEL CERO DE REFERENCIA
LMF.             MESA ROTARIA                          :REGISTRO MEDIDO DESDE
DMF.             MESA ROTARIA                          :PROFUNDIDAD MEDIDA DESDE
SECT.            DISTRITO POZA RICA                    :NOMBRE DEL SECTOR
CN.              PETROLEOS MEXICANOS                   :NOMBRE DE LA COMPANIA
LATI.            Y=78,766.87 M.                        :LATITUD
LONG.            X=119,309.85 M.                       :LONGITUD
NATI.            MEXICO                                :NACION
RANG.            ZONA NORTE                            :NOMBRE DE LA ZONA
SLAB.            ESTADO                                :ESTADO 
STAT.            VERACRUZ                              :NOMBRE DEL ESTADO
CLAB.            MUNICIPIO                             :ETIQUETA DEL MUNICIPIO
COUN.            COATZINTLA                            :NOMBRE DEL MUNICIPIO
SRVC.            REGISTRO  MLL  1:500                  :NOMBRE DEL SERVICIO
DATE.            04-MAR-79                             :FECHA DEL SERVICIO
BLI.M            1845.0000                             :PRIMERA LECTURA
TLI.M            800.0000                              :ULTIMA LECTURA
QCEN.            ELVIS LUNA GARCIA                     :NOMBRE DEL INGENIERO DEL CONTROL DE CALIDAD DEL REGISTRO
DLQC.            02-APR-2009                           :FECHA DEL CONTROL DE CALIDAD DEL REGISTRO
CBL1.M           291.0                                 :ZAPATA SCHLUMBERGER
CBD1.M           300.0                                 :ZAPATA PERFORACION
TDL.M            1845.0                                :PROFUNDIDAD REGISTRO
TDD.M            1851.0                                :PROFUNDIDAD PERFORADOR
DFT.             SODICO                                :TIPO DE LODO
DFD.G/C3         1.25                                  :DENSIDAD DE LODO
DFV.S            45                                    :VISCOSIDAD DEL LODO
DFPH.            8.6                                   :PH DEL LODO
DFL.C3           N.R.                                  :PERDIDA DE LODO
MSS.             PRESA                                 :FUENTE DE LA MUESTRA DE LODO
RMS.ohm.m        1.8                                   :RESISTIVIDAD DE LODO
MST.DEGC         29                                    :TEMPERATURA DE LA MUESTRA DE LODO
MFSS.            PRENSA                                :FUENTE DEL FILTRADO DE LODO
RMFS.ohm.m       N.R.                                  :RESISTIVIDAD DEL FILTRADO
MFST.DEGC        N.R.                                  :TEMPERATURA DEL FILTRADO
MCSS.            PRENSA                                :FUENTE DEL ENJARRE DE LODO
RMCS.ohm.m       N.R.                                  :RESISTIVIDAD DEL ENJARRE DE LODO
MCST.DEGC        N.R.                                  :TEMPERATURA DEL ENJARRE
BSAL.PPM         N.R.                                  :SALINIDAD DEL LODO
TCS.             N.R.                                  :HORA EN QUE PARO CIRCULACION
STEM.DEGC        N.R.                                  :TEMPERATURA DE SUPERFICIE
BHT.DEGC         70                                    :TEMPERATURA DE FONDO
MRT.DEGC         70                                    :MAXIMA TEMPERATURA REGISTRADA
BS.IN            8.5                                   :DIAMETRO DE BARRENA
CSIZ.IN          9.625                                 :DIAMETRO DE T.R.
CWEI.lbm/ft      N.R.                                  :PESO DE LA T.R.
CTD1.M           300.0                                 :FONDO DE LA T.R. DEL PERFORADOR
CTL1.M           291.0                                 :FONDO DE LA T.R. DEL REGISTRO
ENGI.            DANIEL ORDONEZ                        :NOMBRE DEL INGENIERO
WITN.            RAFAEL SANDOVAL C.                    :NOMBRE DEL TESTIGO
LUN.             8-A                                   :NUMERO DE LA UNIDAD
RUN.             UNO                                   :NUMERO DE LA CORRIDA
OS1.             N.R.                                  :SERVICIOS
HIDE.            REGISTRO MICROLOG-MICROLATEROLOG      :NOMBRE DEL SERVICIO
HID1.            1:500                                 :NOMBRE DEL SERVICIO
LUL.             N.R.                                  :LUGAR DE LA UNIDAD
R1.              POZA RICA                             :Remarks 1
R2.                                                    :Remarks 2
R3.                                                    :Remarks 3
R4.      TRACK1    DIAMETRO DE AGUJERO                 :Remarks 4
R5.                      CALI                          :Remarks 5
R6.                       IN                           :Remarks 6
R7.               6"_______________16"                 :Remarks 7
R8.                                                    :Remarks 8
R9.                   RESISTIVIDAD                     :Remarks 9
R10.                                                   :Remarks 10
R11.                   MINV 1"X1"                      :Remarks 11
R12.                   OHMS.M2/M                       :Remarks 12
R13.              10_______________0                   :Remarks 13
R14.                                                   :Remarks 14
R15.                    MNOR 2"                        :Remarks 15
R16.                   OHMS.M2/M                       :Remarks 16
R17.              10_______________0                   :Remarks 17
R18.                                                   :Remarks 18
R19.  TRACK2          RESISTIVIDAD                     :Remarks 19
R20.                      MLL                          :Remarks 20
R21.                   OHMS-M2/M                       :Remarks 21
R22.             0.2_______________2000                :Remarks 22
R23.                                                   :Remarks 23
R24.                                                   :Remarks 24
R25. RM  A T.F.= 1.0 A 70 DEGC                         :Remarks 25
R26. RMF A T.F.= 0.75 A 70 DEGC                        :Remarks 26
R27. RMC A T.F.= 1.0 A 70 DEGC                         :Remarks 27
R28.                                                   :Remarks 28
R29.                                                   :Remarks 29
R30.                                                   :Remarks 30
~Curve Information Block
#MNEM.UNIT       API Code            Curve    Description
#--------        --------------      -----    -------------------
DEPT  .M                             :0       Index
CALI  .IN                            :1       Caliper                       
MINV  .OHMM                          :2       Micro Inverse Resistivity     
MLL   .OHMM                          :3       Microlaterolog Resistivity    
MNOR  .OHMM                          :4       Micro Normal Resistivity      
~Ascii Data Section
# ...
    932.2832      11.2291       2.0099       2.4834       1.7327
    932.4356      11.2291       2.1485       2.4176       1.8119
    932.5880      11.2267       1.9505       2.4186       1.7129
    932.7404      11.2191       2.2252       2.4647       1.7094
    932.8928      11.2115       2.1434       2.5569       1.7702
    933.0452      11.2134       2.4059       2.8286       1.8515
    933.1976      11.2198       2.5050       2.6770       1.9505
    933.3500      11.2261       2.1683       2.5805       1.7822
    933.5024      11.2321       2.3267       2.8847       1.8524
    933.6548      11.2378       2.5644       2.8037       2.0094
    933.8072      11.2436       2.2475       2.7510       1.9706
    933.9596      11.2489       2.7426       2.9077       1.9109
    934.1120      11.2490       2.5248       2.7266       2.0099
    934.2644      11.2490       2.3663       2.8283       2.0099
    934.4168      11.2490       2.4653       2.7038       1.9109
    934.5692      11.2436       2.2475       2.8820       1.9109
    934.7216      11.2302       2.5446       2.8807       1.9703
    934.8740      11.2170       2.6238       2.9922       1.9758
    935.0264      11.2093       2.2871       2.7266       1.8913
    935.1788      11.2091       2.3663       2.6525       1.8911
    935.3312      11.2092       2.2871       2.6525       1.8317
    935.4836      11.2092       2.3652       2.6283       1.8317
    935.6360      11.2092       2.1523       2.7892       1.8911
    935.7884      11.2092       2.5253       2.9370       1.9505
    935.9408      11.2091       2.4455       2.9086       1.9703
    936.0932      11.2126       2.6238       3.0191       2.1485
    936.2456      11.2173       2.3861       2.6084       2.0572
    936.3980      11.2220       2.0495       2.2692       1.8537
    936.5504      11.2266       1.8416       2.3541       1.5966
    936.7028      11.2256       2.0495       2.4647       1.5149
    936.8552      11.2185       1.8515       2.5103       1.5743
    937.0076      11.2112       1.7723       2.4647       1.5743
    937.1600      11.2131       1.9901       2.4874       1.5149
    937.3124      11.2186       1.8911       2.5335       1.6139
    937.4648      11.2242       2.0691       2.6043       1.6733
    937.6172      11.2286       2.0073       2.7266       1.7141
    937.7696      11.2229       2.0297       2.9889       1.7351
    937.9220      11.2173       2.5842       2.9345       1.8138
    938.0744      11.2118       2.1485       2.8286       1.7542
    938.2268      11.2124       2.0379       3.1582       1.7525
    938.3792      11.2184       2.1838       2.9345       1.9109
    938.5316      11.2246       2.3361       3.1007       1.9703
    938.6840      11.2291       2.6040       2.8547       1.9342
    938.8364      11.2291       2.2673       2.9345       1.9742
    938.9888      11.2292       2.6832       2.8547       2.0721
    939.1412      11.2278       2.5842       2.7017       2.1709
    939.2936      11.1676       2.5644       2.8028       2.1517
    939.4460      11.0577       2.6832       2.8547       2.3476
    939.5984      10.9301       3.2574       2.7772       2.3046
    939.7508      10.8682       2.6793       2.7266       2.1941
    939.9032      10.8507       3.0594       2.5335       2.4059
    940.0556      10.8505       2.4653       2.6043       2.0891
    940.2080      10.8506       2.6032       2.7017       2.0891
    940.3604      10.8506       2.5246       2.8811       2.1683
    940.5128      10.8506       2.9211       3.1293       2.3069
    940.6652      10.8506       3.0990       2.9615       2.5248
    940.8176      10.8506       2.5842       2.7017       2.3267
    940.9700      10.8506       2.3991       2.6283       2.1290
    941.1224      10.8517       3.0085       2.6043       2.1697
    941.2748      10.8561       2.6452       2.5805       2.1288
    941.4272      10.8605       2.6999       2.8547       2.3855
    941.5796      10.8648       3.3045       2.9345       2.7030
    941.7320      10.8692       4.2186       2.5569       1.7723
    941.8844      10.8738       2.0099       2.6404       1.8713
    942.0368      10.8785       2.9802       2.6770       2.0693
    942.1892      10.8832       2.2079       2.5586       2.0891
    942.3416      10.8878       2.3663       2.3726       1.9505
    942.4940      10.8884       2.0297       2.3977       1.7921
    942.6464      10.8839       2.6238       2.5569       2.1089
    942.7988      10.8794       2.1881       2.5103       2.0297
    942.9512      10.8748       2.4257       2.4647       1.8515
    943.1036      10.8706       2.1683       2.5805       1.7129
    943.2560      10.8705       2.3861       2.6525       1.9901
    943.4084      10.8705       2.3663       2.7282       2.0676
    943.5608      10.8705       2.5842       2.7259       2.0279
    943.7132      10.8705       2.3663       2.6770       2.0692
    943.8656      10.8705       2.5842       2.6043       1.8896
    944.0180      10.8705       2.8020       2.9077       2.0259
    944.1704      10.8705       2.4956       2.7518       2.1089
    944.3228      10.8705       2.2475       2.6283       1.9307
    944.4752      10.8705       2.2871       2.5335       1.7525
    944.6276      10.8725       2.0269       2.8547       1.7129
    944.7800      10.8757       2.6975       2.6040       1.9703
    944.9324      10.8790       2.2475       2.6529       2.0442
    945.0848      10.8823       2.0495       2.6540       1.6719
    945.2372      10.8857       2.1683       2.5302       1.7487
    945.3896      10.8890       1.8911       2.9615       1.8911
    945.5420      10.8904       2.7624       2.8286       2.2277
    945.6944      10.8904       1.9307       2.4421       1.7920
    945.8468      10.8904       2.1881       2.6283       1.6266
    945.9992      10.8904       2.5199       3.3046       2.0414
    946.1516      10.8904       3.3366       2.9436       2.1727
    946.3040      10.8904       2.3267       2.9703       2.0884
    946.4564      10.8904       2.3070       2.8840       2.1485
    946.6088      10.8904       2.4633       3.3090       1.9703
    946.7612      10.8904       3.0767       3.3420       2.5050
    946.9136      10.8904       3.6475       3.0723       2.3861
    947.0660      10.8904       2.6212       3.0723       2.1287
    947.2184      10.8892       2.8262       3.2157       2.1914
    947.3708      10.8856       3.6499       3.3276       2.3499
    947.5232      10.8820       2.4844       2.9297       2.5633
    947.6756      10.8784       2.9208       2.9623       2.1080
    947.8280      10.8748       2.9604       2.9345       2.1900
    947.9804      10.8713       2.2871       2.8286       2.1310
    948.1328      10.8594       2.9802       2.9342       2.0099
    948.2852      10.8455       2.1881       2.7302       2.2079
    948.4376      10.8347       2.7030       2.8049       1.9694
    948.5900      10.7198       2.3267       2.6770       2.1290
    948.7424      10.6100       2.7030       2.6283       2.0702
    948.8948      10.5696       2.2673       2.7536       1.9681
    949.0472      10.5719       2.9406       2.8286       2.1815
    949.1996      10.5770       2.4455       2.7518       2.1683
    949.3520      10.5872       2.7030       2.8811       2.1485
    949.5044      10.5967       3.0396       2.8286       2.3465
    949.6568      10.6054       2.7822       2.9077       2.3855
    949.8092      10.6047       2.7822       3.0164       2.3053
    949.9616      10.5798       3.0198       3.0723       2.4262
    950.1140      10.5675       2.6436       2.8228       2.2871
    950.2664      10.5611       3.2964       3.1124       2.8614
    950.4188      10.5549       4.3267       3.9974       2.0099
    950.5712      10.5518       2.0693       2.8554       2.0891
    950.7236      10.5565       2.4653       3.1608       2.2673
    950.8760      10.5634       3.1584       3.1599       2.2475
    951.0284      10.5703       2.3465       2.7258       2.1683
