~Version Information
VERS  .          2.0                                   :CWLS Log Ascii Standard - Version 2.0
WRAP  .          NO                                    :One line per depth step
~Well Information Block
#MNEM.UNIT       Data Type                             Information
#---------       ---------                             -------------------------------
STRT  .M         800.0000                              :PROFUNDIDAD INICIAL
STOP  .M         1845.0000                             :PROFUNDIDAD FINAL
STEP  .M         0.1524                                :INCREMENTO
NULL  .          -999.2500                             :VALOR NULO 
COMP  .          PETROLEOS MEXICANOS                   :COMPANIA
WELL  .          ABEDUL-1                              :NOMBRE DEL POZO 
FLD   .          ABEDUL                                :CAMPO 
STAT  .          VERACRUZ                              :ESTADO
CNTY  .          COATZINTLA                            :MUNICIPIO
CTRY  .          MEXICO                                :PAIS
DATE  .          04-MAR-79                             :FECHA
UWI   .          1030022740                            :VALOR UNICO DEL POZO
SRVC  .          PEMEX                                 :COMPANIA DE SERVICIOS
~Parameter Information Block
#MNEM.UNIT       Value                                 Description
#---------       ---------                             -------------
FL.              X=                                    :LOCALIZACION DEL CAMPO
FL1.             Y=                                    :LOCALIZACION DEL CAMPO
PDAT.            NIVEL DEL TERRENO                     :DATO PERMANENTE
EPD.M            135.10                                :ELEVACION DEL DATO PERMANENTE
APD.M            4.18                                  :DIFERENCIA ENTRE MR Y NIVEL DE TERRENO
EKB.M            139.58                                :ELEVACION DEL KELLY BUSHING
EDF.M            139.28                                :ELEVACION DE LA MESA ROTARIA
EGL.M            135.10                                :ELEVACION DEL TERRENO
ELZ.M            139.28                                :ELEVACION DEL CERO DE REFERENCIA
LMF.             MESA ROTARIA                          :REGISTRO MEDIDO DESDE
DMF.             MESA ROTARIA                          :PROFUNDIDAD MEDIDA DESDE
SECT.            DISTRITO POZA RICA                    :NOMBRE DEL SECTOR
CN.              PETROLEOS MEXICANOS                   :NOMBRE DE LA COMPANIA
LATI.            Y=78,766.87 M.                        :LATITUD
LONG.            X=119,309.85 M.                       :LONGITUD
NATI.            MEXICO                                :NACION
RANG.            ZONA NORTE                            :NOMBRE DE LA ZONA
SLAB.            ESTADO                                :ESTADO 
STAT.            VERACRUZ                              :NOMBRE DEL ESTADO
CLAB.            MUNICIPIO                             :ETIQUETA DEL MUNICIPIO
COUN.            COATZINTLA                            :NOMBRE DEL MUNICIPIO
SRVC.            REGISTRO  MLL  1:500                  :NOMBRE DEL SERVICIO
DATE.            04-MAR-79                             :FECHA DEL SERVICIO
BLI.M            1845.0000                             :PRIMERA LECTURA
TLI.M            800.0000                              :ULTIMA LECTURA
QCEN.            ELVIS LUNA GARCIA                     :NOMBRE DEL INGENIERO DEL CONTROL DE CALIDAD DEL REGISTRO
DLQC.            02-APR-2009                           :FECHA DEL CONTROL DE CALIDAD DEL REGISTRO
CBL1.M           291.0                                 :ZAPATA SCHLUMBERGER
CBD1.M           300.0                                 :ZAPATA PERFORACION
TDL.M            1845.0                                :PROFUNDIDAD REGISTRO
TDD.M            1851.0                                :PROFUNDIDAD PERFORADOR
DFT.             SODICO                                :TIPO DE LODO
DFD.G/C3         1.25                                  :DENSIDAD DE LODO
DFV.S            45                                    :VISCOSIDAD DEL LODO
DFPH.            8.6                                   :PH DEL LODO
DFL.C3           N.R.                                  :PERDIDA DE LODO
MSS.             PRESA                                 :FUENTE DE LA MUESTRA DE LODO
RMS.ohm.m        1.8                                   :RESISTIVIDAD DE LODO
MST.DEGC         29                                    :TEMPERATURA DE LA MUESTRA DE LODO
MFSS.            PRENSA                                :FUENTE DEL FILTRADO DE LODO
RMFS.ohm.m       N.R.                                  :RESISTIVIDAD DEL FILTRADO
MFST.DEGC        N.R.                                  :TEMPERATURA DEL FILTRADO
MCSS.            PRENSA                                :FUENTE DEL ENJARRE DE LODO
RMCS.ohm.m       N.R.                                  :RESISTIVIDAD DEL ENJARRE DE LODO
MCST.DEGC        N.R.                                  :TEMPERATURA DEL ENJARRE
BSAL.PPM         N.R.                                  :SALINIDAD DEL LODO
TCS.             N.R.                                  :HORA EN QUE PARO CIRCULACION
STEM.DEGC        N.R.                                  :TEMPERATURA DE SUPERFICIE
BHT.DEGC         70                                    :TEMPERATURA DE FONDO
MRT.DEGC         70                                    :MAXIMA TEMPERATURA REGISTRADA
BS.IN            8.5                                   :DIAMETRO DE BARRENA
CSIZ.IN          9.625                                 :DIAMETRO DE T.R.
CWEI.lbm/ft      N.R.                                  :PESO DE LA T.R.
CTD1.M           300.0                                 :FONDO DE LA T.R. DEL PERFORADOR
CTL1.M           291.0                                 :FONDO DE LA T.R. DEL REGISTRO
ENGI.            DANIEL ORDONEZ                        :NOMBRE DEL INGENIERO
WITN.            RAFAEL SANDOVAL C.                    :NOMBRE DEL TESTIGO
LUN.             8-A                                   :NUMERO DE LA UNIDAD
RUN.             UNO                                   :NUMERO DE LA CORRIDA
OS1.             N.R.                                  :SERVICIOS
HIDE.            REGISTRO MICROLOG-MICROLATEROLOG      :NOMBRE DEL SERVICIO
HID1.            1:500                                 :NOMBRE DEL SERVICIO
LUL.             N.R.                                  :LUGAR DE LA UNIDAD
R1.              POZA RICA                             :Remarks 1
R2.                                                    :Remarks 2
R3.                                                    :Remarks 3
R4.      TRACK1    DIAMETRO DE AGUJERO                 :Remarks 4
R5.                      CALI                          :Remarks 5
R6.                       IN                           :Remarks 6
R7.               6"_______________16"                 :Remarks 7
R8.                                                    :Remarks 8
R9.                   RESISTIVIDAD                     :Remarks 9
R10.                                                   :Remarks 10
R11.                   MINV 1"X1"                      :Remarks 11
R12.                   OHMS.M2/M                       :Remarks 12
R13.              10_______________0                   :Remarks 13
R14.                                                   :Remarks 14
R15.                    MNOR 2"                        :Remarks 15
R16.                   OHMS.M2/M                       :Remarks 16
R17.              10_______________0                   :Remarks 17
R18.                                                   :Remarks 18
R19.  TRACK2          RESISTIVIDAD                     :Remarks 19
R20.                      MLL                          :Remarks 20
R21.                   OHMS-M2/M                       :Remarks 21
R22.             0.2_______________2000                :Remarks 22
R23.                                                   :Remarks 23
R24.                                                   :Remarks 24
R25. RM  A T.F.= 1.0 A 70 DEGC                         :Remarks 25
R26. RMF A T.F.= 0.75 A 70 DEGC                        :Remarks 26
R27. RMC A T.F.= 1.0 A 70 DEGC                         :Remarks 27
R28.                                                   :Remarks 28
R29.                                                   :Remarks 29
R30.                                                   :Remarks 30
~Curve Information Block
#MNEM.UNIT       API Code            Curve    Description
#--------        --------------      -----    -------------------
DEPT  .M                             :0       Index
CALI  .IN                            :1       Caliper                       
MINV  .OHMM                          :2       Micro Inverse Resistivity     
MLL   .OHMM                          :3       Microlaterolog Resistivity    
MNOR  .OHMM                          :4       Micro Normal Resistivity      
~Ascii Data Section
# ...
    875.5904       9.7949       1.2564       1.5575       1.1386
    875.7428       9.7115       1.3950       1.5011       1.1188
    875.8952       9.6199       1.3554       1.4603       1.1188
    876.0476       9.6201       1.2740       1.5296       1.2178
    876.2000       9.6342       1.3452       1.8203       1.4950
    876.3524       9.6351       1.8307       2.0138       2.0297
    876.5048       9.6022       1.5931       1.8541       1.7327
    876.6572       9.5449       1.3752       1.5430       1.2574
    876.8096       9.5110       1.2894       1.4065       1.1760
    876.9620       9.5012       1.1423       1.4195       1.0366
    877.1144       9.4910       1.0379       1.3337       1.0391
    877.2668       9.4796       1.0169       1.2841       1.0396
    877.4192       9.4881       1.1374       1.3569       1.0396
    877.5716       9.5035       1.1970       1.3820       1.0384
    877.7240       9.5225       1.0584       1.2484       0.9785
    877.8764       9.5864       1.0584       1.2607       1.0167
    878.0288       9.5472       1.1408       1.2378       1.0579
    878.1812       9.4301       1.1608       1.3079       1.0180
    878.3336       9.3444       1.0207       1.0687       0.9208
    878.4860       9.3580       0.9801       1.1189       0.9010
    878.6384       9.5398       0.9607       1.1823       0.9208
    878.7908       9.9117       0.9792       1.2836       0.9604
    878.9432       9.9291       0.9594       1.4213       0.9802
    879.0956       9.8046       1.0386       1.6602       0.9802
    879.2480       9.7114       1.0988       1.2940       1.0594
    879.4004       9.6930       1.0981       1.2395       1.0198
    879.5528       9.7582       1.0980       1.2960       0.9406
    879.7052       9.9008       1.1376       1.3820       0.9802
    879.8576      10.0279       1.2564       1.5355       1.0990
    880.0100      10.0922       1.2762       1.7203       1.1980
    880.1624       9.9397       1.3356       1.5558       1.2574
    880.3148       9.8675       1.2758       1.5141       1.2574
    880.4672       9.7768       1.3571       1.4738       1.2970
    880.6196       9.5309       1.4171       1.5289       1.3564
    880.7720       8.9452       1.4743       1.6646       1.2178
    880.9244       8.4083       1.2168       1.6289       1.0990
    881.0768       8.4334       1.1970       1.6300       1.0997
    881.2292       8.5785       1.1772       1.8037       1.1584
    881.3816       8.7321       1.6723       1.9059       1.2549
    881.5340       8.8350       1.4347       1.6304       1.2178
    881.6864       8.8874       1.1970       1.6469       1.1188
    881.8388       8.9593       1.3554       1.6133       1.2376
    881.9912       9.0409       1.6921       1.7228       1.4356
    882.1436       9.1303       1.2960       1.6606       1.2772
    882.2960       9.2310       1.1673       1.6923       1.1300
    882.4484       9.3621       1.2168       1.6445       1.0775
    882.6008       9.4927       1.0980       1.5874       1.2360
    882.7532       9.5842       1.1970       1.6155       1.0990
    882.9056       9.6791       1.4848       1.6606       1.0594
    883.0580       9.7384       3.3048       1.6454       1.0396
    883.2104       9.8213       5.0188       1.6304       2.5874
    883.3628       9.9717       0.8406       1.6914       0.8839
    883.5152      10.0343       0.9792       1.6155       1.0416
    883.6676      10.0335       1.1178       1.4076       1.0011
    883.8200      10.0491       0.9396       1.4902       0.8435
    883.9724      10.0913       1.0387       1.6599       1.0198
    884.1248      10.1103       1.2376       1.7228       1.1584
    884.2772      10.0984       1.1414       1.5861       1.0252
    884.4296      10.1295       1.0174       1.6759       0.9010
    884.5820      10.1371       1.0979       1.7387       1.0000
    884.7344      10.1504       1.0973       1.5861       1.0198
    884.8868      10.1331       1.1349       1.5289       1.0000
    885.0392      10.1332       1.1772       1.4469       0.9794
    885.1916      10.1498       1.1178       1.5430       0.9612
    885.3440      10.1924       1.1970       1.5861       1.0030
    885.4964      10.1896       1.0782       1.5551       1.0588
    885.6488      10.1731       1.1970       1.6316       0.9978
    885.8012      10.1810       1.0584       1.6155       0.9802
    885.9536      10.1931       1.0584       1.7547       0.9406
    886.1060      10.1832       1.1772       1.7872       1.0198
    886.2584      10.1584       1.0980       1.6908       1.0198
    886.4108      10.1439       1.0782       1.6918       1.0198
    886.5632      10.1332       1.0980       1.5861       1.0198
    886.7156      10.1334       1.1187       1.6155       1.0000
    886.8680      10.1491       1.0792       1.6007       0.9802
    887.0204      10.1549       1.1376       1.6606       1.0396
    887.1728      10.1340       1.1574       1.7070       1.0594
    887.3252      10.1330       1.1444       1.6454       1.0594
    887.4776      10.1495       1.1800       1.5149       1.0594
    887.6300      10.2027       1.1192       1.5430       1.0198
    887.7824      10.3327       1.0980       1.6155       1.0000
    887.9348      10.4745       1.1178       1.7709       1.0000
    888.0872      10.5709       1.1772       2.0511       1.0990
    888.2396      10.5721       1.3950       2.2692       1.2955
    888.3920      10.5586       1.7515       2.2075       1.5150
    888.5444      10.5316       1.6129       1.9954       1.5171
    888.6968      10.5531       1.4149       1.8037       1.3762
    888.8492      10.5516       1.3752       1.9323       1.2772
    889.0016      10.5518       1.7131       1.9234       1.3366
    889.1540      10.5549       1.5732       1.9954       1.5347
    889.3064      10.5588       1.7915       2.0511       1.6733
    889.4588      10.5627       1.5535       2.1279       1.5925
    889.6112      10.5666       1.9495       2.1873       1.5950
    889.7636      10.5706       2.0711       2.0324       1.7746
    889.9160      10.5680       1.8900       2.0701       1.7124
    890.0684      10.5624       1.6929       2.1084       1.5335
    890.2208      10.5569       1.7317       2.0138       1.5545
    890.3732      10.5518       1.8307       1.8037       1.5941
    890.5256      10.5518       1.6922       1.9377       1.4407
    890.6780      10.5518       1.5334       2.0935       1.4779
    890.8304      10.5518       1.7141       2.0488       1.5556
    890.9828      10.5518       1.9891       1.9059       1.4752
    891.1352      10.5517       1.6129       1.8541       1.3366
    891.2876      10.5532       1.3158       2.0138       1.2970
    891.4400      10.5627       1.6723       2.1873       1.4752
    891.5924      10.5716       1.5535       2.2279       1.5347
    891.7448      10.5717       2.0881       2.0324       1.4950
    891.8972      10.5717       1.9099       1.8884       1.8119
    892.0496      10.5717       1.8307       1.8037       1.5941
    892.2020      10.5717       1.6411       2.0701       1.4554
    892.3544      10.5717       1.5401       2.2279       1.6337
    892.5068      10.5717       2.2065       2.1947       1.9164
    892.6592      10.5717       1.7119       2.1475       1.9271
    892.8116      10.5680       1.9297       2.2075       1.7314
    892.9640      10.5622       2.3455       2.2071       1.9307
    893.1164      10.5563       2.1475       2.1706       1.7921
    893.2688      10.5527       2.2069       1.9790       2.0495
    893.4212      10.5588       1.8122       1.9412       1.8317
    893.5736      10.5645       1.8954       2.1673       1.6337
    893.7260      10.5705       2.1871       2.2484       1.7921
    893.8784      10.5718       2.0287       1.9591       1.7921
    894.0308      10.5717       1.7317       2.0892       1.6139
    894.1832      10.5717       1.7306       2.2279       1.6535
    894.3356      10.5709       2.0716       2.0701       1.8119
