~Version Information
VERS  .          2.0                                   :CWLS Log Ascii Standard - Version 2.0
WRAP  .          NO                                    :One line per depth step
~Well Information Block
#MNEM.UNIT       Data Type                             Information
#---------       ---------                             -------------------------------
STRT  .M         800.0000                              :PROFUNDIDAD INICIAL
STOP  .M         1845.0000                             :PROFUNDIDAD FINAL
STEP  .M         0.1524                                :INCREMENTO
NULL  .          -999.2500                             :VALOR NULO 
COMP  .          PETROLEOS MEXICANOS                   :COMPANIA
WELL  .          ABEDUL-1                              :NOMBRE DEL POZO 
FLD   .          ABEDUL                                :CAMPO 
STAT  .          VERACRUZ                              :ESTADO
CNTY  .          COATZINTLA                            :MUNICIPIO
CTRY  .          MEXICO                                :PAIS
DATE  .          04-MAR-79                             :FECHA
UWI   .          1030022740                            :VALOR UNICO DEL POZO
SRVC  .          PEMEX                                 :COMPANIA DE SERVICIOS
~Parameter Information Block
#MNEM.UNIT       Value                                 Description
#---------       ---------                             -------------
FL.              X=                                    :LOCALIZACION DEL CAMPO
FL1.             Y=                                    :LOCALIZACION DEL CAMPO
PDAT.            NIVEL DEL TERRENO                     :DATO PERMANENTE
EPD.M            135.10                                :ELEVACION DEL DATO PERMANENTE
APD.M            4.18                                  :DIFERENCIA ENTRE MR Y NIVEL DE TERRENO
EKB.M            139.58                                :ELEVACION DEL KELLY BUSHING
EDF.M            139.28                                :ELEVACION DE LA MESA ROTARIA
EGL.M            135.10                                :ELEVACION DEL TERRENO
ELZ.M            139.28                                :ELEVACION DEL CERO DE REFERENCIA
LMF.             MESA ROTARIA                          :REGISTRO MEDIDO DESDE
DMF.             MESA ROTARIA                          :PROFUNDIDAD MEDIDA DESDE
SECT.            DISTRITO POZA RICA                    :NOMBRE DEL SECTOR
CN.              PETROLEOS MEXICANOS                   :NOMBRE DE LA COMPANIA
LATI.            Y=78,766.87 M.                        :LATITUD
LONG.            X=119,309.85 M.                       :LONGITUD
NATI.            MEXICO                                :NACION
RANG.            ZONA NORTE                            :NOMBRE DE LA ZONA
SLAB.            ESTADO                                :ESTADO 
STAT.            VERACRUZ                              :NOMBRE DEL ESTADO
CLAB.            MUNICIPIO                             :ETIQUETA DEL MUNICIPIO
COUN.            COATZINTLA                            :NOMBRE DEL MUNICIPIO
SRVC.            REGISTRO  MLL  1:500                  :NOMBRE DEL SERVICIO
DATE.            04-MAR-79                             :FECHA DEL SERVICIO
BLI.M            1845.0000                             :PRIMERA LECTURA
TLI.M            800.0000                              :ULTIMA LECTURA
QCEN.            ELVIS LUNA GARCIA                     :NOMBRE DEL INGENIERO DEL CONTROL DE CALIDAD DEL REGISTRO
DLQC.            02-APR-2009                           :FECHA DEL CONTROL DE CALIDAD DEL REGISTRO
CBL1.M           291.0                                 :ZAPATA SCHLUMBERGER
CBD1.M           300.0                                 :ZAPATA PERFORACION
TDL.M            1845.0                                :PROFUNDIDAD REGISTRO
TDD.M            1851.0                                :PROFUNDIDAD PERFORADOR
DFT.             SODICO                                :TIPO DE LODO
DFD.G/C3         1.25                                  :DENSIDAD DE LODO
DFV.S            45                                    :VISCOSIDAD DEL LODO
DFPH.            8.6                                   :PH DEL LODO
DFL.C3           N.R.                                  :PERDIDA DE LODO
MSS.             PRESA                                 :FUENTE DE LA MUESTRA DE LODO
RMS.ohm.m        1.8                                   :RESISTIVIDAD DE LODO
MST.DEGC         29                                    :TEMPERATURA DE LA MUESTRA DE LODO
MFSS.            PRENSA                                :FUENTE DEL FILTRADO DE LODO
RMFS.ohm.m       N.R.                                  :RESISTIVIDAD DEL FILTRADO
MFST.DEGC        N.R.                                  :TEMPERATURA DEL FILTRADO
MCSS.            PRENSA                                :FUENTE DEL ENJARRE DE LODO
RMCS.ohm.m       N.R.                                  :RESISTIVIDAD DEL ENJARRE DE LODO
MCST.DEGC        N.R.                                  :TEMPERATURA DEL ENJARRE
BSAL.PPM         N.R.                                  :SALINIDAD DEL LODO
TCS.             N.R.                                  :HORA EN QUE PARO CIRCULACION
STEM.DEGC        N.R.                                  :TEMPERATURA DE SUPERFICIE
BHT.DEGC         70                                    :TEMPERATURA DE FONDO
MRT.DEGC         70                                    :MAXIMA TEMPERATURA REGISTRADA
BS.IN            8.5                                   :DIAMETRO DE BARRENA
CSIZ.IN          9.625                                 :DIAMETRO DE T.R.
CWEI.lbm/ft      N.R.                                  :PESO DE LA T.R.
CTD1.M           300.0                                 :FONDO DE LA T.R. DEL PERFORADOR
CTL1.M           291.0                                 :FONDO DE LA T.R. DEL REGISTRO
ENGI.            DANIEL ORDONEZ                        :NOMBRE DEL INGENIERO
WITN.            RAFAEL SANDOVAL C.                    :NOMBRE DEL TESTIGO
LUN.             8-A                                   :NUMERO DE LA UNIDAD
RUN.             UNO                                   :NUMERO DE LA CORRIDA
OS1.             N.R.                                  :SERVICIOS
HIDE.            REGISTRO MICROLOG-MICROLATEROLOG      :NOMBRE DEL SERVICIO
HID1.            1:500                                 :NOMBRE DEL SERVICIO
LUL.             N.R.                                  :LUGAR DE LA UNIDAD
R1.              POZA RICA                             :Remarks 1
R2.                                                    :Remarks 2
R3.                                                    :Remarks 3
R4.      TRACK1    DIAMETRO DE AGUJERO                 :Remarks 4
R5.                      CALI                          :Remarks 5
R6.                       IN                           :Remarks 6
R7.               6"_______________16"                 :Remarks 7
R8.                                                    :Remarks 8
R9.                   RESISTIVIDAD                     :Remarks 9
R10.                                                   :Remarks 10
R11.                   MINV 1"X1"                      :Remarks 11
R12.                   OHMS.M2/M                       :Remarks 12
R13.              10_______________0                   :Remarks 13
R14.                                                   :Remarks 14
R15.                    MNOR 2"                        :Remarks 15
R16.                   OHMS.M2/M                       :Remarks 16
R17.              10_______________0                   :Remarks 17
R18.                                                   :Remarks 18
R19.  TRACK2          RESISTIVIDAD                     :Remarks 19
R20.                      MLL                          :Remarks 20
R21.                   OHMS-M2/M                       :Remarks 21
R22.             0.2_______________2000                :Remarks 22
R23.                                                   :Remarks 23
R24.                                                   :Remarks 24
R25. RM  A T.F.= 1.0 A 70 DEGC                         :Remarks 25
R26. RMF A T.F.= 0.75 A 70 DEGC                        :Remarks 26
R27. RMC A T.F.= 1.0 A 70 DEGC                         :Remarks 27
R28.                                                   :Remarks 28
R29.                                                   :Remarks 29
R30.                                                   :Remarks 30
~Curve Information Block
#MNEM.UNIT       API Code            Curve    Description
#--------        --------------      -----    -------------------
DEPT  .M                             :0       Index
CALI  .IN                            :1       Caliper                       
MINV  .OHMM                          :2       Micro Inverse Resistivity     
MLL   .OHMM                          :3       Microlaterolog Resistivity    
MNOR  .OHMM                          :4       Micro Normal Resistivity      
~Ascii Data Section
# ...
   1555.9041       9.9462       2.7426       3.0443       2.7228
   1556.0564       9.9890       2.0495       3.2763       2.3069
   1556.2087       9.9336       2.3663       3.8299       2.5050
   1556.3612       9.9697       2.6238       3.4938       2.8217
   1556.5135       9.9792       2.2871       4.0841       2.7449
   1556.6660       9.9329       2.4455       3.4619       2.7030
   1556.8184       9.9403       2.4455       4.5599       2.7822
   1556.9708      10.0011       2.3069       3.0443       2.6634
   1557.1232      10.0289       2.3069       3.2718       2.6436
   1557.2756       9.9065       1.9703       3.9339       2.7228
   1557.4280       9.8125       2.6040       3.2700       2.8218
   1557.5804       9.7417       2.5446       3.1582       2.6230
   1557.7328       9.7156       2.4653       2.9345       2.6614
   1557.8853       9.7418       2.4653       2.9077       2.6832
   1558.0376       9.7435       2.0891       3.3989       2.5050
   1558.1899       9.6534       2.3267       4.1598       2.3267
   1558.3424       9.5898       2.6832       3.9966       2.8020
   1558.4948       9.5755       2.4059       2.9273       2.6040
   1558.6472       9.6011       2.0891       3.3341       2.4059
   1558.7996       9.6577       2.1485       3.4619       2.1683
   1558.9520       9.6959       2.6832       3.2464       2.5248
   1559.1044       9.6819       2.5050       3.3065       2.7624
   1559.2568       9.6791       2.3069       3.0164       2.5050
   1559.4092       9.8093       2.3861       2.5569       2.4851
   1559.5616       9.8346       2.0693       2.3541       2.2873
   1559.7140       9.8343       2.0297       2.6283       2.2038
   1559.8665       9.8003       2.0891       2.9889       2.0693
   1560.0188       9.7643       2.4258       2.9615       2.4653
   1560.1711       9.7373       2.4074       2.4421       2.6832
   1560.3236       9.7150       1.8317       2.7772       2.3069
   1560.4760       9.7052       1.9307       3.2167       2.0099
   1560.6284       9.6956       1.8713       3.1007       2.1485
   1560.7808       9.6952       2.6040       3.3371       2.5050
   1560.9332       9.6952       2.9010       3.2167       2.6634
   1561.0856       9.6967       2.6832       2.5571       2.2277
   1561.2380       9.7102       2.2277       2.7029       2.0099
   1561.3904       9.7270       2.0495       3.4303       1.9505
   1561.5428       9.7453       2.4851       3.2763       2.4059
   1561.6952       9.7448       2.5842       2.5103       2.2079
   1561.8477       9.7148       1.8911       2.6391       1.8515
   1562.0000       9.6748       1.9901       4.2961       2.0099
   1562.1523       9.6550       2.9406       5.0327       2.6436
   1562.3048       9.7124       2.5660       2.7709       2.4653
   1562.4572       9.7024       2.1089       3.5281       2.0099
   1562.6096       9.6584       3.0990       2.7772       2.1485
   1562.7620       9.7155       2.3571       3.3989       2.2277
   1562.9144       9.7292       2.8020       2.5335       2.1287
   1563.0668       9.6804       2.1089       2.8028       1.9124
   1563.2192       9.5652       2.1683       3.6246       1.8269
   1563.3716       9.5133       2.1089       4.4360       2.4257
   1563.5240       9.5913       3.1386       3.3780       2.2871
   1563.6764       9.5424       2.2475       4.1423       2.0495
   1563.8289       9.5407       2.5248       4.1030       2.2475
   1563.9812       9.5906       2.6238       3.7362       2.0891
   1564.1335       9.5475       2.2079       2.5508       1.9109
   1564.2860       9.4676       2.3663       3.3065       1.9307
   1564.4384       9.5161       2.1485       2.6525       1.9505
   1564.5908       9.5101       2.7228       3.0443       1.9296
   1564.7432       9.4586       2.4455       3.6917       2.2831
   1564.8956       9.5379       2.6832       3.0723       2.0429
   1565.0480       9.5344       3.2657       3.9368       2.5294
   1565.2004       9.7691       3.4100       3.6917       2.8969
   1565.3528       9.8497       3.1188       3.9368       2.5644
   1565.5052       9.8747       2.6832       3.0723       2.4059
   1565.6576       9.8481       2.8416       3.9009       2.6238
   1565.8101       9.8706       2.5050       3.2464       2.3663
   1565.9624       9.7945       2.3267       3.6917       2.1683
   1566.1147       9.7340       3.0285       3.0831       2.7154
   1566.2672       9.7604       3.0601       3.2814       2.9208
   1566.4196       9.8153       3.2384       2.9077       2.6832
   1566.5720       9.8903       2.4257       2.6993       2.4833
   1566.7244       9.9384       2.9208       3.0769       2.2839
   1566.8768       9.8877       2.6238       2.8811       2.3225
   1567.0292       9.7985       2.3861       3.0164       2.1604
   1567.1816       9.7533       2.7228       2.8547       2.3719
   1567.3340       9.8558       2.1049       2.8524       1.9703
   1567.4865       9.8956       1.8906       2.6974       1.6337
   1567.6388       9.8890       2.3410       2.6538       1.8713
   1567.7913       9.8350       1.8517       2.9671       1.6662
   1567.9436       9.7693       2.2590       4.5599       2.1133
   1568.0959       9.7392       2.7822       4.4319       2.5842
   1568.2484       9.7480       2.7030       3.9692       2.6040
   1568.4008       9.7403       2.9010       4.9469       2.3853
   1568.5532       9.7761       3.0594       3.9732       2.3407
   1568.7056       9.8150       2.6832       3.1873       2.3724
   1568.8580       9.8156       2.2277       3.4619       1.9156
   1569.0104       9.8023       2.3465       2.5569       2.0071
   1569.1628       9.8695       2.4851       3.0164       2.0292
   1569.3152       9.8899       2.7052       2.9077       2.1485
   1569.4677       9.8033       2.2551       4.4769       2.0099
   1569.6200       9.7337       3.1185       3.4938       1.9505
   1569.7725       9.7357       2.9208       3.3065       2.6040
   1569.9248       9.7575       2.4851       3.0443       2.0655
   1570.0771       9.7095       2.2079       3.9009       2.1881
   1570.2296       9.6297       2.4653       3.3561       2.4653
   1570.3820       9.5783       2.1485       3.5643       1.9109
   1570.5344       9.5906       2.6040       2.5103       2.1089
   1570.6868       9.5832       2.3861       2.4421       2.1089
   1570.8392       9.5010       2.2871       4.7742       2.4653
   1570.9916       9.5051       4.2475       3.5261       2.8614
   1571.1440       9.5610       2.8812       3.3065       2.5842
   1571.2964       9.6696       3.1216       3.8652       2.6397
   1571.4489       9.8107       2.5404       3.3065       2.5020
   1571.6012       9.8350       2.6624       3.0443       2.6634
   1571.7535       9.9168       2.1485       2.9345       2.4653
   1571.9060       9.8689       1.9307       3.0443       2.3861
   1572.0583       9.8150       1.9661       2.7772       2.3663
   1572.2108       9.7959       2.1423       3.6917       2.2079
   1572.3632       9.8158       2.0251       3.6580       2.2673
   1572.5156       9.8889       2.0835       2.9166       2.3071
   1572.6680       9.9692       1.9559       2.5335       2.2466
   1572.8204       9.9759       1.9505       2.9615       2.4257
   1572.9728       9.9554       2.0297       3.2167       2.2277
   1573.1252       9.9756       2.5446       2.7772       2.5446
   1573.2776       9.9115       2.1287       3.0164       2.3663
   1573.4301       9.8319       2.0099       2.5335       2.5248
   1573.5824       9.7723       2.1485       2.4647       2.2871
   1573.7347       9.8350       2.5842       2.8028       2.6436
   1573.8872       9.8952       2.3267       2.6043       2.5446
   1574.0396       9.8493       1.9307       3.6246       2.3663
   1574.1920       9.7783       2.3663       3.1293       2.1881
   1574.3444       9.7826       2.0099       3.2167       2.4455
   1574.4968       9.7490       2.2871       4.0841       2.5842
   1574.6492       9.8354       2.8020       3.3065       2.9208
