~Version Information
VERS  .          2.0                                   :CWLS Log Ascii Standard - Version 2.0
WRAP  .          NO                                    :One line per depth step
~Well Information Block
#MNEM.UNIT       Data Type                             Information
#---------       ---------                             -------------------------------
STRT  .M         800.0000                              :PROFUNDIDAD INICIAL
STOP  .M         1845.0000                             :PROFUNDIDAD FINAL
STEP  .M         0.1524                                :INCREMENTO
NULL  .          -999.2500                             :VALOR NULO 
COMP  .          PETROLEOS MEXICANOS                   :COMPANIA
WELL  .          ABEDUL-1                              :NOMBRE DEL POZO 
FLD   .          ABEDUL                                :CAMPO 
STAT  .          VERACRUZ                              :ESTADO
CNTY  .          COATZINTLA                            :MUNICIPIO
CTRY  .          MEXICO                                :PAIS
DATE  .          04-MAR-79                             :FECHA
UWI   .          1030022740                            :VALOR UNICO DEL POZO
SRVC  .          PEMEX                                 :COMPANIA DE SERVICIOS
~Parameter Information Block
#MNEM.UNIT       Value                                 Description
#---------       ---------                             -------------
FL.              X=                                    :LOCALIZACION DEL CAMPO
FL1.             Y=                                    :LOCALIZACION DEL CAMPO
PDAT.            NIVEL DEL TERRENO                     :DATO PERMANENTE
EPD.M            135.10                                :ELEVACION DEL DATO PERMANENTE
APD.M            4.18                                  :DIFERENCIA ENTRE MR Y NIVEL DE TERRENO
EKB.M            139.58                                :ELEVACION DEL KELLY BUSHING
EDF.M            139.28                                :ELEVACION DE LA MESA ROTARIA
EGL.M            135.10                                :ELEVACION DEL TERRENO
ELZ.M            139.28                                :ELEVACION DEL CERO DE REFERENCIA
LMF.             MESA ROTARIA                          :REGISTRO MEDIDO DESDE
DMF.             MESA ROTARIA                          :PROFUNDIDAD MEDIDA DESDE
SECT.            DISTRITO POZA RICA                    :NOMBRE DEL SECTOR
CN.              PETROLEOS MEXICANOS                   :NOMBRE DE LA COMPANIA
LATI.            Y=78,766.87 M.                        :LATITUD
LONG.            X=119,309.85 M.                       :LONGITUD
NATI.            MEXICO                                :NACION
RANG.            ZONA NORTE                            :NOMBRE DE LA ZONA
SLAB.            ESTADO                                :ESTADO 
STAT.            VERACRUZ                              :NOMBRE DEL ESTADO
CLAB.            MUNICIPIO                             :ETIQUETA DEL MUNICIPIO
COUN.            COATZINTLA                            :NOMBRE DEL MUNICIPIO
SRVC.            REGISTRO  MLL  1:500                  :NOMBRE DEL SERVICIO
DATE.            04-MAR-79                             :FECHA DEL SERVICIO
BLI.M            1845.0000                             :PRIMERA LECTURA
TLI.M            800.0000                              :ULTIMA LECTURA
QCEN.            ELVIS LUNA GARCIA                     :NOMBRE DEL INGENIERO DEL CONTROL DE CALIDAD DEL REGISTRO
DLQC.            02-APR-2009                           :FECHA DEL CONTROL DE CALIDAD DEL REGISTRO
CBL1.M           291.0                                 :ZAPATA SCHLUMBERGER
CBD1.M           300.0                                 :ZAPATA PERFORACION
TDL.M            1845.0                                :PROFUNDIDAD REGISTRO
TDD.M            1851.0                                :PROFUNDIDAD PERFORADOR
DFT.             SODICO                                :TIPO DE LODO
DFD.G/C3         1.25                                  :DENSIDAD DE LODO
DFV.S            45                                    :VISCOSIDAD DEL LODO
DFPH.            8.6                                   :PH DEL LODO
DFL.C3           N.R.                                  :PERDIDA DE LODO
MSS.             PRESA                                 :FUENTE DE LA MUESTRA DE LODO
RMS.ohm.m        1.8                                   :RESISTIVIDAD DE LODO
MST.DEGC         29                                    :TEMPERATURA DE LA MUESTRA DE LODO
MFSS.            PRENSA                                :FUENTE DEL FILTRADO DE LODO
RMFS.ohm.m       N.R.                                  :RESISTIVIDAD DEL FILTRADO
MFST.DEGC        N.R.                                  :TEMPERATURA DEL FILTRADO
MCSS.            PRENSA                                :FUENTE DEL ENJARRE DE LODO
RMCS.ohm.m       N.R.                                  :RESISTIVIDAD DEL ENJARRE DE LODO
MCST.DEGC        N.R.                                  :TEMPERATURA DEL ENJARRE
BSAL.PPM         N.R.                                  :SALINIDAD DEL LODO
TCS.             N.R.                                  :HORA EN QUE PARO CIRCULACION
STEM.DEGC        N.R.                                  :TEMPERATURA DE SUPERFICIE
BHT.DEGC         70                                    :TEMPERATURA DE FONDO
MRT.DEGC         70                                    :MAXIMA TEMPERATURA REGISTRADA
BS.IN            8.5                                   :DIAMETRO DE BARRENA
CSIZ.IN          9.625                                 :DIAMETRO DE T.R.
CWEI.lbm/ft      N.R.                                  :PESO DE LA T.R.
CTD1.M           300.0                                 :FONDO DE LA T.R. DEL PERFORADOR
CTL1.M           291.0                                 :FONDO DE LA T.R. DEL REGISTRO
ENGI.            DANIEL ORDONEZ                        :NOMBRE DEL INGENIERO
WITN.            RAFAEL SANDOVAL C.                    :NOMBRE DEL TESTIGO
LUN.             8-A                                   :NUMERO DE LA UNIDAD
RUN.             UNO                                   :NUMERO DE LA CORRIDA
OS1.             N.R.                                  :SERVICIOS
HIDE.            REGISTRO MICROLOG-MICROLATEROLOG      :NOMBRE DEL SERVICIO
HID1.            1:500                                 :NOMBRE DEL SERVICIO
LUL.             N.R.                                  :LUGAR DE LA UNIDAD
R1.              POZA RICA                             :Remarks 1
R2.                                                    :Remarks 2
R3.                                                    :Remarks 3
R4.      TRACK1    DIAMETRO DE AGUJERO                 :Remarks 4
R5.                      CALI                          :Remarks 5
R6.                       IN                           :Remarks 6
R7.               6"_______________16"                 :Remarks 7
R8.                                                    :Remarks 8
R9.                   RESISTIVIDAD                     :Remarks 9
R10.                                                   :Remarks 10
R11.                   MINV 1"X1"                      :Remarks 11
R12.                   OHMS.M2/M                       :Remarks 12
R13.              10_______________0                   :Remarks 13
R14.                                                   :Remarks 14
R15.                    MNOR 2"                        :Remarks 15
R16.                   OHMS.M2/M                       :Remarks 16
R17.              10_______________0                   :Remarks 17
R18.                                                   :Remarks 18
R19.  TRACK2          RESISTIVIDAD                     :Remarks 19
R20.                      MLL                          :Remarks 20
R21.                   OHMS-M2/M                       :Remarks 21
R22.             0.2_______________2000                :Remarks 22
R23.                                                   :Remarks 23
R24.                                                   :Remarks 24
R25. RM  A T.F.= 1.0 A 70 DEGC                         :Remarks 25
R26. RMF A T.F.= 0.75 A 70 DEGC                        :Remarks 26
R27. RMC A T.F.= 1.0 A 70 DEGC                         :Remarks 27
R28.                                                   :Remarks 28
R29.                                                   :Remarks 29
R30.                                                   :Remarks 30
~Curve Information Block
#MNEM.UNIT       API Code            Curve    Description
#--------        --------------      -----    -------------------
DEPT  .M                             :0       Index
CALI  .IN                            :1       Caliper                       
MINV  .OHMM                          :2       Micro Inverse Resistivity     
MLL   .OHMM                          :3       Microlaterolog Resistivity    
MNOR  .OHMM                          :4       Micro Normal Resistivity      
~Ascii Data Section
# ...
   1820.4705       9.0872       2.3663       4.2776       2.5050
   1820.6228       9.0710       2.6238       4.2746       2.8020
   1820.7751       9.0604       2.6832       4.5237       2.5842
   1820.9276       9.1097       2.5858       4.7305       2.7228
   1821.0800       9.2733       2.4278       3.6580       2.4653
   1821.2324       9.4075       2.4059       4.1598       2.1881
   1821.3848       9.2721       2.7228       4.4769       2.6040
   1821.5372       9.2123       2.9010       3.9732       2.9604
   1821.6896       9.2161       2.7228       4.3955       2.5644
   1821.8420       9.1296       2.3465       3.7602       2.4653
   1821.9944       9.0560       2.2079       3.6580       2.2871
   1822.1469       9.1091       2.5109       3.7949       2.4257
   1822.2992       9.0514       2.7624       3.4303       2.5644
   1822.4517       8.9804       1.6931       3.7159       1.8713
   1822.6040       8.9430       1.9307       3.1593       1.7921
   1822.7563       8.9641       1.8713       3.3479       1.8713
   1822.9088       9.0055       2.0693       4.2456       2.3069
   1823.0612       8.9564       2.2277       2.9304       2.4059
   1823.2136       8.9045       1.7327       3.0164       2.2673
   1823.3660       8.9130       1.8119       3.1582       2.1089
   1823.5184       8.9369       1.6535       3.1582       2.3267
   1823.6708       8.8827       1.8713       3.2287       2.0492
   1823.8232       8.8219       2.1089       2.7382       2.2282
   1823.9756       8.7783       1.8713       3.6847       1.9693
   1824.1281       8.8031       1.7327       4.0468       1.8119
   1824.2804       8.9081       2.1571       4.7305       2.0779
   1824.4327       8.9225       2.4351       3.6246       2.4455
   1824.5852       8.9194       2.2869       4.0841       2.2079
   1824.7375       8.9702       2.4458       4.1218       2.4653
   1824.8900       9.0037       2.2871       3.9368       2.2649
   1825.0424       9.0349       2.1683       2.9889       2.0695
   1825.1948       9.0112       2.1881       3.2325       2.1287
   1825.3472       8.9920       1.9307       3.4697       1.9703
   1825.4996       8.9817       2.0891       3.7282       1.9505
   1825.6520       8.9779       2.2844       3.5914       2.1485
   1825.8044       8.9837       2.3091       3.7602       2.1683
   1825.9568       9.0180       2.3035       3.7949       2.2277
   1826.1093       9.0294       2.2856       4.0841       2.2475
   1826.2616       9.0091       2.5086       3.9368       2.1485
   1826.4139       8.9981       2.2277       4.6042       2.4059
   1826.5664       9.0062       3.2772       4.3937       3.2376
   1826.7188       9.0315       3.0396       4.3122       2.8614
   1826.8712       9.0181       2.5446       4.3912       2.5248
   1827.0236       8.9978       2.8218       4.2710       2.9604
   1827.1760       8.9977       2.7228       3.7258       2.9802
   1827.3284       9.0134       2.6040       3.9732       2.6238
   1827.4808       9.0327       2.2277       4.3955       2.3465
   1827.6332       9.0244       2.1089       3.8299       2.2079
   1827.7856       9.0054       3.9067       7.7672       3.4950
   1827.9380       9.0049       7.6607       6.2375       5.8911
   1828.0905       9.0164       2.4001       3.3115       4.5174
   1828.2428       9.0075       3.0000       3.0973       2.9065
   1828.3951       9.0037       2.4455       3.4619       3.2772
   1828.5476       9.0357       2.8416       4.0468       3.0792
   1828.7000       9.0480       2.9010       2.9889       3.4356
   1828.8524       9.0103       1.8911       4.0098       2.9406
   1829.0048       9.0119       2.5193       2.4826       2.7228
   1829.1572       9.0024       2.9893       4.1956       3.3323
   1829.3096       8.9806       2.3369       6.4918       2.8589
   1829.4620       8.9556       1.9646       4.8149       2.3490
   1829.6144       8.9432       2.4455       2.1761       2.7822
   1829.7668       8.9613       1.8713       2.2556       2.1089
   1829.9192       8.9759       3.0792       1.8884       2.4059
   1830.0717       8.9218       2.7748       3.6917       3.0396
   1830.2240       8.9077       2.1485       6.0616       2.8614
   1830.3763       8.9297       3.0594       5.0222       3.1386
   1830.5288       8.9113       2.4575       3.0723       2.8218
   1830.6812       8.8679       1.9386       4.2760       2.2475
   1830.8336       8.8647       2.0018       3.0723       2.4257
   1830.9860       8.9463       1.6821       4.4360       2.1287
   1831.1384       9.0112       1.8740       3.8735       2.2277
   1831.2908       9.0064       1.5545       5.3795       1.8713
   1831.4432       8.9942       2.4144       4.5182       3.2413
   1831.5956       8.9847       4.2475       7.0857       4.2814
   1831.7480       8.9780       2.1287       4.8978       2.4891
   1831.9004       8.9774       1.9703       3.6917       3.2420
   1832.0529       9.0132       2.5619       6.3359       2.2930
   1832.2052       9.0567       3.2376      10.3250       3.2960
   1832.3575       9.0957       2.3267       3.6917       2.2673
   1832.5100       9.0549       4.2871       3.6246       4.2079
   1832.6624       9.0170       3.2347       5.3795       3.2587
   1832.8148       9.0185       2.1683       4.0909       2.4455
   1832.9672       8.9864       3.3960       7.4870       3.0629
   1833.1196       8.9444       2.9793       4.1982       3.4722
   1833.2720       8.9562       2.4898       5.4291       2.8429
   1833.4244       8.9769       3.0759       4.9985       3.0934
   1833.5768       8.9531       2.2326       4.3955       2.4891
   1833.7292       8.9442       1.6535       5.5297       2.1656
   1833.8816       8.9625       1.5782       3.9042       1.8713
   1834.0341       9.0065       2.7512       5.1077       3.2040
   1834.1864       9.0417       4.1427       7.8781       4.1881
   1834.3387       9.0537       3.2442      11.1121       3.3564
   1834.4912       9.0522       2.2079       5.4280       3.2178
   1834.6436       9.0410       3.0909       3.5349       3.5800
   1834.7960       9.0533       4.0891       2.8811       4.1089
   1834.9484       9.0765       2.9008       3.5645       3.7723
   1835.1008       9.0388       2.0297       4.8626       3.0198
   1835.2532       8.9953       2.8218       3.8101       2.8416
   1835.4056       8.9893       2.2010       3.0443       2.6040
   1835.5580       9.0077       2.6827       5.4792       2.8416
   1835.7104       9.0229       3.0101       4.5182       3.0594
   1835.8628       9.0340       2.4653       4.8626       2.8614
   1836.0153       9.0343       2.9604       4.5182       3.0396
   1836.1676       9.0288       2.6634       4.7305       2.7426
   1836.3199       9.0233       2.7030       3.9009       2.8020
   1836.4724       9.0181       2.2475       4.8819       2.3861
   1836.6248       9.0212       3.1584       5.7896       3.1980
   1836.7772       9.0245       2.7228       4.6873       2.8614
   1836.9296       9.0278       1.9901       6.0616       2.3069
   1837.0820       9.0310       2.5394       3.7419       2.6238
   1837.2344       9.0343       2.3465       3.0814       2.7822
   1837.3868       9.0376       1.9109       3.2167       2.1107
   1837.5392       9.0419       1.2574       2.9615       1.5420
   1837.6917       9.0464       1.5545       3.3065       1.3710
   1837.8440       9.0509       1.9433       3.0443       2.3209
   1837.9965       9.0553       3.2416       4.9171       3.3564
   1838.1488       9.0521       1.9635       7.2170       2.4257
   1838.3011       9.0394       3.3957       3.5586       3.9307
   1838.4536       9.0588       4.3861       4.1218       3.3777
   1838.6060       9.0848       2.9010       2.9962       2.6040
   1838.7584       9.1054       2.1485       1.8884       2.2871
   1838.9108       9.1158       1.9307       2.0324       1.8911
   1839.0632       9.1031       1.7327       2.5032       1.7705
   1839.2156       9.0916       1.5347       2.7251       1.5146
