~Version Information
VERS  .          2.0                                   :CWLS Log Ascii Standard - Version 2.0
WRAP  .          NO                                    :One line per depth step
~Well Information Block
#MNEM.UNIT       Data Type                             Information
#---------       ---------                             -------------------------------
STRT  .M         800.0000                              :PROFUNDIDAD INICIAL
STOP  .M         1845.0000                             :PROFUNDIDAD FINAL
STEP  .M         0.1524                                :INCREMENTO
NULL  .          -999.2500                             :VALOR NULO 
COMP  .          PETROLEOS MEXICANOS                   :COMPANIA
WELL  .          ABEDUL-1                              :NOMBRE DEL POZO 
FLD   .          ABEDUL                                :CAMPO 
STAT  .          VERACRUZ                              :ESTADO
CNTY  .          COATZINTLA                            :MUNICIPIO
CTRY  .          MEXICO                                :PAIS
DATE  .          04-MAR-79                             :FECHA
UWI   .          1030022740                            :VALOR UNICO DEL POZO
SRVC  .          PEMEX                                 :COMPANIA DE SERVICIOS
~Parameter Information Block
#MNEM.UNIT       Value                                 Description
#---------       ---------                             -------------
FL.              X=                                    :LOCALIZACION DEL CAMPO
FL1.             Y=                                    :LOCALIZACION DEL CAMPO
PDAT.            NIVEL DEL TERRENO                     :DATO PERMANENTE
EPD.M            135.10                                :ELEVACION DEL DATO PERMANENTE
APD.M            4.18                                  :DIFERENCIA ENTRE MR Y NIVEL DE TERRENO
EKB.M            139.58                                :ELEVACION DEL KELLY BUSHING
EDF.M            139.28                                :ELEVACION DE LA MESA ROTARIA
EGL.M            135.10                                :ELEVACION DEL TERRENO
ELZ.M            139.28                                :ELEVACION DEL CERO DE REFERENCIA
LMF.             MESA ROTARIA                          :REGISTRO MEDIDO DESDE
DMF.             MESA ROTARIA                          :PROFUNDIDAD MEDIDA DESDE
SECT.            DISTRITO POZA RICA                    :NOMBRE DEL SECTOR
CN.              PETROLEOS MEXICANOS                   :NOMBRE DE LA COMPANIA
LATI.            Y=78,766.87 M.                        :LATITUD
LONG.            X=119,309.85 M.                       :LONGITUD
NATI.            MEXICO                                :NACION
RANG.            ZONA NORTE                            :NOMBRE DE LA ZONA
SLAB.            ESTADO                                :ESTADO 
STAT.            VERACRUZ                              :NOMBRE DEL ESTADO
CLAB.            MUNICIPIO                             :ETIQUETA DEL MUNICIPIO
COUN.            COATZINTLA                            :NOMBRE DEL MUNICIPIO
SRVC.            REGISTRO  MLL  1:500                  :NOMBRE DEL SERVICIO
DATE.            04-MAR-79                             :FECHA DEL SERVICIO
BLI.M            1845.0000                             :PRIMERA LECTURA
TLI.M            800.0000                              :ULTIMA LECTURA
QCEN.            ELVIS LUNA GARCIA                     :NOMBRE DEL INGENIERO DEL CONTROL DE CALIDAD DEL REGISTRO
DLQC.            02-APR-2009                           :FECHA DEL CONTROL DE CALIDAD DEL REGISTRO
CBL1.M           291.0                                 :ZAPATA SCHLUMBERGER
CBD1.M           300.0                                 :ZAPATA PERFORACION
TDL.M            1845.0                                :PROFUNDIDAD REGISTRO
TDD.M            1851.0                                :PROFUNDIDAD PERFORADOR
DFT.             SODICO                                :TIPO DE LODO
DFD.G/C3         1.25                                  :DENSIDAD DE LODO
DFV.S            45                                    :VISCOSIDAD DEL LODO
DFPH.            8.6                                   :PH DEL LODO
DFL.C3           N.R.                                  :PERDIDA DE LODO
MSS.             PRESA                                 :FUENTE DE LA MUESTRA DE LODO
RMS.ohm.m        1.8                                   :RESISTIVIDAD DE LODO
MST.DEGC         29                                    :TEMPERATURA DE LA MUESTRA DE LODO
MFSS.            PRENSA                                :FUENTE DEL FILTRADO DE LODO
RMFS.ohm.m       N.R.                                  :RESISTIVIDAD DEL FILTRADO
MFST.DEGC        N.R.                                  :TEMPERATURA DEL FILTRADO
MCSS.            PRENSA                                :FUENTE DEL ENJARRE DE LODO
RMCS.ohm.m       N.R.                                  :RESISTIVIDAD DEL ENJARRE DE LODO
MCST.DEGC        N.R.                                  :TEMPERATURA DEL ENJARRE
BSAL.PPM         N.R.                                  :SALINIDAD DEL LODO
TCS.             N.R.                                  :HORA EN QUE PARO CIRCULACION
STEM.DEGC        N.R.                                  :TEMPERATURA DE SUPERFICIE
BHT.DEGC         70                                    :TEMPERATURA DE FONDO
MRT.DEGC         70                                    :MAXIMA TEMPERATURA REGISTRADA
BS.IN            8.5                                   :DIAMETRO DE BARRENA
CSIZ.IN          9.625                                 :DIAMETRO DE T.R.
CWEI.lbm/ft      N.R.                                  :PESO DE LA T.R.
CTD1.M           300.0                                 :FONDO DE LA T.R. DEL PERFORADOR
CTL1.M           291.0                                 :FONDO DE LA T.R. DEL REGISTRO
ENGI.            DANIEL ORDONEZ                        :NOMBRE DEL INGENIERO
WITN.            RAFAEL SANDOVAL C.                    :NOMBRE DEL TESTIGO
LUN.             8-A                                   :NUMERO DE LA UNIDAD
RUN.             UNO                                   :NUMERO DE LA CORRIDA
OS1.             N.R.                                  :SERVICIOS
HIDE.            REGISTRO MICROLOG-MICROLATEROLOG      :NOMBRE DEL SERVICIO
HID1.            1:500                                 :NOMBRE DEL SERVICIO
LUL.             N.R.                                  :LUGAR DE LA UNIDAD
R1.              POZA RICA                             :Remarks 1
R2.                                                    :Remarks 2
R3.                                                    :Remarks 3
R4.      TRACK1    DIAMETRO DE AGUJERO                 :Remarks 4
R5.                      CALI                          :Remarks 5
R6.                       IN                           :Remarks 6
R7.               6"_______________16"                 :Remarks 7
R8.                                                    :Remarks 8
R9.                   RESISTIVIDAD                     :Remarks 9
R10.                                                   :Remarks 10
R11.                   MINV 1"X1"                      :Remarks 11
R12.                   OHMS.M2/M                       :Remarks 12
R13.              10_______________0                   :Remarks 13
R14.                                                   :Remarks 14
R15.                    MNOR 2"                        :Remarks 15
R16.                   OHMS.M2/M                       :Remarks 16
R17.              10_______________0                   :Remarks 17
R18.                                                   :Remarks 18
R19.  TRACK2          RESISTIVIDAD                     :Remarks 19
R20.                      MLL                          :Remarks 20
R21.                   OHMS-M2/M                       :Remarks 21
R22.             0.2_______________2000                :Remarks 22
R23.                                                   :Remarks 23
R24.                                                   :Remarks 24
R25. RM  A T.F.= 1.0 A 70 DEGC                         :Remarks 25
R26. RMF A T.F.= 0.75 A 70 DEGC                        :Remarks 26
R27. RMC A T.F.= 1.0 A 70 DEGC                         :Remarks 27
R28.                                                   :Remarks 28
R29.                                                   :Remarks 29
R30.                                                   :Remarks 30
~Curve Information Block
#MNEM.UNIT       API Code            Curve    Description
#--------        --------------      -----    -------------------
DEPT  .M                             :0       Index
CALI  .IN                            :1       Caliper                       
MINV  .OHMM                          :2       Micro Inverse Resistivity     
MLL   .OHMM                          :3       Microlaterolog Resistivity    
MNOR  .OHMM                          :4       Micro Normal Resistivity      
~Ascii Data Section
# ...
   1272.4399       9.8801       3.3366       4.2369       2.2456
   1272.5924       9.8334       3.0792       3.8299       2.7216
   1272.7448       9.9085       4.1089       4.9985       2.6633
   1272.8972      10.0293       2.8664       3.4303       2.7628
   1273.0496       9.9705       2.6381       3.3371       2.3053
   1273.2020       9.9139       3.0576       3.9368       2.4257
   1273.3544       9.9359       2.8497       4.7742       2.3069
   1273.5068       9.8959       3.9671       5.1381       2.6832
   1273.6592       9.8785       3.6228       3.7949       3.0198
   1273.8116       9.9104       3.0000       3.7258       2.6238
   1273.9640       9.8372       3.4158       3.7258       2.7246
   1274.1165       9.8669       2.9010       4.2760       2.5657
   1274.2688       9.8682       3.2970       4.5599       2.5326
   1274.4211       9.8945       4.0071       6.0616       3.0352
   1274.5736       9.9287       3.5043       4.8182       2.8416
   1274.7260       9.9332       3.4505       4.6955       2.9265
   1274.8784      10.0354       2.8416       4.3955       2.6238
   1275.0308      10.0746       2.9406       3.5261       2.3663
   1275.1832      10.0281       2.7822       3.7497       2.2871
   1275.3356       9.9778       3.6337       5.0272       2.7030
   1275.4880       9.9717       3.2799       3.5186       2.8812
   1275.6404       9.9549       2.9802       4.0098       2.4257
   1275.7928       9.9142       3.4752       6.1175       2.8020
   1275.9452       9.9771       3.7525       5.5297       2.9010
   1276.0977       9.9759       2.9719       4.1982       2.5857
   1276.2500       9.9537       2.7030       4.9528       2.5665
   1276.4023       9.9542       3.6931       5.1866       3.0076
   1276.5548       9.9623       3.4554       4.1745       2.8198
   1276.7072       9.9590       3.1386       5.0601       2.3812
   1276.8596       9.9533       3.6337       5.2333       2.7822
   1277.0120       9.9876       3.4752       5.0911       2.9010
   1277.1644       9.9338       3.2376       5.5297       2.8218
   1277.3168       9.8999       3.5743       4.3323       2.6832
   1277.4692       9.8752       3.1782       5.2314       2.8020
   1277.6216       9.8995       3.6733       4.0098       2.8614
   1277.7740       9.9692       3.3168       4.1982       2.7426
   1277.9264      10.0281       2.9802       4.4360       2.4851
   1278.0789       9.9955       2.8416       5.2816       2.5842
   1278.2312       9.9594       3.3960       4.0468       2.6634
   1278.3835       9.9679       2.6832       3.3371       2.3939
   1278.5360      10.0166       2.8416       3.5914       2.5054
   1278.6884       9.9805       2.7228       5.1388       2.3907
   1278.8408       9.9313       3.5347       4.5080       2.7237
   1278.9932       9.8736       3.0792       3.6913       2.6221
   1279.1456       9.8734       2.7306       3.9732       2.3663
   1279.2980       9.9124       3.0423       3.4619       2.6238
   1279.4504       9.9468       2.4855       4.0706       2.2277
   1279.6028       9.9137       3.0000       5.1082       2.5428
   1279.7552       9.9148       3.8133       5.5808       3.1747
   1279.9076       9.9490       4.7228       4.6873       2.9010
   1280.0601       9.9876       2.8736       4.0468       2.5446
   1280.2124      10.0497       2.8211       4.2760       2.4257
   1280.3647      10.0290       3.0594       5.8430       2.7624
   1280.5172       9.9952       3.6337       4.4360       2.8614
   1280.6696      10.0141       3.3538       3.5586       2.7030
   1280.8220       9.9982       2.8416       3.9368       2.3861
   1280.9744      10.0348       4.3663       4.6444       2.6832
   1281.1268      10.0391       2.5446       4.6873       2.4653
   1281.2792       9.9882       3.5941       4.3955       2.4059
   1281.4316       9.9702       3.3960       4.4360       2.8020
   1281.5840       9.9335       3.5313       4.1218       2.5842
   1281.7365       9.9792       2.8904       4.0841       2.4653
   1281.8888      10.0595       3.1980       3.9696       2.6436
   1282.0413       9.9860       2.8812       5.0158       2.6238
   1282.1936       9.9278       3.5149       4.2176       2.8614
   1282.3459       9.9143       3.2574       5.0315       2.5842
   1282.4984       9.9530       3.1386       3.5502       2.8020
   1282.6508       9.9282       2.5248       3.5586       2.3081
   1282.8032       9.9148       2.5644       4.1598       2.3669
   1282.9556       9.9341       3.2178       4.3955       2.1655
   1283.1080       9.9547       3.8082       4.0476       2.8020
   1283.2604       9.9356       2.8738       3.7229       2.5248
   1283.4128       9.9280       2.5267       6.2884       2.3267
   1283.5652       9.8714       3.6876       5.2604       2.6238
   1283.7177       9.8876       2.9191       3.9732       2.4851
   1283.8700       9.8676       3.1782       3.6897       2.3716
   1284.0225       9.7987       2.7228       3.9686       2.6182
   1284.1748       9.8093       4.0099       5.0915       2.7451
   1284.3271       9.8363       3.7276       5.2910       3.0198
   1284.4796       9.8549       3.9295       5.2401       3.0198
   1284.6320       9.9039       2.9208       4.4861       2.6040
   1284.7844       9.8793       3.3666       5.0621       2.7822
   1284.9368       9.8340       4.1881       3.9936       3.1386
   1285.0892       9.8614       3.2178       5.1629       2.7228
   1285.2416       9.8563       3.7327       5.8678       2.9010
   1285.3940       9.8350       3.9901       5.2617       3.3168
   1285.5464       9.8478       3.6337       5.3303       3.0000
   1285.6989       9.8398       3.1386       4.4360       2.6634
   1285.8512       9.8358       3.7777       5.6322       2.4969
   1286.0035       9.8876       2.9278       5.1855       2.7419
   1286.1560       9.9324       3.2761       4.3955       2.6262
   1286.3083       9.9149       4.0099       5.3731       3.0396
   1286.4608       9.8941       3.4356       4.1230       3.1188
   1286.6132       9.8997       2.9208       5.4251       2.5050
   1286.7656       9.8750       3.7242       6.7846       3.1584
   1286.9180       9.8896       3.9901       5.9933       2.9010
   1287.0704       9.9657       3.8317       5.6322       3.0000
   1287.2228       9.9720       3.1980       3.9368       2.5644
   1287.3752       9.9183       3.3366       4.1598       2.7030
   1287.5276       9.8338       3.4950       5.0446       2.8812
   1287.6801       9.7937       4.4059       6.6446       3.0198
   1287.8324       9.8390       3.7129       5.6322       2.7624
   1287.9847       9.9142       3.6733       4.7742       3.1188
   1288.1372       9.8917       4.7228       5.1381       3.3564
   1288.2896       9.9135       3.9307       7.1511       3.2178
   1288.4420       9.9939       4.8614       5.6322       3.4554
   1288.5944      10.0991       3.6931       4.1970       3.1584
   1288.7468      10.0982       2.9604       4.7423       2.5842
   1288.8992       9.9736       3.5098       5.1289       2.8416
   1289.0516       9.8791       4.0923       5.4387       3.4554
   1289.2040       9.9106       3.2424       4.4929       2.9802
   1289.3564       9.8727       3.8515       5.3950       3.1386
   1289.5088       9.8601       3.4565       4.6020       2.6238
   1289.6613       9.8469       3.1188       6.5236       2.8614
   1289.8136       9.9102       4.4853       6.7962       3.2772
   1289.9659       9.9348       5.4225       4.6236       3.0990
   1290.1184       9.8936       3.4951       5.0132       3.1188
   1290.2708       9.8943       5.7141       4.9528       3.2970
   1290.4232       9.9687       3.0288       3.1293       2.4129
   1290.5756       9.9969       2.1089       3.4619       2.0366
   1290.7280       9.9546       2.5644       4.2369       2.1607
   1290.8804       9.9345       3.0396       3.0723       2.2328
   1291.0328       9.8996       2.5050       2.9250       2.2687
   1291.1852       9.8700       2.1881       4.9357       1.9726
