~Version Information
VERS  .          2.0                                   :CWLS Log Ascii Standard - Version 2.0
WRAP  .          NO                                    :One line per depth step
~Well Information Block
#MNEM.UNIT       Data Type                             Information
#---------       ---------                             -------------------------------
STRT  .M         800.0000                              :PROFUNDIDAD INICIAL
STOP  .M         1845.0000                             :PROFUNDIDAD FINAL
STEP  .M         0.1524                                :INCREMENTO
NULL  .          -999.2500                             :VALOR NULO 
COMP  .          PETROLEOS MEXICANOS                   :COMPANIA
WELL  .          ABEDUL-1                              :NOMBRE DEL POZO 
FLD   .          ABEDUL                                :CAMPO 
STAT  .          VERACRUZ                              :ESTADO
CNTY  .          COATZINTLA                            :MUNICIPIO
CTRY  .          MEXICO                                :PAIS
DATE  .          04-MAR-79                             :FECHA
UWI   .          1030022740                            :VALOR UNICO DEL POZO
SRVC  .          PEMEX                                 :COMPANIA DE SERVICIOS
~Parameter Information Block
#MNEM.UNIT       Value                                 Description
#---------       ---------                             -------------
FL.              X=                                    :LOCALIZACION DEL CAMPO
FL1.             Y=                                    :LOCALIZACION DEL CAMPO
PDAT.            NIVEL DEL TERRENO                     :DATO PERMANENTE
EPD.M            135.10                                :ELEVACION DEL DATO PERMANENTE
APD.M            4.18                                  :DIFERENCIA ENTRE MR Y NIVEL DE TERRENO
EKB.M            139.58                                :ELEVACION DEL KELLY BUSHING
EDF.M            139.28                                :ELEVACION DE LA MESA ROTARIA
EGL.M            135.10                                :ELEVACION DEL TERRENO
ELZ.M            139.28                                :ELEVACION DEL CERO DE REFERENCIA
LMF.             MESA ROTARIA                          :REGISTRO MEDIDO DESDE
DMF.             MESA ROTARIA                          :PROFUNDIDAD MEDIDA DESDE
SECT.            DISTRITO POZA RICA                    :NOMBRE DEL SECTOR
CN.              PETROLEOS MEXICANOS                   :NOMBRE DE LA COMPANIA
LATI.            Y=78,766.87 M.                        :LATITUD
LONG.            X=119,309.85 M.                       :LONGITUD
NATI.            MEXICO                                :NACION
RANG.            ZONA NORTE                            :NOMBRE DE LA ZONA
SLAB.            ESTADO                                :ESTADO 
STAT.            VERACRUZ                              :NOMBRE DEL ESTADO
CLAB.            MUNICIPIO                             :ETIQUETA DEL MUNICIPIO
COUN.            COATZINTLA                            :NOMBRE DEL MUNICIPIO
SRVC.            REGISTRO  MLL  1:500                  :NOMBRE DEL SERVICIO
DATE.            04-MAR-79                             :FECHA DEL SERVICIO
BLI.M            1845.0000                             :PRIMERA LECTURA
TLI.M            800.0000                              :ULTIMA LECTURA
QCEN.            ELVIS LUNA GARCIA                     :NOMBRE DEL INGENIERO DEL CONTROL DE CALIDAD DEL REGISTRO
DLQC.            02-APR-2009                           :FECHA DEL CONTROL DE CALIDAD DEL REGISTRO
CBL1.M           291.0                                 :ZAPATA SCHLUMBERGER
CBD1.M           300.0                                 :ZAPATA PERFORACION
TDL.M            1845.0                                :PROFUNDIDAD REGISTRO
TDD.M            1851.0                                :PROFUNDIDAD PERFORADOR
DFT.             SODICO                                :TIPO DE LODO
DFD.G/C3         1.25                                  :DENSIDAD DE LODO
DFV.S            45                                    :VISCOSIDAD DEL LODO
DFPH.            8.6                                   :PH DEL LODO
DFL.C3           N.R.                                  :PERDIDA DE LODO
MSS.             PRESA                                 :FUENTE DE LA MUESTRA DE LODO
RMS.ohm.m        1.8                                   :RESISTIVIDAD DE LODO
MST.DEGC         29                                    :TEMPERATURA DE LA MUESTRA DE LODO
MFSS.            PRENSA                                :FUENTE DEL FILTRADO DE LODO
RMFS.ohm.m       N.R.                                  :RESISTIVIDAD DEL FILTRADO
MFST.DEGC        N.R.                                  :TEMPERATURA DEL FILTRADO
MCSS.            PRENSA                                :FUENTE DEL ENJARRE DE LODO
RMCS.ohm.m       N.R.                                  :RESISTIVIDAD DEL ENJARRE DE LODO
MCST.DEGC        N.R.                                  :TEMPERATURA DEL ENJARRE
BSAL.PPM         N.R.                                  :SALINIDAD DEL LODO
TCS.             N.R.                                  :HORA EN QUE PARO CIRCULACION
STEM.DEGC        N.R.                                  :TEMPERATURA DE SUPERFICIE
BHT.DEGC         70                                    :TEMPERATURA DE FONDO
MRT.DEGC         70                                    :MAXIMA TEMPERATURA REGISTRADA
BS.IN            8.5                                   :DIAMETRO DE BARRENA
CSIZ.IN          9.625                                 :DIAMETRO DE T.R.
CWEI.lbm/ft      N.R.                                  :PESO DE LA T.R.
CTD1.M           300.0                                 :FONDO DE LA T.R. DEL PERFORADOR
CTL1.M           291.0                                 :FONDO DE LA T.R. DEL REGISTRO
ENGI.            DANIEL ORDONEZ                        :NOMBRE DEL INGENIERO
WITN.            RAFAEL SANDOVAL C.                    :NOMBRE DEL TESTIGO
LUN.             8-A                                   :NUMERO DE LA UNIDAD
RUN.             UNO                                   :NUMERO DE LA CORRIDA
OS1.             N.R.                                  :SERVICIOS
HIDE.            REGISTRO MICROLOG-MICROLATEROLOG      :NOMBRE DEL SERVICIO
HID1.            1:500                                 :NOMBRE DEL SERVICIO
LUL.             N.R.                                  :LUGAR DE LA UNIDAD
R1.              POZA RICA                             :Remarks 1
R2.                                                    :Remarks 2
R3.                                                    :Remarks 3
R4.      TRACK1    DIAMETRO DE AGUJERO                 :Remarks 4
R5.                      CALI                          :Remarks 5
R6.                       IN                           :Remarks 6
R7.               6"_______________16"                 :Remarks 7
R8.                                                    :Remarks 8
R9.                   RESISTIVIDAD                     :Remarks 9
R10.                                                   :Remarks 10
R11.                   MINV 1"X1"                      :Remarks 11
R12.                   OHMS.M2/M                       :Remarks 12
R13.              10_______________0                   :Remarks 13
R14.                                                   :Remarks 14
R15.                    MNOR 2"                        :Remarks 15
R16.                   OHMS.M2/M                       :Remarks 16
R17.              10_______________0                   :Remarks 17
R18.                                                   :Remarks 18
R19.  TRACK2          RESISTIVIDAD                     :Remarks 19
R20.                      MLL                          :Remarks 20
R21.                   OHMS-M2/M                       :Remarks 21
R22.             0.2_______________2000                :Remarks 22
R23.                                                   :Remarks 23
R24.                                                   :Remarks 24
R25. RM  A T.F.= 1.0 A 70 DEGC                         :Remarks 25
R26. RMF A T.F.= 0.75 A 70 DEGC                        :Remarks 26
R27. RMC A T.F.= 1.0 A 70 DEGC                         :Remarks 27
R28.                                                   :Remarks 28
R29.                                                   :Remarks 29
R30.                                                   :Remarks 30
~Curve Information Block
#MNEM.UNIT       API Code            Curve    Description
#--------        --------------      -----    -------------------
DEPT  .M                             :0       Index
CALI  .IN                            :1       Caliper                       
MINV  .OHMM                          :2       Micro Inverse Resistivity     
MLL   .OHMM                          :3       Microlaterolog Resistivity    
MNOR  .OHMM                          :4       Micro Normal Resistivity      
~Ascii Data Section
# ...
   1215.7472      10.7677       2.0693       2.3977       1.9562
   1215.8997      10.7125       2.2079       2.4647       1.8912
   1216.0520      10.6713       2.2673       2.3758       2.0464
   1216.2043      10.5979       2.2079       2.7432       2.0693
   1216.3568      10.4931       3.0792       3.4619       2.3465
   1216.5092      10.5133       2.6832       3.0443       2.6040
   1216.6616      10.5869       2.4254       3.4303       2.3465
   1216.8140      10.7789       2.9002       2.6043       2.1881
   1216.9664      10.8669       1.8960       2.7518       1.7921
   1217.1188      10.8666       1.9466       2.2075       1.7723
   1217.2712      10.7631       2.2457       2.6574       2.0297
   1217.4236      10.6746       2.4851       2.8811       2.1089
   1217.5760      10.6851       2.0891       2.4874       1.8713
   1217.7284      10.6715       2.3465       2.8491       1.9484
   1217.8809      10.6954       2.3861       3.3996       2.0108
   1218.0332      10.7854       1.9505       2.4380       1.7965
   1218.1855      10.7325       1.9488       2.2692       1.7738
   1218.3380      10.6104       2.0261       2.2692       1.8703
   1218.4904      10.4751       2.2256       2.3325       1.8714
   1218.6428      10.4391       2.2843       2.2901       1.9826
   1218.7952      10.4132       2.3640       2.4421       2.0305
   1218.9476      10.3716       2.4059       2.5588       2.0907
   1219.1000      10.3727       2.6436       2.5138       2.2480
   1219.2524      10.3723       2.5248       2.5593       2.1492
   1219.4048      10.3738       2.5635       2.3796       1.9886
   1219.5573      10.3533       2.2244       2.2243       1.8287
   1219.7096      10.3523       1.8911       2.3333       1.7327
   1219.8621      10.3529       2.2079       2.3316       1.8515
   1220.0144      10.3789       2.4851       2.3976       2.0297
   1220.1667      10.3722       2.3465       2.3325       2.0891
   1220.3192      10.3911       2.3069       2.6525       2.1485
   1220.4716      10.3710       2.9604       2.5782       2.4653
   1220.6240      10.3879       2.4561       2.5826       2.3069
   1220.7764      10.3792       2.8416       2.5814       2.2277
   1220.9288      10.3387       2.4059       2.4198       2.2673
   1221.0812      10.3527       2.4653       2.3758       2.1485
   1221.2336      10.3923       2.3861       2.2901       2.0099
   1221.3860      10.3963       2.3465       2.4647       2.1680
   1221.5385      10.3650       2.8812       2.3977       2.4091
   1221.6908      10.3788       2.8020       2.6283       2.3069
   1221.8431      10.3926       2.6238       2.5805       2.2277
   1221.9956      10.3870       2.6040       2.9061       2.2673
   1222.1479      10.3745       2.7822       2.7507       2.3249
   1222.3004      10.3724       2.4455       2.5569       2.1854
   1222.4528      10.3725       2.3069       2.4198       2.1089
   1222.6052      10.3725       2.3465       2.3977       2.0297
   1222.7576      10.3725       2.2871       2.5103       2.1287
   1222.9100      10.3725       2.6436       2.6018       2.2079
   1223.0624      10.3724       2.4257       2.3106       2.0099
   1223.2148      10.3738       2.4851       2.2882       2.0077
   1223.3672      10.3533       2.4653       2.5569       2.0864
   1223.5197      10.3520       2.7163       2.8811       2.2260
   1223.6720      10.3676       3.0000       2.6770       2.3069
   1223.8243      10.3728       2.1683       2.4198       2.1089
   1223.9768      10.3680       2.8657       2.6525       2.0495
   1224.1292      10.3599       2.7698       2.7772       2.3861
   1224.2816      10.3524       3.1594       2.5569       2.4851
   1224.4340      10.3526       2.8416       2.6043       2.1683
   1224.5864      10.3528       2.6832       2.6283       2.1287
   1224.7388      10.3625       2.6634       2.3758       2.3861
   1224.8912      10.3727       2.5425       2.2279       2.1881
   1225.0436      10.3872       2.9055       2.2692       2.0891
   1225.1960      10.4017       2.8200       2.3325       2.3267
   1225.3484      10.4095       2.5630       2.2901       2.4455
   1225.5009      10.3969       2.6024       2.2692       2.1881
   1225.6532      10.3926       2.2871       2.2279       2.0495
   1225.8055      10.3908       2.4455       2.4647       2.1485
   1225.9580      10.4269       2.5783       2.5338       2.0887
   1226.1104      10.4292       2.8604       2.5352       2.1880
   1226.2628      10.3921       2.8463       2.5362       2.2318
   1226.4152      10.3712       2.6136       2.3325       2.1089
   1226.5676      10.3711       2.2673       2.2484       2.0297
   1226.7200      10.4066       2.4455       2.4421       2.0891
   1226.8724      10.4134       3.0594       2.6283       2.1881
   1227.0248      10.4348       2.4059       2.4198       2.0693
   1227.1772      10.4129       2.6634       2.4874       2.0495
   1227.3296      10.4124       2.3861       2.3758       2.0495
   1227.4821      10.4080       2.4653       2.4421       2.0693
   1227.6344      10.3743       2.9386       2.2901       2.3069
   1227.7867      10.3920       2.4660       2.4198       2.1881
   1227.9392      10.4267       2.9010       2.5335       2.0769
   1228.0916      10.4300       2.4866       2.3529       1.9319
   1228.2440      10.4159       2.2475       2.5349       1.9288
   1228.3964      10.3710       2.7298       2.3957       2.0286
   1228.5488      10.4128       2.5367       2.4204       2.1102
   1228.7012      10.3905       2.6418       2.5335       2.1103
   1228.8536      10.3667       2.9010       2.4198       2.2464
   1229.0060      10.3518       2.7624       2.3541       2.1095
   1229.1584      10.3676       2.5050       2.3325       2.0297
   1229.3108      10.3729       2.5644       2.5335       2.1683
   1229.4633      10.3723       3.0000       2.6770       2.3069
   1229.6156      10.3739       2.6436       2.6283       2.0891
   1229.7679      10.3526       2.7624       2.5569       2.0891
   1229.9204      10.3619       2.4607       2.4874       2.2673
   1230.0728      10.3675       2.6819       2.6525       2.1089
   1230.2252      10.3624       2.8969       2.8547       2.2277
   1230.3776      10.4137       2.3663       2.3325       1.9417
   1230.5300      10.4068       2.4653       2.3541       2.0843
   1230.6824      10.3718       2.7426       2.4435       2.1881
   1230.8348      10.3919       2.5842       2.6548       2.2475
   1230.9872      10.4104       2.9604       2.7549       2.2277
   1231.1396      10.3785       2.5446       2.8547       2.3465
   1231.2920      10.3712       2.7426       2.9889       2.2673
   1231.4445      10.3891       2.9604       2.8028       2.3861
   1231.5968      10.3768       2.7426       2.6483       2.1485
   1231.7491      10.3937       2.7822       2.6554       2.1485
   1231.9016      10.3868       2.7822       2.7518       2.3069
   1232.0540      10.3777       2.6436       2.9889       2.1683
   1232.2064      10.3732       2.8020       2.7518       2.1683
   1232.3588      10.3925       2.6040       2.9665       2.0297
   1232.5112      10.3806       2.9208       2.5520       2.0891
   1232.6636      10.3727       2.5511       2.8028       2.1683
   1232.8160      10.3672       2.5674       2.6525       2.0152
   1232.9684      10.3667       2.4841       2.9077       2.0902
   1233.1208      10.3782       2.7624       2.8286       2.2260
   1233.2732      10.4187       2.6238       2.5805       2.1080
   1233.4257      10.4225       2.6832       2.4647       2.1473
   1233.5780      10.4126       2.3434       2.4171       2.1485
   1233.7303      10.4212       2.2475       2.6054       1.8713
   1233.8828      10.4360       2.3267       2.6046       1.7921
   1234.0352      10.4504       2.2277       2.4647       1.9307
   1234.1876      10.4370       2.4455       2.5103       2.0891
   1234.3400      10.4180       2.6040       2.4205       2.0472
   1234.4924      10.4125       2.5404       2.8020       2.1100
