~Version Information
VERS  .          2.0                                   :CWLS Log Ascii Standard - Version 2.0
WRAP  .          NO                                    :One line per depth step
~Well Information Block
#MNEM.UNIT       Data Type                             Information
#---------       ---------                             -------------------------------
STRT  .M         800.0000                              :PROFUNDIDAD INICIAL
STOP  .M         1845.0000                             :PROFUNDIDAD FINAL
STEP  .M         0.1524                                :INCREMENTO
NULL  .          -999.2500                             :VALOR NULO 
COMP  .          PETROLEOS MEXICANOS                   :COMPANIA
WELL  .          ABEDUL-1                              :NOMBRE DEL POZO 
FLD   .          ABEDUL                                :CAMPO 
STAT  .          VERACRUZ                              :ESTADO
CNTY  .          COATZINTLA                            :MUNICIPIO
CTRY  .          MEXICO                                :PAIS
DATE  .          04-MAR-79                             :FECHA
UWI   .          1030022740                            :VALOR UNICO DEL POZO
SRVC  .          PEMEX                                 :COMPANIA DE SERVICIOS
~Parameter Information Block
#MNEM.UNIT       Value                                 Description
#---------       ---------                             -------------
FL.              X=                                    :LOCALIZACION DEL CAMPO
FL1.             Y=                                    :LOCALIZACION DEL CAMPO
PDAT.            NIVEL DEL TERRENO                     :DATO PERMANENTE
EPD.M            135.10                                :ELEVACION DEL DATO PERMANENTE
APD.M            4.18                                  :DIFERENCIA ENTRE MR Y NIVEL DE TERRENO
EKB.M            139.58                                :ELEVACION DEL KELLY BUSHING
EDF.M            139.28                                :ELEVACION DE LA MESA ROTARIA
EGL.M            135.10                                :ELEVACION DEL TERRENO
ELZ.M            139.28                                :ELEVACION DEL CERO DE REFERENCIA
LMF.             MESA ROTARIA                          :REGISTRO MEDIDO DESDE
DMF.             MESA ROTARIA                          :PROFUNDIDAD MEDIDA DESDE
SECT.            DISTRITO POZA RICA                    :NOMBRE DEL SECTOR
CN.              PETROLEOS MEXICANOS                   :NOMBRE DE LA COMPANIA
LATI.            Y=78,766.87 M.                        :LATITUD
LONG.            X=119,309.85 M.                       :LONGITUD
NATI.            MEXICO                                :NACION
RANG.            ZONA NORTE                            :NOMBRE DE LA ZONA
SLAB.            ESTADO                                :ESTADO 
STAT.            VERACRUZ                              :NOMBRE DEL ESTADO
CLAB.            MUNICIPIO                             :ETIQUETA DEL MUNICIPIO
COUN.            COATZINTLA                            :NOMBRE DEL MUNICIPIO
SRVC.            REGISTRO  MLL  1:500                  :NOMBRE DEL SERVICIO
DATE.            04-MAR-79                             :FECHA DEL SERVICIO
BLI.M            1845.0000                             :PRIMERA LECTURA
TLI.M            800.0000                              :ULTIMA LECTURA
QCEN.            ELVIS LUNA GARCIA                     :NOMBRE DEL INGENIERO DEL CONTROL DE CALIDAD DEL REGISTRO
DLQC.            02-APR-2009                           :FECHA DEL CONTROL DE CALIDAD DEL REGISTRO
CBL1.M           291.0                                 :ZAPATA SCHLUMBERGER
CBD1.M           300.0                                 :ZAPATA PERFORACION
TDL.M            1845.0                                :PROFUNDIDAD REGISTRO
TDD.M            1851.0                                :PROFUNDIDAD PERFORADOR
DFT.             SODICO                                :TIPO DE LODO
DFD.G/C3         1.25                                  :DENSIDAD DE LODO
DFV.S            45                                    :VISCOSIDAD DEL LODO
DFPH.            8.6                                   :PH DEL LODO
DFL.C3           N.R.                                  :PERDIDA DE LODO
MSS.             PRESA                                 :FUENTE DE LA MUESTRA DE LODO
RMS.ohm.m        1.8                                   :RESISTIVIDAD DE LODO
MST.DEGC         29                                    :TEMPERATURA DE LA MUESTRA DE LODO
MFSS.            PRENSA                                :FUENTE DEL FILTRADO DE LODO
RMFS.ohm.m       N.R.                                  :RESISTIVIDAD DEL FILTRADO
MFST.DEGC        N.R.                                  :TEMPERATURA DEL FILTRADO
MCSS.            PRENSA                                :FUENTE DEL ENJARRE DE LODO
RMCS.ohm.m       N.R.                                  :RESISTIVIDAD DEL ENJARRE DE LODO
MCST.DEGC        N.R.                                  :TEMPERATURA DEL ENJARRE
BSAL.PPM         N.R.                                  :SALINIDAD DEL LODO
TCS.             N.R.                                  :HORA EN QUE PARO CIRCULACION
STEM.DEGC        N.R.                                  :TEMPERATURA DE SUPERFICIE
BHT.DEGC         70                                    :TEMPERATURA DE FONDO
MRT.DEGC         70                                    :MAXIMA TEMPERATURA REGISTRADA
BS.IN            8.5                                   :DIAMETRO DE BARRENA
CSIZ.IN          9.625                                 :DIAMETRO DE T.R.
CWEI.lbm/ft      N.R.                                  :PESO DE LA T.R.
CTD1.M           300.0                                 :FONDO DE LA T.R. DEL PERFORADOR
CTL1.M           291.0                                 :FONDO DE LA T.R. DEL REGISTRO
ENGI.            DANIEL ORDONEZ                        :NOMBRE DEL INGENIERO
WITN.            RAFAEL SANDOVAL C.                    :NOMBRE DEL TESTIGO
LUN.             8-A                                   :NUMERO DE LA UNIDAD
RUN.             UNO                                   :NUMERO DE LA CORRIDA
OS1.             N.R.                                  :SERVICIOS
HIDE.            REGISTRO MICROLOG-MICROLATEROLOG      :NOMBRE DEL SERVICIO
HID1.            1:500                                 :NOMBRE DEL SERVICIO
LUL.             N.R.                                  :LUGAR DE LA UNIDAD
R1.              POZA RICA                             :Remarks 1
R2.                                                    :Remarks 2
R3.                                                    :Remarks 3
R4.      TRACK1    DIAMETRO DE AGUJERO                 :Remarks 4
R5.                      CALI                          :Remarks 5
R6.                       IN                           :Remarks 6
R7.               6"_______________16"                 :Remarks 7
R8.                                                    :Remarks 8
R9.                   RESISTIVIDAD                     :Remarks 9
R10.                                                   :Remarks 10
R11.                   MINV 1"X1"                      :Remarks 11
R12.                   OHMS.M2/M                       :Remarks 12
R13.              10_______________0                   :Remarks 13
R14.                                                   :Remarks 14
R15.                    MNOR 2"                        :Remarks 15
R16.                   OHMS.M2/M                       :Remarks 16
R17.              10_______________0                   :Remarks 17
R18.                                                   :Remarks 18
R19.  TRACK2          RESISTIVIDAD                     :Remarks 19
R20.                      MLL                          :Remarks 20
R21.                   OHMS-M2/M                       :Remarks 21
R22.             0.2_______________2000                :Remarks 22
R23.                                                   :Remarks 23
R24.                                                   :Remarks 24
R25. RM  A T.F.= 1.0 A 70 DEGC                         :Remarks 25
R26. RMF A T.F.= 0.75 A 70 DEGC                        :Remarks 26
R27. RMC A T.F.= 1.0 A 70 DEGC                         :Remarks 27
R28.                                                   :Remarks 28
R29.                                                   :Remarks 29
R30.                                                   :Remarks 30
~Curve Information Block
#MNEM.UNIT       API Code            Curve    Description
#--------        --------------      -----    -------------------
DEPT  .M                             :0       Index
CALI  .IN                            :1       Caliper                       
MINV  .OHMM                          :2       Micro Inverse Resistivity     
MLL   .OHMM                          :3       Microlaterolog Resistivity    
MNOR  .OHMM                          :4       Micro Normal Resistivity      
~Ascii Data Section
    800.0000      11.0299       1.4149    1009.0701       1.0792
    800.1524      11.0100       1.4941    1009.0701       1.1386
    800.3048      10.9900       1.4941    1022.7701       1.0396
    800.4572      10.9902       1.4149    1009.0701       1.1188
    800.6096      10.9897       1.3554    1009.0701       1.0792
    800.7620      11.0065       1.4335    1009.0701       1.1577
    800.9144      11.0266       1.4350    1009.0701       1.0586
    801.0668      11.0504       1.3965    1009.0701       1.1409
    801.2192      11.0741       1.3934    1009.0701       1.1620
    801.3716      11.0964       1.4896    1009.0701       1.1195
    801.5240      11.1052       1.4898    1009.0701       1.1766
    801.6764      11.0942       1.4347    1009.0701       1.1386
    801.8288      11.0584       1.3752    1009.0701       1.0792
    801.9812      11.0063       1.4545    1009.0701       1.1584
    802.1336      10.9627       1.4941    1009.0701       1.1386
    802.2860      10.9563       1.4347    1009.0701       1.0990
    802.4384      10.9667       1.4334    1009.0701       1.1584
    802.5908      11.0448       1.5500    1009.0701       1.1584
    802.7432      11.0792       1.5733    1009.0701       1.1980
    802.8956      10.7641       1.0584    1009.0701       1.0990
    803.0480       7.4157       0.1871    1009.0701       0.6473
    803.2004       6.0607       0.1277    1009.0701       0.2475
    803.3528       6.0458       0.1079    1009.0701       0.2079
    803.5052       6.0498       0.1079    1009.0701       0.2079
    803.6576       6.0498       0.1079    1009.0701       0.2079
    803.8100       6.0498       0.1079    1009.0701       0.2079
    803.9624       6.0498       0.1080    1009.0701       0.2079
    804.1148       6.0498       0.1077    1009.0701       0.2079
    804.2672       6.0498       0.1070    1009.0701       0.2079
    804.4196       6.0498       0.0881    1009.0701       0.2079
    804.5720       6.0500       0.0881    1009.0701       0.2079
    804.7244       6.0563       0.0485    1009.0701       0.2079
    804.8768       6.0623       0.0329    1009.0701       0.2079
    805.0292       6.0686       0.0287    1009.0701       0.2079
    805.1816       6.0698       0.0287    1009.0701       0.2079
    805.3340       6.0697       0.0287    1009.0701       0.2079
    805.4864       6.0697       0.0287    1009.0701       0.2079
    805.6388       6.0697       0.0287    1009.0701       0.2088
    805.7912       6.0697       0.0287    1009.0701       0.2099
    805.9436       6.0697       0.0287    1009.0701       0.2111
    806.0960       6.0696       0.0287    1009.0912       0.2122
    806.2484       6.0672       0.0287    1009.1907       0.2134
    806.4008       6.0647       0.0287    1009.8524       0.2145
    806.5532       6.0623       0.0287     999.0718       0.2157
    806.7056       6.0599       0.0287     999.9545       0.2168
    806.8580       6.0574       0.0287     999.8464       0.2179
    807.0104       6.0550       0.0287     999.8464       0.2191
    807.1628       6.0526       0.0287     999.8464       0.2202
    807.3152       6.0503       0.0287     999.8464       0.2214
    807.4676       6.0412       0.0287     999.8464       0.2225
    807.6200       6.0307       0.0287     999.9857       0.2237
    807.7724       6.0431       0.0287    1000.8757       0.2248
    807.9248       6.0427       0.0287     981.6512       0.2260
    808.0772       6.0296       0.0089     929.0284       0.2271
    808.2296       6.0257       0.0683     839.7705       0.2475
    808.3820       6.1025       0.1378      57.9064       0.3824
    808.5344      11.3740       0.8235       1.3694       0.7591
    808.6868      11.1579       1.3554       1.3948       1.1386
    808.8392      11.0161       1.4347       1.4469       1.1188
    808.9916      11.0448       1.4743       1.4874       1.1386
    809.1440      11.0498       1.5131       1.5430       1.1995
    809.2964      11.0500       1.4345       1.5011       1.1779
    809.4488      11.0436       1.3953       1.5289       1.1188
    809.6012      11.0111       1.3745       1.4740       1.1584
    809.7536      10.9935       1.3951       1.4066       1.1584
    809.9060      10.9783       1.3950       1.4738       1.0611
    810.0584      10.9826       1.4743       1.3694       1.0994
    810.2108      11.0109       1.3721       1.3948       1.1386
    810.3632      11.1075       1.4700       1.4206       1.1584
    810.5156      11.1611       1.3526       1.3445       1.1188
    810.6680      11.1772       1.2960       1.2841       1.0594
    810.8204      11.1862       1.3356       1.2960       1.0594
    810.9728      11.1893       1.3950       1.2960       0.9802
    811.1252      11.1889       1.3158       1.2608       1.0010
    811.2776      11.1765       1.2960       1.2724       0.9801
    811.4300      11.1638       1.2960       1.2265       0.9208
    811.5824      11.1510       1.2366       1.2153       0.9406
    811.7348      11.1490       1.2168       1.3200       1.0000
    811.8872      11.1658       1.4941       1.3948       1.0621
    812.0396      11.2147       1.2903       1.2841       1.0407
    812.1920      11.2168       1.2960       1.5289       0.9585
    812.3444      11.1921       1.3950       1.7547       1.0168
    812.4968      11.1738       1.3356       1.3948       1.0788
    812.6492      11.1986       1.3157       1.4469       1.0594
    812.8016      11.1892       1.3788       1.3820       1.0594
    812.9540      11.1631       1.4607       1.2841       1.1188
    813.1064      11.1490       1.2970       1.2608       1.0594
    813.2588      11.1495       1.2762       1.2841       1.0594
    813.4112      11.1433       1.3356       1.3086       1.0792
    813.5636      11.1191       1.2960       1.2711       1.0575
    813.7160      11.0914       1.3158       1.2484       0.9589
    813.8684      11.0613       1.3158       1.2723       0.9208
    814.0208      11.0313       1.3158       1.2621       0.9802
    814.1732      11.0013       1.4149       1.3079       1.0396
    814.3256      10.9630       1.3554       1.2841       0.9802
    814.4780      10.9200       1.2762       1.2608       0.9406
    814.6304      10.8901       1.2168       1.2960       0.9802
    814.7828      10.8911       1.2168       1.3445       1.0000
    814.9352      10.9259       1.2564       1.3079       0.9588
    815.0876      10.9456       1.3158       1.3445       0.9781
    815.2400      10.9299       1.3356       1.3694       1.0408
    815.3924      10.9032       1.4149       1.3694       1.0396
    815.5448      10.8821       1.2762       1.4874       0.9802
    815.6972      10.8795       1.3752       1.4337       1.0396
    815.8496      10.9321       1.3356       1.4738       1.0990
    816.0020      10.9988       1.2564       1.5011       1.0792
    816.1544      11.0625       1.2168       1.4469       1.0594
    816.3068      11.1153       1.2953       1.4421       1.0396
    816.4592      11.1677       1.3155       1.4076       1.0396
    816.6116      11.2501       1.2960       1.4874       1.1176
    816.7640      11.3806       1.3158       1.5289       1.0781
    816.9164      11.5270       1.3950       1.4874       1.0198
    817.0688      11.6299       1.4545       1.5430       1.0792
    817.2212      11.5282       1.5139       1.6155       1.1386
    817.3736      11.3572       1.4545       1.5572       1.1782
    817.5260      11.2264       1.3950       1.4206       1.1188
    817.6784      11.2001       1.4347       1.5716       1.1386
    817.8308      11.1908       1.4736       1.4587       1.1580
    817.9832      11.1754       1.3351       1.3948       1.0979
    818.1356      11.1593       1.3752       1.5430       1.0990
    818.2880      11.1561       1.4545       1.6304       1.1782
    818.4404      11.1734       1.5535       1.5572       1.2178
    818.5928      11.1896       1.4347       1.5572       1.2178
    818.7452      11.1993       1.4743       1.6155       1.2178
