~Version Information
VERS  .          2.0                                   :CWLS Log Ascii Standard - Version 2.0
WRAP  .          NO                                    :One line per depth step
~Well Information Block
#MNEM.UNIT       Data Type                             Information
#---------       ---------                             -------------------------------
STRT  .M         800.0000                              :PROFUNDIDAD INICIAL
STOP  .M         1845.0000                             :PROFUNDIDAD FINAL
STEP  .M         0.1524                                :INCREMENTO
NULL  .          -999.2500                             :VALOR NULO 
COMP  .          PETROLEOS MEXICANOS                   :COMPANIA
WELL  .          ABEDUL-1                              :NOMBRE DEL POZO 
FLD   .          ABEDUL                                :CAMPO 
STAT  .          VERACRUZ                              :ESTADO
CNTY  .          COATZINTLA                            :MUNICIPIO
CTRY  .          MEXICO                                :PAIS
DATE  .          04-MAR-79                             :FECHA
UWI   .          1030022740                            :VALOR UNICO DEL POZO
SRVC  .          PEMEX                                 :COMPANIA DE SERVICIOS
~Parameter Information Block
#MNEM.UNIT       Value                                 Description
#---------       ---------                             -------------
FL.              X=                                    :LOCALIZACION DEL CAMPO
FL1.             Y=                                    :LOCALIZACION DEL CAMPO
PDAT.            NIVEL DEL TERRENO                     :DATO PERMANENTE
EPD.M            135.10                                :ELEVACION DEL DATO PERMANENTE
APD.M            4.18                                  :DIFERENCIA ENTRE MR Y NIVEL DE TERRENO
EKB.M            139.58                                :ELEVACION DEL KELLY BUSHING
EDF.M            139.28                                :ELEVACION DE LA MESA ROTARIA
EGL.M            135.10                                :ELEVACION DEL TERRENO
ELZ.M            139.28                                :ELEVACION DEL CERO DE REFERENCIA
LMF.             MESA ROTARIA                          :REGISTRO MEDIDO DESDE
DMF.             MESA ROTARIA                          :PROFUNDIDAD MEDIDA DESDE
SECT.            DISTRITO POZA RICA                    :NOMBRE DEL SECTOR
CN.              PETROLEOS MEXICANOS                   :NOMBRE DE LA COMPANIA
LATI.            Y=78,766.87 M.                        :LATITUD
LONG.            X=119,309.85 M.                       :LONGITUD
NATI.            MEXICO                                :NACION
RANG.            ZONA NORTE                            :NOMBRE DE LA ZONA
SLAB.            ESTADO                                :ESTADO 
STAT.            VERACRUZ                              :NOMBRE DEL ESTADO
CLAB.            MUNICIPIO                             :ETIQUETA DEL MUNICIPIO
COUN.            COATZINTLA                            :NOMBRE DEL MUNICIPIO
SRVC.            REGISTRO  MLL  1:500                  :NOMBRE DEL SERVICIO
DATE.            04-MAR-79                             :FECHA DEL SERVICIO
BLI.M            1845.0000                             :PRIMERA LECTURA
TLI.M            800.0000                              :ULTIMA LECTURA
QCEN.            ELVIS LUNA GARCIA                     :NOMBRE DEL INGENIERO DEL CONTROL DE CALIDAD DEL REGISTRO
DLQC.            02-APR-2009                           :FECHA DEL CONTROL DE CALIDAD DEL REGISTRO
CBL1.M           291.0                                 :ZAPATA SCHLUMBERGER
CBD1.M           300.0                                 :ZAPATA PERFORACION
TDL.M            1845.0                                :PROFUNDIDAD REGISTRO
TDD.M            1851.0                                :PROFUNDIDAD PERFORADOR
DFT.             SODICO                                :TIPO DE LODO
DFD.G/C3         1.25                                  :DENSIDAD DE LODO
DFV.S            45                                    :VISCOSIDAD DEL LODO
DFPH.            8.6                                   :PH DEL LODO
DFL.C3           N.R.                                  :PERDIDA DE LODO
MSS.             PRESA                                 :FUENTE DE LA MUESTRA DE LODO
RMS.ohm.m        1.8                                   :RESISTIVIDAD DE LODO
MST.DEGC         29                                    :TEMPERATURA DE LA MUESTRA DE LODO
MFSS.            PRENSA                                :FUENTE DEL FILTRADO DE LODO
RMFS.ohm.m       N.R.                                  :RESISTIVIDAD DEL FILTRADO
MFST.DEGC        N.R.                                  :TEMPERATURA DEL FILTRADO
MCSS.            PRENSA                                :FUENTE DEL ENJARRE DE LODO
RMCS.ohm.m       N.R.                                  :RESISTIVIDAD DEL ENJARRE DE LODO
MCST.DEGC        N.R.                                  :TEMPERATURA DEL ENJARRE
BSAL.PPM         N.R.                                  :SALINIDAD DEL LODO
TCS.             N.R.                                  :HORA EN QUE PARO CIRCULACION
STEM.DEGC        N.R.                                  :TEMPERATURA DE SUPERFICIE
BHT.DEGC         70                                    :TEMPERATURA DE FONDO
MRT.DEGC         70                                    :MAXIMA TEMPERATURA REGISTRADA
BS.IN            8.5                                   :DIAMETRO DE BARRENA
CSIZ.IN          9.625                                 :DIAMETRO DE T.R.
CWEI.lbm/ft      N.R.                                  :PESO DE LA T.R.
CTD1.M           300.0                                 :FONDO DE LA T.R. DEL PERFORADOR
CTL1.M           291.0                                 :FONDO DE LA T.R. DEL REGISTRO
ENGI.            DANIEL ORDONEZ                        :NOMBRE DEL INGENIERO
WITN.            RAFAEL SANDOVAL C.                    :NOMBRE DEL TESTIGO
LUN.             8-A                                   :NUMERO DE LA UNIDAD
RUN.             UNO                                   :NUMERO DE LA CORRIDA
OS1.             N.R.                                  :SERVICIOS
HIDE.            REGISTRO MICROLOG-MICROLATEROLOG      :NOMBRE DEL SERVICIO
HID1.            1:500                                 :NOMBRE DEL SERVICIO
LUL.             N.R.                                  :LUGAR DE LA UNIDAD
R1.              POZA RICA                             :Remarks 1
R2.                                                    :Remarks 2
R3.                                                    :Remarks 3
R4.      TRACK1    DIAMETRO DE AGUJERO                 :Remarks 4
R5.                      CALI                          :Remarks 5
R6.                       IN                           :Remarks 6
R7.               6"_______________16"                 :Remarks 7
R8.                                                    :Remarks 8
R9.                   RESISTIVIDAD                     :Remarks 9
R10.                                                   :Remarks 10
R11.                   MINV 1"X1"                      :Remarks 11
R12.                   OHMS.M2/M                       :Remarks 12
R13.              10_______________0                   :Remarks 13
R14.                                                   :Remarks 14
R15.                    MNOR 2"                        :Remarks 15
R16.                   OHMS.M2/M                       :Remarks 16
R17.              10_______________0                   :Remarks 17
R18.                                                   :Remarks 18
R19.  TRACK2          RESISTIVIDAD                     :Remarks 19
R20.                      MLL                          :Remarks 20
R21.                   OHMS-M2/M                       :Remarks 21
R22.             0.2_______________2000                :Remarks 22
R23.                                                   :Remarks 23
R24.                                                   :Remarks 24
R25. RM  A T.F.= 1.0 A 70 DEGC                         :Remarks 25
R26. RMF A T.F.= 0.75 A 70 DEGC                        :Remarks 26
R27. RMC A T.F.= 1.0 A 70 DEGC                         :Remarks 27
R28.                                                   :Remarks 28
R29.                                                   :Remarks 29
R30.                                                   :Remarks 30
~Curve Information Block
#MNEM.UNIT       API Code            Curve    Description
#--------        --------------      -----    -------------------
DEPT  .M                             :0       Index
CALI  .IN                            :1       Caliper                       
MINV  .OHMM                          :2       Micro Inverse Resistivity     
MLL   .OHMM                          :3       Microlaterolog Resistivity    
MNOR  .OHMM                          :4       Micro Normal Resistivity      
~Ascii Data Section
# ...
   1140.1569      10.5501       1.8713       2.8547       1.6931
   1140.3092      10.5931       2.0693       2.9345       1.6535
   1140.4615      10.5771       1.6861       1.9772       1.2970
   1140.6140      10.5416       1.3762       2.1917       1.2499
   1140.7664      10.5002       2.2079       3.7258       1.8871
   1140.9188      10.4314       2.3069       3.5914       1.9901
   1141.0712      10.3751       2.2627       3.8299       1.8713
   1141.2236      10.3541       2.2055       3.6580       1.9703
   1141.3760      10.3326       2.0648       3.9009       1.8907
   1141.5284      10.3475       2.4496       4.3553       2.0098
   1141.6808      10.3752       2.5050       3.7258       2.1275
   1141.8333      10.4120       2.2475       4.0841       2.0495
   1141.9856      10.4569       2.4455       3.5914       1.8911
   1142.1379      10.4586       2.0099       3.7949       1.9109
   1142.2904      10.4681       2.5842       4.1218       1.9505
   1142.4427      10.5075       2.1485       3.4938       1.8713
   1142.5952      10.4860       2.5446       3.5586       1.9109
   1142.7476      10.4728       2.0387       3.0723       1.6931
   1142.9000      10.4172       2.0297       3.3678       1.9109
   1143.0524      10.3594       2.3069       3.9732       2.0297
   1143.2048      10.3344       2.5248       3.8299       1.9505
   1143.3572      10.3502       2.0099       3.3065       1.8119
   1143.5096      10.3374       2.1914       3.3989       1.8713
   1143.6620      10.2589       2.0495       3.4303       1.9307
   1143.8145      10.1978       2.2871       2.5079       1.6535
   1143.9668      10.1915       1.6733       2.1379       1.4752
   1144.1191      10.1547       2.3069       3.9009       1.6931
   1144.2716      10.1828       2.6374       4.0468       2.0693
   1144.4240      10.2145       2.2079       3.5914       2.0693
   1144.5764      10.1506       2.8209       4.6020       2.4059
   1144.7288      10.1786       2.1992       4.0841       2.2673
   1144.8812      10.1833       2.4059       4.1982       2.0488
   1145.0336      10.1561       2.8020       4.6444       2.2682
   1145.1860      10.2596       2.8020       4.1982       2.1520
   1145.3384      10.3981       2.0495       3.1582       1.9539
   1145.4908      10.3191       1.9307       3.4619       1.7926
   1145.6432      10.2784       2.2475       3.9368       1.9465
   1145.7957      10.2948       2.6634       4.0098       2.0089
   1145.9480      10.3370       2.2475       3.7258       2.1126
   1146.1003      10.3342       2.4851       3.5586       2.0312
   1146.2528      10.2971       2.0495       4.3955       2.0259
   1146.4052      10.2368       3.1386       6.1175       2.1998
   1146.5576      10.2726       2.5446       4.0841       2.4059
   1146.7100      10.2880       2.6634       4.2369       2.1485
   1146.8624      10.2930       2.3663       4.1218       2.1089
   1147.0148      10.2543       3.8911       5.6842       2.4059
   1147.1672      10.3787       2.3663       4.1218       2.1683
   1147.3196      10.4329       2.6858       4.1218       2.2079
   1147.4720      10.4340       2.5470       4.5599       2.1089
   1147.6244      10.4116       2.7045       4.1806       2.2277
   1147.7769      10.4198       2.3238       3.8244       2.2673
   1147.9292      10.3721       2.5653       4.2067       2.1881
   1148.0815      10.3117       2.6634       4.9528       2.3514
   1148.2340      10.3391       2.8218       4.0098       2.2488
   1148.3864      10.3206       2.2079       4.3553       2.0687
   1148.5388      10.3095       2.8020       4.6873       2.2475
   1148.6912      10.3259       2.2871       4.0841       2.1683
   1148.8436      10.2725       2.9995       4.3553       2.3206
   1148.9960      10.3073       3.2355       3.1007       2.3788
   1149.1484      10.2555       1.8123       3.5563       1.6999
   1149.3008      10.2370       2.4059       4.0098       2.2673
   1149.4532      10.2519       2.2871       4.0098       2.0495
   1149.6056      10.2749       1.9505       3.4905       1.8713
   1149.7581      10.2670       2.0891       3.7580       2.0693
   1149.9104      10.2325       2.5842       4.2709       2.3267
   1150.0627      10.2270       3.3762       5.3303       2.4059
   1150.2152      10.2923       2.9604       4.8182       2.3069
   1150.3676      10.3369       2.1363       4.0098       2.0897
   1150.5200      10.3466       2.1099       3.5586       1.9087
   1150.6724      10.2977       2.1874       3.7949       2.0688
   1150.8248      10.2743       2.2277       4.0941       2.0495
   1150.9772      10.3170       2.7426       4.7803       2.2673
   1151.1296      10.4510       2.2475       3.7806       2.0495
   1151.2820      10.5322       2.3069       3.6917       2.1066
   1151.4344      10.5513       2.0297       3.3989       1.9115
   1151.5868      10.5515       2.1881       3.4653       1.9703
   1151.7393      10.5471       1.9703       2.9579       1.8317
   1151.8916      10.5320       2.1683       2.7974       1.9505
   1152.0439      10.4925       2.2871       4.7155       2.2673
   1152.1964      10.4731       2.6634       3.9732       2.3663
   1152.3488      10.5083       2.2815       4.3155       2.3465
   1152.5012      10.5120       2.4017       3.9368       2.2277
   1152.6536      10.4861       2.3701       4.1598       2.3069
   1152.8060      10.4074       2.6832       3.5914       2.2277
   1152.9584      10.3296       2.9604       3.8536       2.6040
   1153.1108      10.2388       2.8218       5.2333       2.3861
   1153.2632      10.2120       3.0710       5.2816       2.6832
   1153.4156      10.2736       3.3168       4.5599       2.3069
   1153.5680      10.2903       1.8515       5.1381       1.9505
   1153.7205      10.2765       2.6628       4.3955       2.2673
   1153.8728      10.2537       3.4847       6.2309       2.5446
   1154.0251      10.2380       2.2173       4.8182       2.4669
   1154.1776      10.1524       2.7208       4.3553       2.4481
   1154.3300      10.1438       2.9802       7.0209       2.4455
   1154.4824      10.2187       3.9901       4.6020       2.4257
   1154.6348      10.2533       2.5644       4.7742       2.3465
   1154.7872      10.2399       2.7624       4.9075       2.3844
   1154.9396      10.2993       3.1188       5.7896       2.2215
   1155.0920      10.3315       2.5446       5.4291       2.6238
   1155.2444      10.3723       2.7638       5.0884       2.5050
   1155.3969      10.4270       2.9885       5.2845       2.4059
   1155.5492      10.4868       3.2772       5.3795       2.5248
   1155.7017      10.5116       3.0792       5.6842       2.3465
   1155.8540      10.5113       2.5446       4.5155       2.4653
   1156.0063      10.5649       2.7426       4.5190       2.2079
   1156.1588      10.6474       2.4059       3.7991       2.0891
   1156.3112      10.6460       2.8812       4.6631       2.1597
   1156.4636      10.6734       2.1485       3.6855       2.0190
   1156.6160      10.6113       1.8911       2.9938       1.8515
   1156.7684      10.4929       2.1919       3.4938       2.0891
   1156.9208      10.3955       2.6238       3.7258       2.4455
   1157.0732      10.4133       4.2871       4.7305       2.6436
   1157.2256      10.3724       2.8119       4.1598       2.3663
   1157.3781      10.2952       6.7768      10.4203       4.4851
   1157.5304      10.3381       3.4554       6.5236       3.4744
   1157.6827      10.3899       4.2079       3.7602       2.3466
   1157.8352      10.4135       2.1485       3.9732       1.9703
   1157.9875      10.4157       2.5707       4.3553       2.2277
   1158.1400      10.4649       2.9406       4.9528       2.2871
   1158.2924      10.5322       2.1881       4.0232       2.0495
   1158.4448      10.5331       2.9406       3.9632       2.1287
   1158.5972      10.5356       2.5267       4.6315       2.0891
   1158.7496      10.6317       1.9535       3.1007       1.8787
   1158.9020      10.7154       2.1515       3.1873       1.7758
