~Version Information
VERS  .          2.0                                   :CWLS Log Ascii Standard - Version 2.0
WRAP  .          NO                                    :One line per depth step
~Well Information Block
#MNEM.UNIT       Data Type                             Information
#---------       ---------                             -------------------------------
STRT  .M         800.0000                              :PROFUNDIDAD INICIAL
STOP  .M         1845.0000                             :PROFUNDIDAD FINAL
STEP  .M         0.1524                                :INCREMENTO
NULL  .          -999.2500                             :VALOR NULO 
COMP  .          PETROLEOS MEXICANOS                   :COMPANIA
WELL  .          ABEDUL-1                              :NOMBRE DEL POZO 
FLD   .          ABEDUL                                :CAMPO 
STAT  .          VERACRUZ                              :ESTADO
CNTY  .          COATZINTLA                            :MUNICIPIO
CTRY  .          MEXICO                                :PAIS
DATE  .          04-MAR-79                             :FECHA
UWI   .          1030022740                            :VALOR UNICO DEL POZO
SRVC  .          PEMEX                                 :COMPANIA DE SERVICIOS
~Parameter Information Block
#MNEM.UNIT       Value                                 Description
#---------       ---------                             -------------
FL.              X=                                    :LOCALIZACION DEL CAMPO
FL1.             Y=                                    :LOCALIZACION DEL CAMPO
PDAT.            NIVEL DEL TERRENO                     :DATO PERMANENTE
EPD.M            135.10                                :ELEVACION DEL DATO PERMANENTE
APD.M            4.18                                  :DIFERENCIA ENTRE MR Y NIVEL DE TERRENO
EKB.M            139.58                                :ELEVACION DEL KELLY BUSHING
EDF.M            139.28                                :ELEVACION DE LA MESA ROTARIA
EGL.M            135.10                                :ELEVACION DEL TERRENO
ELZ.M            139.28                                :ELEVACION DEL CERO DE REFERENCIA
LMF.             MESA ROTARIA                          :REGISTRO MEDIDO DESDE
DMF.             MESA ROTARIA                          :PROFUNDIDAD MEDIDA DESDE
SECT.            DISTRITO POZA RICA                    :NOMBRE DEL SECTOR
CN.              PETROLEOS MEXICANOS                   :NOMBRE DE LA COMPANIA
LATI.            Y=78,766.87 M.                        :LATITUD
LONG.            X=119,309.85 M.                       :LONGITUD
NATI.            MEXICO                                :NACION
RANG.            ZONA NORTE                            :NOMBRE DE LA ZONA
SLAB.            ESTADO                                :ESTADO 
STAT.            VERACRUZ                              :NOMBRE DEL ESTADO
CLAB.            MUNICIPIO                             :ETIQUETA DEL MUNICIPIO
COUN.            COATZINTLA                            :NOMBRE DEL MUNICIPIO
SRVC.            REGISTRO  MLL  1:500                  :NOMBRE DEL SERVICIO
DATE.            04-MAR-79                             :FECHA DEL SERVICIO
BLI.M            1845.0000                             :PRIMERA LECTURA
TLI.M            800.0000                              :ULTIMA LECTURA
QCEN.            ELVIS LUNA GARCIA                     :NOMBRE DEL INGENIERO DEL CONTROL DE CALIDAD DEL REGISTRO
DLQC.            02-APR-2009                           :FECHA DEL CONTROL DE CALIDAD DEL REGISTRO
CBL1.M           291.0                                 :ZAPATA SCHLUMBERGER
CBD1.M           300.0                                 :ZAPATA PERFORACION
TDL.M            1845.0                                :PROFUNDIDAD REGISTRO
TDD.M            1851.0                                :PROFUNDIDAD PERFORADOR
DFT.             SODICO                                :TIPO DE LODO
DFD.G/C3         1.25                                  :DENSIDAD DE LODO
DFV.S            45                                    :VISCOSIDAD DEL LODO
DFPH.            8.6                                   :PH DEL LODO
DFL.C3           N.R.                                  :PERDIDA DE LODO
MSS.             PRESA                                 :FUENTE DE LA MUESTRA DE LODO
RMS.ohm.m        1.8                                   :RESISTIVIDAD DE LODO
MST.DEGC         29                                    :TEMPERATURA DE LA MUESTRA DE LODO
MFSS.            PRENSA                                :FUENTE DEL FILTRADO DE LODO
RMFS.ohm.m       N.R.                                  :RESISTIVIDAD DEL FILTRADO
MFST.DEGC        N.R.                                  :TEMPERATURA DEL FILTRADO
MCSS.            PRENSA                                :FUENTE DEL ENJARRE DE LODO
RMCS.ohm.m       N.R.                                  :RESISTIVIDAD DEL ENJARRE DE LODO
MCST.DEGC        N.R.                                  :TEMPERATURA DEL ENJARRE
BSAL.PPM         N.R.                                  :SALINIDAD DEL LODO
TCS.             N.R.                                  :HORA EN QUE PARO CIRCULACION
STEM.DEGC        N.R.                                  :TEMPERATURA DE SUPERFICIE
BHT.DEGC         70                                    :TEMPERATURA DE FONDO
MRT.DEGC         70                                    :MAXIMA TEMPERATURA REGISTRADA
BS.IN            8.5                                   :DIAMETRO DE BARRENA
CSIZ.IN          9.625                                 :DIAMETRO DE T.R.
CWEI.lbm/ft      N.R.                                  :PESO DE LA T.R.
CTD1.M           300.0                                 :FONDO DE LA T.R. DEL PERFORADOR
CTL1.M           291.0                                 :FONDO DE LA T.R. DEL REGISTRO
ENGI.            DANIEL ORDONEZ                        :NOMBRE DEL INGENIERO
WITN.            RAFAEL SANDOVAL C.                    :NOMBRE DEL TESTIGO
LUN.             8-A                                   :NUMERO DE LA UNIDAD
RUN.             UNO                                   :NUMERO DE LA CORRIDA
OS1.             N.R.                                  :SERVICIOS
HIDE.            REGISTRO MICROLOG-MICROLATEROLOG      :NOMBRE DEL SERVICIO
HID1.            1:500                                 :NOMBRE DEL SERVICIO
LUL.             N.R.                                  :LUGAR DE LA UNIDAD
R1.              POZA RICA                             :Remarks 1
R2.                                                    :Remarks 2
R3.                                                    :Remarks 3
R4.      TRACK1    DIAMETRO DE AGUJERO                 :Remarks 4
R5.                      CALI                          :Remarks 5
R6.                       IN                           :Remarks 6
R7.               6"_______________16"                 :Remarks 7
R8.                                                    :Remarks 8
R9.                   RESISTIVIDAD                     :Remarks 9
R10.                                                   :Remarks 10
R11.                   MINV 1"X1"                      :Remarks 11
R12.                   OHMS.M2/M                       :Remarks 12
R13.              10_______________0                   :Remarks 13
R14.                                                   :Remarks 14
R15.                    MNOR 2"                        :Remarks 15
R16.                   OHMS.M2/M                       :Remarks 16
R17.              10_______________0                   :Remarks 17
R18.                                                   :Remarks 18
R19.  TRACK2          RESISTIVIDAD                     :Remarks 19
R20.                      MLL                          :Remarks 20
R21.                   OHMS-M2/M                       :Remarks 21
R22.             0.2_______________2000                :Remarks 22
R23.                                                   :Remarks 23
R24.                                                   :Remarks 24
R25. RM  A T.F.= 1.0 A 70 DEGC                         :Remarks 25
R26. RMF A T.F.= 0.75 A 70 DEGC                        :Remarks 26
R27. RMC A T.F.= 1.0 A 70 DEGC                         :Remarks 27
R28.                                                   :Remarks 28
R29.                                                   :Remarks 29
R30.                                                   :Remarks 30
~Curve Information Block
#MNEM.UNIT       API Code            Curve    Description
#--------        --------------      -----    -------------------
DEPT  .M                             :0       Index
CALI  .IN                            :1       Caliper                       
MINV  .OHMM                          :2       Micro Inverse Resistivity     
MLL   .OHMM                          :3       Microlaterolog Resistivity    
MNOR  .OHMM                          :4       Micro Normal Resistivity      
~Ascii Data Section
# ...
   1612.5968      10.1921       2.5842       2.8811       2.1705
   1612.7491      10.1681       2.4059       2.7266       2.0862
   1612.9016      10.1127       2.6238       3.2464       2.1049
   1613.0540      10.0730       2.5248       3.7602       2.1881
   1613.2064       9.9874       2.8218       3.0723       2.2871
   1613.3588       9.9193       2.6832       3.7949       2.0928
   1613.5112       9.8984       2.1881       2.9770       2.0125
   1613.6636       9.9825       2.1089       2.5392       1.9713
   1613.8160      10.0731       2.2871       2.9906       2.0891
   1613.9684      10.1500       2.4257       4.0098       2.0297
   1614.1208      10.2151       2.4653       2.3325       2.0099
   1614.2732      10.1779       2.3465       2.7716       2.3861
   1614.4257      10.1535       3.5743       3.1582       2.7624
   1614.5780      10.2305       2.6625       2.3325       2.2871
   1614.7303      10.2188       1.9654       2.0511       1.8119
   1614.8828      10.1589       1.9109       2.0892       1.9307
   1615.0352      10.1914       2.5644       1.8712       1.9307
   1615.1876      10.3021       1.6139       2.0511       1.7129
   1615.3400      10.0514       1.9505       2.1279       1.5347
   1615.4924       9.8011       2.3465       2.3871       1.9901
   1615.6448       9.6518       1.9307       2.9345       1.7129
   1615.7972       9.7488       2.1881       2.5569       1.8450
   1615.9496      10.0828       1.7525       2.4647       1.3813
   1616.1021      10.2143       2.7030       2.6043       2.2936
   1616.2544      10.2212       1.9505       2.4415       1.7129
   1616.4069      10.0926       2.4059       2.6771       2.3069
   1616.5592      10.1854       2.1485       2.4874       2.1089
   1616.7115      10.3667       1.9109       2.7017       2.0099
   1616.8640      10.6155       2.0495       2.4421       1.7653
   1617.0164      10.4705       1.6139       3.2692       1.9458
   1617.1688      10.4096       1.7723       3.9253       2.1314
   1617.3212      10.4497       1.8317       2.5046       2.0495
   1617.4736      10.4555       1.9505       3.7739       2.2673
   1617.6260      10.5486       2.2475       2.8730       2.4257
   1617.7784      10.7733       1.8119       2.4421       2.4417
   1617.9308      10.7007       2.0297       2.6770       2.1048
   1618.0833      10.4972       1.7327       3.3160       2.0426
   1618.2356      10.4596       2.0891       4.6444       2.5644
   1618.3879      10.6423       1.6535       2.7629       2.6040
   1618.5404      10.5723       1.6733       2.8200       2.3861
   1618.6927      10.5156       1.6733       3.3678       2.0297
   1618.8452      10.8314       1.7525       2.6770       2.0297
   1618.9976      10.7923       1.5941       2.6043       2.0891
   1619.1500      10.5503       1.7723       2.6525       1.9901
   1619.3024      10.5245       2.0891       2.4198       2.1037
   1619.4548      10.5069       1.6139       2.1475       1.9079
   1619.6072      10.3162       1.8911       2.2484       2.0893
   1619.7596      10.1511       2.2673       2.6283       2.3861
   1619.9120      10.0856       2.4455       2.2484       2.5050
   1620.0645      10.1154       2.0891       2.5805       2.1881
   1620.2168      10.1535       2.2475       2.6043       2.2475
   1620.3691      10.1173       2.0891       2.1673       2.7030
   1620.5216      10.1544       2.2673       2.3544       2.2475
   1620.6740      10.1341       2.0297       2.2696       2.4257
   1620.8264      10.0928       2.3663       2.8461       2.5644
   1620.9788      10.1388       2.2871       2.3758       2.4653
   1621.1312      10.1285       2.6040       2.6283       2.8614
   1621.2836      10.0322       2.1683       3.9732       2.5644
   1621.4360       9.9074       2.7822       3.4868       2.9010
   1621.5884      10.0479       2.4653       2.6283       2.7426
   1621.7408      10.0778       2.9406       2.7772       3.0594
   1621.8932      10.1588       2.3267       2.4421       2.8416
   1622.0457      10.2528       2.1881       2.8547       2.7624
   1622.1980      10.1969       2.5119       2.7889       2.7030
   1622.3503      10.1705       2.6040       2.6043       2.7656
   1622.5028      10.2305       1.9307       2.7017       2.4039
   1622.6552      10.2111       2.2871       2.4647       2.4620
   1622.8076      10.3531       2.3267       3.1007       2.6594
   1622.9600      10.4594       1.6931       2.9889       2.2673
   1623.1124      10.4312       2.0891       2.8547       2.1881
   1623.2648      10.5143       2.3465       3.1007       2.8020
   1623.4172      10.8078       1.8515       2.5376       2.3465
   1623.5696      10.7815       1.5743       2.3541       1.9703
   1623.7220      10.6163       1.8137       2.5805       1.8515
   1623.8744      10.6724       1.5390       2.6770       1.9307
   1624.0269      10.7711       1.7573       2.5569       1.8713
   1624.1792      10.7368       1.5683       2.9615       1.7129
   1624.3315      10.7157       2.0935       2.8286       2.2769
   1624.4840      10.9303       1.8317       3.8652       2.0495
   1624.6364      11.0056       1.7327       2.4874       2.1683
   1624.7888      10.8135       1.6097       3.5292       1.9106
   1624.9412      10.6485       2.0320       3.4626       1.9870
   1625.0936      10.5373       2.0275       4.4835       2.2446
   1625.2460      10.6069       1.7525       3.1873       2.4267
   1625.3984      10.7153       1.9505       3.4303       2.2861
   1625.5508      10.5228       1.8416       3.3678       2.2861
   1625.7032      10.4978       2.0495       4.5182       2.1502
   1625.8556      10.6693       1.7921       3.0443       2.3707
   1626.0081      10.7512       1.9703       3.7949       2.4257
   1626.1604      10.7328       1.6139       3.4938       2.1485
   1626.3127      10.6905       1.5545       3.7258       1.8317
   1626.4652      10.6900       1.9109       3.3371       2.1089
   1626.6176      10.7357       1.8713       2.7518       2.0297
   1626.7700      10.8437       2.2185       3.2167       2.3663
   1626.9224      11.0760       1.7812       2.5569       2.2673
   1627.0748      11.2298       1.6742       2.8811       1.7921
   1627.2272      11.0342       1.7538       2.7266       2.0693
   1627.3796      10.8883       1.8525       2.8547       2.0297
   1627.5320      11.0971       1.7525       2.9889       1.8302
   1627.6844      11.0797       1.6139       3.5586       1.7443
   1627.8368      10.4631       2.1839       6.1739       2.2179
   1627.9893       9.7507       3.0990      12.6365       6.3403
   1628.1416       9.3517      10.1287       5.0911      10.0495
   1628.2939       9.4705      10.1485      10.2915      10.0891
   1628.4464       9.6347       2.0693     109.3495       6.5385
   1628.5988       9.5183       3.2509      12.2932       2.9010
   1628.7512       9.4002       6.4908       3.9368       6.7444
   1628.9036       9.3916      10.2475       7.0488      10.0297
   1629.0560       9.3740      10.3069      19.0386      10.1287
   1629.2084       9.4990      10.2020     117.6850      10.0693
   1629.3608       9.7489       1.5795      47.1908       7.6974
   1629.5132       9.9320       1.6968       8.8260       1.8911
   1629.6656       9.9989       2.4679       2.6080       2.6972
   1629.8180       9.8419       3.3564       2.6089       3.4752
   1629.9705       9.6760       3.1598       3.1873       2.6634
   1630.1228       9.4214       4.9406       5.0911       3.7525
   1630.2751       9.2166       3.1584      10.8101       2.9010
   1630.4276       9.1106      10.3982       4.0841       6.9038
   1630.5800       9.0282       6.3619      46.1255       9.2178
   1630.7324       8.9832       8.9208       9.9527       8.6005
   1630.8848       8.9780       4.7228      22.7438       4.4149
   1631.0372       9.0134       8.6040       8.9142       7.9590
   1631.1896       9.0586       3.8913       5.5980       3.5545
   1631.3420       9.0604      10.0669      21.8029      10.0297
