~Version Information
VERS  .          2.0                                   :CWLS Log Ascii Standard - Version 2.0
WRAP  .          NO                                    :One line per depth step
~Well Information Block
#MNEM.UNIT       Data Type                             Information
#---------       ---------                             -------------------------------
STRT  .M         301.0668                              :PROFUNDIDAD INICIAL
STOP  .M         1842.0000                             :PROFUNDIDAD FINAL
STEP  .M         0.1524                                :INCREMENTO
NULL  .          -999.25                               :VALOR NULO 
COMP  .          PETROLEOS MEXICANOS                   :COMPANIA
WELL  .          ABEDUL-1                              :NOMBRE DEL POZO 
FLD   .          ABEDUL                                :CAMPO 
STAT  .          VERACRUZ                              :ESTADO
CNTY  .          COATZINTLA                            :MUNICIPIO
CTRY  .          MEXICO                                :PAIS
DATE  .          03-MAR-79                             :FECHA
UWI   .          1030022740                            :VALOR UNICO DEL POZO
SRVC  .          PEMEX                                 :COMPANIA DE SERVICIOS
~Parameter Information Block
#MNEM.UNIT       Value                                 Description
#---------       ---------                             -------------
FL.              X=                                    :LOCALIZACION DEL CAMPO
FL1.             Y=                                    :LOCALIZACION DEL CAMPO
PDAT.            NIVEL DEL TERRENO                     :DATO PERMANENTE
EPD.M            135.10                                :ELEVACION DEL DATO PERMANENTE
APD.M            3.8                                   :DIFERENCIA ENTRE MR Y NIVEL DE TERRENO
EKB.M            139.58                                :ELEVACION DEL KELLY BUSHING
EDF.M            139.28                                :ELEVACION DE LA MESA ROTARIA
EGL.M            135.10                                :ELEVACION DEL TERRENO
ELZ.M            139.28                                :ELEVACION DEL CERO DE REFERENCIA
LMF.             MESA ROTARIA                          :REGISTRO MEDIDO DESDE
DMF.             MESA ROTARIA                          :PROFUNDIDAD MEDIDA DESDE
SECT.            DISTRITO POZA RICA                    :NOMBRE DEL SECTOR
CN.              PETROLEOS MEXICANOS                   :NOMBRE DE LA COMPANIA
LATI.            Y=78,766.87 M.                        :LATITUD
LONG.            X=119,309.85 M.                       :LONGITUD
NATI.            MEXICO                                :NACION
RANG.            ZONA NORTE                            :NOMBRE DE LA ZONA
SLAB.            ESTADO                                :ESTADO 
STAT.            VERACRUZ                              :NOMBRE DEL ESTADO
CLAB.            MUNICIPIO                             :ETIQUETA DEL MUNICIPIO
COUN.            COATZINTLA                            :NOMBRE DEL MUNICIPIO
SRVC.            REGISTRO IL  1:500                    :NOMBRE DEL SERVICIO
DATE.            03-MAR-79                             :FECHA DEL SERVICIO
BLI.M            1842.0000                             :PRIMERA LECTURA
TLI.M            301.0668                              :ULTIMA LECTURA
QCEN.            FABIOLA NALLELY PEREZ CASTELAN        :NOMBRE DEL INGENIERO DEL CONTROL DE CALIDAD DEL REGISTRO
DLQC.            01-APR-2009                           :FECHA DEL CONTROL DE CALIDAD DEL REGISTRO
CBL1.M           291.0                                 :ZAPATA SCHLUMBERGER
CBD1.M           300.0                                 :ZAPATA PERFORACION
TDL.M            1842.0                                :PROFUNDIDAD REGISTRO
TDD.M            1851.0                                :PROFUNDIDAD PERFORADOR
DFT.             SODICO                                :TIPO DE LODO
DFD.G/C3         1.25                                  :DENSIDAD DE LODO
DFV.S            45                                    :VISCOSIDAD DEL LODO
DFPH.            8.6                                   :PH DEL LODO
DFL.C3           N.R.                                  :PERDIDA DE LODO
MSS.             PRESA                                 :FUENTE DE LA MUESTRA DE LODO
RMS.ohm.m        1.8                                   :RESISTIVIDAD DE LODO
MST.DEGC         29                                    :TEMPERATURA DE LA MUESTRA DE LODO
MFSS.            PRENSA                                :FUENTE DEL FILTRADO DE LODO
RMFS.ohm.m       N.R.                                  :RESISTIVIDAD DEL FILTRADO
MFST.DEGC        N.R.                                  :TEMPERATURA DEL FILTRADO
MCSS.            PRENSA                                :FUENTE DEL ENJARRE DE LODO
RMCS.ohm.m       N.R.                                  :RESISTIVIDAD DEL ENJARRE DE LODO
MCST.DEGC        N.R.                                  :TEMPERATURA DEL ENJARRE
BSAL.PPM         N.R.                                  :SALINIDAD DEL LODO
TCS.             N.R.                                  :HORA EN QUE PARO CIRCULACION
STEM.DEGC        29                                    :TEMPERATURA DE SUPERFICIE
BHT.DEGC         70                                    :TEMPERATURA DE FONDO
MRT.DEGC         70                                    :MAXIMA TEMPERATURA REGISTRADA
BS.IN            8.5                                   :DIAMETRO DE BARRENA
CSIZ.IN          N.R.                                  :DIAMETRO DE T.R.
CWEI.lbm/ft      N.R.                                  :PESO DE LA T.R.
CTD1.M           300.0                                 :FONDO DE LA T.R. DEL PERFORADOR
CTL1.M           291.0                                 :FONDO DE LA T.R. DEL REGISTRO
ENGI.            PEDRO SABATH                          :NOMBRE DEL INGENIERO
WITN.            RAFAEL SANDOVAL CERVANTES             :NOMBRE DEL TESTIGO
LUN.             8-A                                   :NUMERO DE LA UNIDAD
RUN.             UNO                                   :NUMERO DE LA CORRIDA
OS1.             N.R.                                  :SERVICIOS
HIDE.            REGISTRO DE INDUCCION                 :NOMBRE DEL SERVICIO
HID1.            1:500                                 :NOMBRE DEL SERVICIO
LUL.             POZA RICA                             :LUGAR DE LA UNIDAD
R1.              POZA RICA                             :Remarks 1
R2.                                                    :Remarks 2
R3.  TRACK1            POTENCIAL NATURAL               :Remarks 3
R4.                           MV                       :Remarks 4
R5.                         -|10|+                     :Remarks 5
R6.                   -80_____________20               :Remarks 6
R7.                                                    :Remarks 7
R8.  TRACK2               RESISTIVIDAD                 :Remarks 8
R9.                           SN                       :Remarks 9
R10.                       OHMS-M2/M                   :Remarks 10
R11.                    0_____________20               :Remarks 11
R12.                    0_____________200              :Remarks 12
R13.                          ILD                      :Remarks 13
R14.                       OHMS-M2/M                   :Remarks 14
R15.                    0_____________20               :Remarks 15
R16.                    0_____________200              :Remarks 16
R17.                                                   :Remarks 17
R18.  TRACK3             CONDUCTIVIDAD                 :Remarks 18
R19.                         CILD                      :Remarks 19
R20.                       MILIMHOS/M                  :Remarks 20
R21.                  500_____________0                :Remarks 21
R22.                 1000_____________500              :Remarks 22
R23.                                                   :Remarks 23
R24.                                                   :Remarks 24
R25.                                                   :Remarks 25
R26. TEMPERATURA MAXIMA 70 degC                        :Remarks 26
R27. RM@TF=1.0 @ 70 PRENSA ; RMF@TF=0.75 @ 70 PRENSA   :Remarks 27
R28. RMC@TF=1.0 @ 70 PRENSA                            :Remarks 28
R29.                                                   :Remarks 29
R30.                                                   :Remarks 30
~Curve Information Block
#MNEM.UNIT       API Code            Curve    Description
#--------        --------------      -----    -------------------
DEPT  .M                             :0       Index
CILD  .MM/M                          :1       Calibrated Induction Deep Conductivity
ILD   .OHMM                          :2       Induction Deep Resistivity    
SN    .OHMM                          :3       Short Normal Resistivity (16 inch spacing)
SP    .MV                            :4       Spontaneous Potential         
~Ascii Data Section
# ...
   1113.6636     475.9509       2.6011       3.1114     -18.1801
   1113.8160     471.0318       2.6230       3.2284     -17.9394
   1113.9684     466.1817       2.6451       3.3349     -17.7079
   1114.1208     462.2919       2.6631       3.3141     -17.3803
   1114.2732     461.4403       2.6671       3.2291     -17.3456
   1114.4257     461.5543       2.6666       3.1728     -17.5224
   1114.5780     454.5880       2.6998       3.2150     -17.9381
   1114.7303     452.5739       2.7096       3.3292     -17.9300
   1114.8828     448.4148       2.7301       3.4991     -18.1318
   1115.0352     443.8689       2.7529       3.4611     -18.5254
   1115.1876     439.3028       2.7763       3.3433     -18.5403
   1115.3400     436.0930       2.7931       3.4225     -18.5545
   1115.4924     426.9380       2.8423       3.5244     -18.5307
   1115.6448     424.8238       2.8539       3.6734     -18.5662
   1115.7972     434.7968       2.7999       3.7325     -18.3971
   1115.9496     441.4008       2.7655       3.6242     -18.2851
   1116.1021     453.4068       2.7055       3.4997     -18.2836
   1116.2544     460.4208       2.6719       3.3401     -18.3612
   1116.4069     464.4289       2.6532       3.2871     -18.3454
   1116.5592     470.4409       2.6257       3.1699     -18.3435
   1116.7115     475.4509       2.6033       3.1457     -18.3503
   1116.8640     480.4609       2.5813       3.0990     -18.3456
   1117.0164     479.2851       2.5864       3.0559     -18.3430
   1117.1688     477.8557       2.5927       3.0710     -18.3579
   1117.3212     467.2099       2.6404       3.1000     -18.3228
   1117.4736     461.1687       2.6684       3.1366     -18.5101
   1117.6260     454.1390       2.7020       3.1979     -18.5482
   1117.7784     451.1184       2.7167       3.3191     -18.5093
   1117.9308     450.0874       2.7218       3.4643     -18.3264
   1118.0833     444.8367       2.7480       3.5419     -18.3485
   1118.2356     440.9865       2.7676       3.5763     -18.3625
   1118.3881     437.9611       2.7833       3.5277     -18.1875
   1118.5404     430.9553       2.8204       3.4946     -18.1468
   1118.6927     427.9891       2.8365       3.5383     -18.1438
   1118.8452     427.0496       2.8416       3.6192     -18.1510
   1118.9976     423.6761       2.8603       3.7027     -18.1457
   1119.1500     422.5441       2.8666       3.6213     -18.1831
   1119.3024     422.2130       2.8685       3.6613     -18.2920
   1119.4548     420.2462       2.8796       3.7774     -18.3916
   1119.6072     418.3367       2.8904       3.8168     -18.5631
   1119.7596     416.3327       2.9019       3.8604     -18.5373
   1119.9120     415.3307       2.9077       3.7781     -18.5497
   1120.0645     414.3268       2.9136       3.7155     -18.5411
   1120.2168     413.3267       2.9194       3.6993     -18.5537
   1120.3693     412.3246       2.9253       3.7396     -18.5294
   1120.5216     410.3206       2.9371       3.8857     -18.6958
   1120.6740     409.3186       2.9431       3.8270     -18.7644
   1120.8264     408.3166       2.9491       3.7893     -18.5932
   1120.9788     406.4669       2.9602       3.8068     -18.4713
   1121.1312     410.0402       2.9388       3.9323     -18.2156
   1121.2836     413.3267       2.9194       3.9114     -18.1649
   1121.4360     416.3327       2.9019       3.7935     -17.9878
   1121.5884     420.3407       2.8790       3.7391     -17.9470
   1121.7408     425.3507       2.8510       3.7750     -17.9458
   1121.8932     425.3507       2.8510       3.8443     -17.9520
   1122.0457     425.7043       2.8490       3.7298     -17.9441
   1122.1980     426.3527       2.8455       3.6691     -17.9587
   1122.3505     425.3507       2.8510       3.6565     -17.9253
   1122.5028     420.3407       2.8790       3.8051     -18.1171
   1122.6552     417.3347       2.8962       3.8697     -18.1292
   1122.8076     412.3246       2.9253       3.8303     -18.3100
   1122.9600     407.3146       2.9551       3.8823     -18.3452
   1123.1124     405.2571       2.9676       4.0059     -18.3510
   1123.2648     402.8749       2.9822       4.0145     -18.3413
   1123.4172     402.3046       2.9857       3.9414     -18.3534
   1123.5696     402.3046       2.9857       3.7856     -18.3329
   1123.7220     405.3106       2.9672       3.9091     -18.3699
   1123.8744     408.3166       2.9491       4.0644     -18.1895
   1124.0269     418.1882       2.8913       4.0001     -18.1042
   1124.1792     428.3567       2.8345       3.6883     -17.9284
   1124.3315     437.2514       2.7870       3.5817     -17.9570
   1124.4840     438.2482       2.7818       3.5378     -17.9434
   1124.6364     439.2650       2.7765       3.6150     -17.9853
   1124.7888     441.3015       2.7660       3.6371     -18.1716
   1124.9412     443.6342       2.7541       3.3600     -18.1391
   1125.0936     445.7742       2.7433       3.3950     -18.1113
   1125.2460     447.9000       2.7326       3.5145     -17.9281
   1125.3984     448.3960       2.7302       3.6661     -17.9560
   1125.5508     446.3928       2.7402       3.7202     -17.9474
   1125.7032     445.3908       2.7452       3.6085     -17.9445
   1125.8556     445.3908       2.7452       3.4891     -17.9525
   1126.0081     445.9850       2.7422       3.4013     -17.9497
   1126.1604     445.3908       2.7452       3.4302     -17.9087
   1126.3127     445.3908       2.7452       3.6086     -17.7295
   1126.4652     441.3828       2.7656       3.6594     -17.7595
   1126.6176     438.3767       2.7811       3.5459     -17.7429
   1126.7700     430.3607       2.8236       3.5830     -17.7555
   1126.9224     426.3527       2.8455       3.7025     -17.7394
   1127.0748     428.3794       2.8344       3.8319     -17.8874
   1127.2272     428.3567       2.8345       3.8148     -18.1116
   1127.3796     428.3567       2.8345       3.7366     -18.1490
   1127.5320     426.3527       2.8455       3.5954     -18.1504
   1127.6844     424.3487       2.8566       3.6498     -18.1467
   1127.8368     420.3407       2.8790       3.8565     -18.1106
   1127.9893     419.8705       2.8817       3.9657     -17.9228
   1128.1416     421.1976       2.8742       3.8547     -17.9638
   1128.2939     421.1826       2.8743       3.8117     -17.9420
   1128.4464     421.1686       2.8743       3.8886     -17.9159
   1128.5988     420.1567       2.8801       3.9906     -17.5957
   1128.7512     418.1607       2.8914       4.0655     -17.4001
   1128.9036     414.2704       2.9139       3.9578     -17.5240
   1129.0560     409.5271       2.9418       4.0391     -17.5481
   1129.2084     405.3106       2.9672       4.1733     -17.5569
   1129.3608     400.3006       2.9981       4.2573     -17.5440
   1129.5132     393.2866       3.0427       4.3345     -17.5557
   1129.6656     391.2826       3.0557       4.2200     -17.5436
   1129.8180     390.2805       3.0623       4.0724     -17.6860
   1129.9705     390.6866       3.0596       3.9065     -17.9046
   1130.1228     391.1753       3.0564       3.8689     -18.0036
   1130.2751     392.2846       3.0492       4.0178     -18.1455
   1130.4276     396.2926       3.0234       4.1329     -18.2949
   1130.5800     403.3066       2.9795       4.1159     -18.3596
   1130.7324     408.3166       2.9491       3.9987     -18.3081
   1130.8848     419.3387       2.8847       4.1019     -18.0851
   1131.0372     425.6369       2.8494       3.9480     -17.9461
   1131.1896     433.3667       2.8075       3.7894     -17.9083
   1131.3420     437.3748       2.7864       3.7884     -17.7282
   1131.4944     438.3767       2.7811       3.8008     -17.7958
   1131.6469     434.3687       2.8022       3.7240     -17.9635
   1131.7992     432.3647       2.8129       3.7614     -17.9779
   1131.9517     429.8154       2.8266       3.7862     -18.1735
   1132.1040     427.9830       2.8365       3.8560     -18.1344
   1132.2563     425.3507       2.8510       3.8652     -18.1525
   1132.4088     421.3427       2.8734       3.9105     -18.1506
