~Version Information
VERS  .          2.0                                   :CWLS Log Ascii Standard - Version 2.0
WRAP  .          NO                                    :One line per depth step
~Well Information Block
#MNEM.UNIT       Data Type                             Information
#---------       ---------                             -------------------------------
STRT  .M         301.0668                              :PROFUNDIDAD INICIAL
STOP  .M         1842.0000                             :PROFUNDIDAD FINAL
STEP  .M         0.1524                                :INCREMENTO
NULL  .          -999.25                               :VALOR NULO 
COMP  .          PETROLEOS MEXICANOS                   :COMPANIA
WELL  .          ABEDUL-1                              :NOMBRE DEL POZO 
FLD   .          ABEDUL                                :CAMPO 
STAT  .          VERACRUZ                              :ESTADO
CNTY  .          COATZINTLA                            :MUNICIPIO
CTRY  .          MEXICO                                :PAIS
DATE  .          03-MAR-79                             :FECHA
UWI   .          1030022740                            :VALOR UNICO DEL POZO
SRVC  .          PEMEX                                 :COMPANIA DE SERVICIOS
~Parameter Information Block
#MNEM.UNIT       Value                                 Description
#---------       ---------                             -------------
FL.              X=                                    :LOCALIZACION DEL CAMPO
FL1.             Y=                                    :LOCALIZACION DEL CAMPO
PDAT.            NIVEL DEL TERRENO                     :DATO PERMANENTE
EPD.M            135.10                                :ELEVACION DEL DATO PERMANENTE
APD.M            3.8                                   :DIFERENCIA ENTRE MR Y NIVEL DE TERRENO
EKB.M            139.58                                :ELEVACION DEL KELLY BUSHING
EDF.M            139.28                                :ELEVACION DE LA MESA ROTARIA
EGL.M            135.10                                :ELEVACION DEL TERRENO
ELZ.M            139.28                                :ELEVACION DEL CERO DE REFERENCIA
LMF.             MESA ROTARIA                          :REGISTRO MEDIDO DESDE
DMF.             MESA ROTARIA                          :PROFUNDIDAD MEDIDA DESDE
SECT.            DISTRITO POZA RICA                    :NOMBRE DEL SECTOR
CN.              PETROLEOS MEXICANOS                   :NOMBRE DE LA COMPANIA
LATI.            Y=78,766.87 M.                        :LATITUD
LONG.            X=119,309.85 M.                       :LONGITUD
NATI.            MEXICO                                :NACION
RANG.            ZONA NORTE                            :NOMBRE DE LA ZONA
SLAB.            ESTADO                                :ESTADO 
STAT.            VERACRUZ                              :NOMBRE DEL ESTADO
CLAB.            MUNICIPIO                             :ETIQUETA DEL MUNICIPIO
COUN.            COATZINTLA                            :NOMBRE DEL MUNICIPIO
SRVC.            REGISTRO IL  1:500                    :NOMBRE DEL SERVICIO
DATE.            03-MAR-79                             :FECHA DEL SERVICIO
BLI.M            1842.0000                             :PRIMERA LECTURA
TLI.M            301.0668                              :ULTIMA LECTURA
QCEN.            FABIOLA NALLELY PEREZ CASTELAN        :NOMBRE DEL INGENIERO DEL CONTROL DE CALIDAD DEL REGISTRO
DLQC.            01-APR-2009                           :FECHA DEL CONTROL DE CALIDAD DEL REGISTRO
CBL1.M           291.0                                 :ZAPATA SCHLUMBERGER
CBD1.M           300.0                                 :ZAPATA PERFORACION
TDL.M            1842.0                                :PROFUNDIDAD REGISTRO
TDD.M            1851.0                                :PROFUNDIDAD PERFORADOR
DFT.             SODICO                                :TIPO DE LODO
DFD.G/C3         1.25                                  :DENSIDAD DE LODO
DFV.S            45                                    :VISCOSIDAD DEL LODO
DFPH.            8.6                                   :PH DEL LODO
DFL.C3           N.R.                                  :PERDIDA DE LODO
MSS.             PRESA                                 :FUENTE DE LA MUESTRA DE LODO
RMS.ohm.m        1.8                                   :RESISTIVIDAD DE LODO
MST.DEGC         29                                    :TEMPERATURA DE LA MUESTRA DE LODO
MFSS.            PRENSA                                :FUENTE DEL FILTRADO DE LODO
RMFS.ohm.m       N.R.                                  :RESISTIVIDAD DEL FILTRADO
MFST.DEGC        N.R.                                  :TEMPERATURA DEL FILTRADO
MCSS.            PRENSA                                :FUENTE DEL ENJARRE DE LODO
RMCS.ohm.m       N.R.                                  :RESISTIVIDAD DEL ENJARRE DE LODO
MCST.DEGC        N.R.                                  :TEMPERATURA DEL ENJARRE
BSAL.PPM         N.R.                                  :SALINIDAD DEL LODO
TCS.             N.R.                                  :HORA EN QUE PARO CIRCULACION
STEM.DEGC        29                                    :TEMPERATURA DE SUPERFICIE
BHT.DEGC         70                                    :TEMPERATURA DE FONDO
MRT.DEGC         70                                    :MAXIMA TEMPERATURA REGISTRADA
BS.IN            8.5                                   :DIAMETRO DE BARRENA
CSIZ.IN          N.R.                                  :DIAMETRO DE T.R.
CWEI.lbm/ft      N.R.                                  :PESO DE LA T.R.
CTD1.M           300.0                                 :FONDO DE LA T.R. DEL PERFORADOR
CTL1.M           291.0                                 :FONDO DE LA T.R. DEL REGISTRO
ENGI.            PEDRO SABATH                          :NOMBRE DEL INGENIERO
WITN.            RAFAEL SANDOVAL CERVANTES             :NOMBRE DEL TESTIGO
LUN.             8-A                                   :NUMERO DE LA UNIDAD
RUN.             UNO                                   :NUMERO DE LA CORRIDA
OS1.             N.R.                                  :SERVICIOS
HIDE.            REGISTRO DE INDUCCION                 :NOMBRE DEL SERVICIO
HID1.            1:500                                 :NOMBRE DEL SERVICIO
LUL.             POZA RICA                             :LUGAR DE LA UNIDAD
R1.              POZA RICA                             :Remarks 1
R2.                                                    :Remarks 2
R3.  TRACK1            POTENCIAL NATURAL               :Remarks 3
R4.                           MV                       :Remarks 4
R5.                         -|10|+                     :Remarks 5
R6.                   -80_____________20               :Remarks 6
R7.                                                    :Remarks 7
R8.  TRACK2               RESISTIVIDAD                 :Remarks 8
R9.                           SN                       :Remarks 9
R10.                       OHMS-M2/M                   :Remarks 10
R11.                    0_____________20               :Remarks 11
R12.                    0_____________200              :Remarks 12
R13.                          ILD                      :Remarks 13
R14.                       OHMS-M2/M                   :Remarks 14
R15.                    0_____________20               :Remarks 15
R16.                    0_____________200              :Remarks 16
R17.                                                   :Remarks 17
R18.  TRACK3             CONDUCTIVIDAD                 :Remarks 18
R19.                         CILD                      :Remarks 19
R20.                       MILIMHOS/M                  :Remarks 20
R21.                  500_____________0                :Remarks 21
R22.                 1000_____________500              :Remarks 22
R23.                                                   :Remarks 23
R24.                                                   :Remarks 24
R25.                                                   :Remarks 25
R26. TEMPERATURA MAXIMA 70 degC                        :Remarks 26
R27. RM@TF=1.0 @ 70 PRENSA ; RMF@TF=0.75 @ 70 PRENSA   :Remarks 27
R28. RMC@TF=1.0 @ 70 PRENSA                            :Remarks 28
R29.                                                   :Remarks 29
R30.                                                   :Remarks 30
~Curve Information Block
#MNEM.UNIT       API Code            Curve    Description
#--------        --------------      -----    -------------------
DEPT  .M                             :0       Index
CILD  .MM/M                          :1       Calibrated Induction Deep Conductivity
ILD   .OHMM                          :2       Induction Deep Resistivity    
SN    .OHMM                          :3       Short Normal Resistivity (16 inch spacing)
SP    .MV                            :4       Spontaneous Potential         
~Ascii Data Section
# ...
   1019.1756     453.4068       2.7055       3.3030     -21.0657
   1019.3280     444.3888       2.7503       3.3839     -21.3003
   1019.4804     436.3727       2.7916       3.4538     -21.3391
   1019.6328     420.3407       2.8790       3.5740     -21.3333
   1019.7852     408.3166       2.9491       3.6649     -21.3336
   1019.9376     406.3126       2.9612       3.8092     -21.3351
   1020.0900     397.5526       3.0154       3.8452     -21.3327
   1020.2424     391.2826       3.0557       3.8954     -21.3375
   1020.3948     394.2886       3.0362       3.8912     -21.3285
   1020.5472     397.2946       3.0170       3.8513     -21.3451
   1020.6996     402.3046       2.9857       3.7799     -21.1954
   1020.8520     403.3066       2.9795       3.7085     -20.9749
   1021.0044     407.0259       2.9568       3.6684     -20.9300
   1021.1568     410.3206       2.9371       3.6604     -20.9406
   1021.3092     410.3206       2.9371       3.6552     -20.9325
   1021.4616     409.3186       2.9431       3.7021     -20.9400
   1021.6140     404.3086       2.9734       3.7402     -20.9631
   1021.7664     403.3066       2.9795       3.7762     -21.3044
   1021.9188     402.3046       2.9857       3.8357     -21.4665
   1022.0712     398.9605       3.0065       3.8381     -21.7006
   1022.2236     396.2926       3.0234       3.8635     -21.7366
   1022.3760     395.8120       3.0265       3.8493     -21.7291
   1022.5284     398.2966       3.0107       3.8040     -21.7357
   1022.6808     405.3106       2.9672       3.7031     -21.7366
   1022.8332     415.3307       2.9077       3.6702     -21.6847
   1022.9856     425.0365       2.8527       3.5428     -21.5361
   1023.1380     433.2398       2.8082       3.4676     -21.3496
   1023.2904     438.3767       2.7811       3.3356     -21.0875
   1023.4428     444.3888       2.7503       3.2461     -21.3452
   1023.5952     446.3928       2.7402       3.2235     -21.5473
   1023.7476     445.3908       2.7452       3.2970     -21.5389
   1023.9000     439.3788       2.7759       3.3225     -21.3971
   1024.0524     436.8458       2.7891       3.4106     -21.1381
   1024.2048     429.3587       2.8291       3.5013     -20.9007
   1024.3572     424.3487       2.8566       3.5810     -20.9661
   1024.5096     417.3347       2.8962       3.6517     -20.7753
   1024.6620     413.3267       2.9194       3.6582     -20.7333
   1024.8145     417.1788       2.8971       3.5499     -20.7376
   1024.9668     425.0202       2.8528       3.4492     -20.7381
   1025.1193     432.8683       2.8102       3.3575     -20.7331
   1025.2716     441.4414       2.7653       3.2858     -20.7521
   1025.4240     449.4851       2.7248       3.2555     -20.6773
   1025.5764     455.4943       2.6954       3.1838     -20.6665
   1025.7288     462.4817       2.6622       3.1775     -20.8076
   1025.8812     467.4543       2.6392       3.0969     -20.7969
   1026.0336     470.6269       2.6248       3.0540     -20.7227
   1026.1860     474.4083       2.6079       3.0944     -20.7395
   1026.3384     474.4489       2.6077       3.0962     -20.7391
   1026.4908     474.4489       2.6077       3.1338     -20.7346
   1026.6432     474.4489       2.6077       3.1373     -20.7384
   1026.7957     471.4429       2.6211       3.1705     -20.7367
   1026.9480     472.4449       2.6166       3.2079     -20.7363
   1027.1005     473.7907       2.6106       3.2538     -20.7389
   1027.2528     476.4529       2.5988       3.2531     -20.7335
   1027.4052     479.4589       2.5857       3.2091     -20.7405
   1027.5576     484.3317       2.5647       3.1690     -20.7387
   1027.7100     488.1876       2.5484       3.1379     -20.6974
   1027.8624     482.6135       2.5721       3.1423     -20.5177
   1028.0148     476.9837       2.5965       3.1350     -20.5478
   1028.1672     470.2767       2.6264       3.1818     -20.5340
   1028.3196     465.2602       2.6493       3.2201     -20.5377
   1028.4720     460.2548       2.6727       3.2576     -20.5421
   1028.6244     453.2692       2.7062       3.3125     -20.5283
   1028.7769     451.3260       2.7157       3.3490     -20.5562
   1028.9292     449.5338       2.7245       3.4308     -20.4028
   1029.0815     445.9950       2.7422       3.4123     -20.4579
   1029.2340     442.5298       2.7597       3.3849     -20.5313
   1029.3864     442.5581       2.7596       3.4164     -20.5406
   1029.5388     444.5644       2.7494       3.3775     -20.5366
   1029.6912     446.5482       2.7394       3.3423     -20.5380
   1029.8436     448.3968       2.7302       3.2978     -20.5372
   1029.9960     450.1078       2.7217       3.2888     -20.5396
   1030.1484     449.6168       2.7241       3.2878     -20.5342
   1030.3008     448.3968       2.7302       3.3093     -20.5417
   1030.4532     446.3928       2.7402       3.3515     -20.5386
   1030.6056     444.3888       2.7503       3.3888     -20.4995
   1030.7581     442.3848       2.7605       3.4313     -20.3182
   1030.9104     441.3828       2.7656       3.4631     -20.3446
   1031.0627     440.7098       2.7691       3.4567     -20.3480
   1031.2152     440.2770       2.7713       3.4645     -20.3097
   1031.3676     439.2990       2.7764       3.4278     -20.5189
   1031.5200     439.3253       2.7762       3.4197     -20.3801
   1031.6724     438.3434       2.7813       3.4189     -20.3383
   1031.8248     438.3607       2.7812       3.4217     -20.3374
   1031.9772     436.9214       2.7887       3.4188     -20.3365
   1032.1296     434.8587       2.7996       3.4196     -20.3388
   1032.2820     432.8086       2.8105       3.4296     -20.3817
   1032.4344     431.3627       2.8182       3.4598     -20.5130
   1032.5868     429.3587       2.8291       3.4961     -20.3224
   1032.7393     427.3547       2.8400       3.5546     -20.3279
   1032.8916     425.3507       2.8510       3.5867     -20.4931
   1033.0439     422.5323       2.8667       3.6522     -20.5782
   1033.1964     420.3407       2.8790       3.6639     -20.7623
   1033.3488     421.3427       2.8734       3.6253     -20.7223
   1033.5012     423.2572       2.8626       3.6279     -20.7411
   1033.6536     426.2660       2.8460       3.5452     -20.7415
   1033.8060     432.3110       2.8131       3.4952     -20.7216
   1033.9584     439.4128       2.7758       3.3850     -20.7624
   1034.1108     447.5107       2.7346       3.3127     -20.5783
   1034.2632     458.5207       2.6809       3.2361     -20.4902
   1034.4156     475.5654       2.6028       3.1951     -20.3369
   1034.5680     492.4850       2.5305       3.1090     -20.1517
   1034.7205     493.4870       2.5264       3.0267     -19.9131
   1034.8728     490.4810       2.5388       2.9921     -19.9476
   1035.0251     495.4910       2.5182       2.9477     -19.8593
   1035.1776     499.4990       2.5020       2.9455     -19.7885
   1035.3300     504.5090       2.4821       2.9941     -19.5729
   1035.4824     493.4870       2.5264       3.0263     -19.5618
   1035.6348     482.4649       2.5727       3.0942     -19.3750
   1035.7872     474.4489       2.6077       3.1325     -19.3565
   1035.9396     461.4229       2.6672       3.2457     -19.3183
   1036.0920     446.3928       2.7402       3.2971     -19.4957
   1036.2444     437.3748       2.7864       3.3798     -19.7273
   1036.3969     429.4287       2.8287       3.4619     -20.1007
   1036.5492     424.3487       2.8566       3.5186     -20.3403
   1036.7017     421.3427       2.8734       3.5865     -20.5443
   1036.8540     419.3387       2.8847       3.5842     -20.6876
   1037.0063     417.3347       2.8962       3.6251     -20.7409
   1037.1588     417.3347       2.8962       3.6185     -20.7374
   1037.3112     417.3347       2.8962       3.6196     -20.7340
   1037.4636     417.3347       2.8962       3.6203     -20.7461
   1037.6160     416.3327       2.9019       3.6269     -20.6833
   1037.7684     409.3186       2.9431       3.6653     -20.5412
   1037.9208     407.3146       2.9551       3.6615     -20.3887
