~Version Information
VERS  .          2.0                                   :CWLS Log Ascii Standard - Version 2.0
WRAP  .          NO                                    :One line per depth step
~Well Information Block
#MNEM.UNIT       Data Type                             Information
#---------       ---------                             -------------------------------
STRT  .M         301.0668                              :PROFUNDIDAD INICIAL
STOP  .M         1842.0000                             :PROFUNDIDAD FINAL
STEP  .M         0.1524                                :INCREMENTO
NULL  .          -999.25                               :VALOR NULO 
COMP  .          PETROLEOS MEXICANOS                   :COMPANIA
WELL  .          ABEDUL-1                              :NOMBRE DEL POZO 
FLD   .          ABEDUL                                :CAMPO 
STAT  .          VERACRUZ                              :ESTADO
CNTY  .          COATZINTLA                            :MUNICIPIO
CTRY  .          MEXICO                                :PAIS
DATE  .          03-MAR-79                             :FECHA
UWI   .          1030022740                            :VALOR UNICO DEL POZO
SRVC  .          PEMEX                                 :COMPANIA DE SERVICIOS
~Parameter Information Block
#MNEM.UNIT       Value                                 Description
#---------       ---------                             -------------
FL.              X=                                    :LOCALIZACION DEL CAMPO
FL1.             Y=                                    :LOCALIZACION DEL CAMPO
PDAT.            NIVEL DEL TERRENO                     :DATO PERMANENTE
EPD.M            135.10                                :ELEVACION DEL DATO PERMANENTE
APD.M            3.8                                   :DIFERENCIA ENTRE MR Y NIVEL DE TERRENO
EKB.M            139.58                                :ELEVACION DEL KELLY BUSHING
EDF.M            139.28                                :ELEVACION DE LA MESA ROTARIA
EGL.M            135.10                                :ELEVACION DEL TERRENO
ELZ.M            139.28                                :ELEVACION DEL CERO DE REFERENCIA
LMF.             MESA ROTARIA                          :REGISTRO MEDIDO DESDE
DMF.             MESA ROTARIA                          :PROFUNDIDAD MEDIDA DESDE
SECT.            DISTRITO POZA RICA                    :NOMBRE DEL SECTOR
CN.              PETROLEOS MEXICANOS                   :NOMBRE DE LA COMPANIA
LATI.            Y=78,766.87 M.                        :LATITUD
LONG.            X=119,309.85 M.                       :LONGITUD
NATI.            MEXICO                                :NACION
RANG.            ZONA NORTE                            :NOMBRE DE LA ZONA
SLAB.            ESTADO                                :ESTADO 
STAT.            VERACRUZ                              :NOMBRE DEL ESTADO
CLAB.            MUNICIPIO                             :ETIQUETA DEL MUNICIPIO
COUN.            COATZINTLA                            :NOMBRE DEL MUNICIPIO
SRVC.            REGISTRO IL  1:500                    :NOMBRE DEL SERVICIO
DATE.            03-MAR-79                             :FECHA DEL SERVICIO
BLI.M            1842.0000                             :PRIMERA LECTURA
TLI.M            301.0668                              :ULTIMA LECTURA
QCEN.            FABIOLA NALLELY PEREZ CASTELAN        :NOMBRE DEL INGENIERO DEL CONTROL DE CALIDAD DEL REGISTRO
DLQC.            01-APR-2009                           :FECHA DEL CONTROL DE CALIDAD DEL REGISTRO
CBL1.M           291.0                                 :ZAPATA SCHLUMBERGER
CBD1.M           300.0                                 :ZAPATA PERFORACION
TDL.M            1842.0                                :PROFUNDIDAD REGISTRO
TDD.M            1851.0                                :PROFUNDIDAD PERFORADOR
DFT.             SODICO                                :TIPO DE LODO
DFD.G/C3         1.25                                  :DENSIDAD DE LODO
DFV.S            45                                    :VISCOSIDAD DEL LODO
DFPH.            8.6                                   :PH DEL LODO
DFL.C3           N.R.                                  :PERDIDA DE LODO
MSS.             PRESA                                 :FUENTE DE LA MUESTRA DE LODO
RMS.ohm.m        1.8                                   :RESISTIVIDAD DE LODO
MST.DEGC         29                                    :TEMPERATURA DE LA MUESTRA DE LODO
MFSS.            PRENSA                                :FUENTE DEL FILTRADO DE LODO
RMFS.ohm.m       N.R.                                  :RESISTIVIDAD DEL FILTRADO
MFST.DEGC        N.R.                                  :TEMPERATURA DEL FILTRADO
MCSS.            PRENSA                                :FUENTE DEL ENJARRE DE LODO
RMCS.ohm.m       N.R.                                  :RESISTIVIDAD DEL ENJARRE DE LODO
MCST.DEGC        N.R.                                  :TEMPERATURA DEL ENJARRE
BSAL.PPM         N.R.                                  :SALINIDAD DEL LODO
TCS.             N.R.                                  :HORA EN QUE PARO CIRCULACION
STEM.DEGC        29                                    :TEMPERATURA DE SUPERFICIE
BHT.DEGC         70                                    :TEMPERATURA DE FONDO
MRT.DEGC         70                                    :MAXIMA TEMPERATURA REGISTRADA
BS.IN            8.5                                   :DIAMETRO DE BARRENA
CSIZ.IN          N.R.                                  :DIAMETRO DE T.R.
CWEI.lbm/ft      N.R.                                  :PESO DE LA T.R.
CTD1.M           300.0                                 :FONDO DE LA T.R. DEL PERFORADOR
CTL1.M           291.0                                 :FONDO DE LA T.R. DEL REGISTRO
ENGI.            PEDRO SABATH                          :NOMBRE DEL INGENIERO
WITN.            RAFAEL SANDOVAL CERVANTES             :NOMBRE DEL TESTIGO
LUN.             8-A                                   :NUMERO DE LA UNIDAD
RUN.             UNO                                   :NUMERO DE LA CORRIDA
OS1.             N.R.                                  :SERVICIOS
HIDE.            REGISTRO DE INDUCCION                 :NOMBRE DEL SERVICIO
HID1.            1:500                                 :NOMBRE DEL SERVICIO
LUL.             POZA RICA                             :LUGAR DE LA UNIDAD
R1.              POZA RICA                             :Remarks 1
R2.                                                    :Remarks 2
R3.  TRACK1            POTENCIAL NATURAL               :Remarks 3
R4.                           MV                       :Remarks 4
R5.                         -|10|+                     :Remarks 5
R6.                   -80_____________20               :Remarks 6
R7.                                                    :Remarks 7
R8.  TRACK2               RESISTIVIDAD                 :Remarks 8
R9.                           SN                       :Remarks 9
R10.                       OHMS-M2/M                   :Remarks 10
R11.                    0_____________20               :Remarks 11
R12.                    0_____________200              :Remarks 12
R13.                          ILD                      :Remarks 13
R14.                       OHMS-M2/M                   :Remarks 14
R15.                    0_____________20               :Remarks 15
R16.                    0_____________200              :Remarks 16
R17.                                                   :Remarks 17
R18.  TRACK3             CONDUCTIVIDAD                 :Remarks 18
R19.                         CILD                      :Remarks 19
R20.                       MILIMHOS/M                  :Remarks 20
R21.                  500_____________0                :Remarks 21
R22.                 1000_____________500              :Remarks 22
R23.                                                   :Remarks 23
R24.                                                   :Remarks 24
R25.                                                   :Remarks 25
R26. TEMPERATURA MAXIMA 70 degC                        :Remarks 26
R27. RM@TF=1.0 @ 70 PRENSA ; RMF@TF=0.75 @ 70 PRENSA   :Remarks 27
R28. RMC@TF=1.0 @ 70 PRENSA                            :Remarks 28
R29.                                                   :Remarks 29
R30.                                                   :Remarks 30
~Curve Information Block
#MNEM.UNIT       API Code            Curve    Description
#--------        --------------      -----    -------------------
DEPT  .M                             :0       Index
CILD  .MM/M                          :1       Calibrated Induction Deep Conductivity
ILD   .OHMM                          :2       Induction Deep Resistivity    
SN    .OHMM                          :3       Short Normal Resistivity (16 inch spacing)
SP    .MV                            :4       Spontaneous Potential         
~Ascii Data Section
# ...
    508.9404     802.1042       1.2467       1.8703     -22.4942
    509.0928     800.1002       1.2498       1.8750     -22.4157
    509.2452     798.0962       1.2530       1.8915     -22.3325
    509.3976     795.0902       1.2577       1.8854     -22.2979
    509.5500     799.0982       1.2514       1.8592     -22.0999
    509.7024     804.1082       1.2436       1.8192     -22.1555
    509.8548     811.1223       1.2329       1.8124     -22.0168
    510.0072     816.1323       1.2253       1.8108     -22.0792
    510.1596     818.1363       1.2223       1.8202     -21.9209
    510.3120     822.1443       1.2163       1.8305     -21.9805
    510.4644     823.1463       1.2149       1.8352     -22.1524
    510.6168     823.1463       1.2149       1.8205     -22.2358
    510.7692     822.1443       1.2163       1.7979     -22.5121
    510.9216     824.1483       1.2134       1.7793     -21.8452
    511.0740     824.1483       1.2134       1.7733     -21.7192
    511.2264     825.1503       1.2119       1.7981     -21.8730
    511.3788     824.1483       1.2134       1.8051     -21.9502
    511.5312     822.1443       1.2163       1.8190     -21.9331
    511.6836     819.1383       1.2208       1.8189     -21.8834
    511.8360     818.1363       1.2223       1.8048     -21.7370
    511.9884     820.1403       1.2193       1.7959     -21.5713
    512.1408     823.0292       1.2150       1.7846     -21.5822
    512.2932     824.1483       1.2134       1.7732     -21.6312
    512.4456     824.1483       1.2134       1.7789     -21.7811
    512.5980     823.1463       1.2149       1.8105     -21.9428
    512.7504     821.1423       1.2178       1.8120     -21.9387
    512.9028     818.1363       1.2223       1.8058     -21.8736
    513.0552     812.5809       1.2306       1.7809     -21.8105
    513.2076     808.1162       1.2374       1.7660     -21.7812
    513.3600     806.1122       1.2405       1.7581     -21.6902
    513.5124     807.1143       1.2390       1.7732     -21.5076
    513.6648     807.1143       1.2390       1.7806     -21.5459
    513.8172     802.2249       1.2465       1.8026     -21.5678
    513.9696     800.1942       1.2497       1.8131     -21.7545
    514.1220     795.9671       1.2563       1.7876     -21.7247
    514.2744     794.0860       1.2593       1.7873     -21.7359
    514.4268     795.0667       1.2578       1.8008     -21.7341
    514.5792     793.0614       1.2609       1.8311     -21.7320
    514.7316     788.0590       1.2689       1.8538     -21.7340
    514.8840     773.0461       1.2936       1.8687     -21.7414
    515.0364     766.1619       1.3052       1.8515     -21.8976
    515.1888     757.4760       1.3202       1.8357     -22.0755
    515.3412     750.0000       1.3333       1.8282     -22.3139
    515.4936     743.9880       1.3441       1.8457     -22.7031
    515.6460     729.9599       1.3699       1.8754     -22.7460
    515.7984     722.9459       1.3832       1.9136     -22.5354
    515.9508     713.9279       1.4007       1.9553     -22.2581
    516.1032     710.8862       1.4067       1.9797     -22.0872
    516.2556     709.0672       1.4103       2.0069     -21.8661
    516.4080     704.0214       1.4204       2.0468     -21.7023
    516.5604     702.9886       1.4225       2.0566     -21.7726
    516.7128     701.9330       1.4246       2.0736     -21.5555
    516.8652     700.8523       1.4268       2.0928     -21.6491
    517.0176     702.7466       1.4230       2.1060     -21.6228
    517.1700     709.6691       1.4091       2.1129     -21.9470
    517.3224     719.9399       1.3890       2.1005     -21.9357
    517.4748     740.9819       1.3496       2.0697     -22.3124
    517.6272     752.0040       1.3298       2.0675     -22.3733
    517.7796     766.0320       1.3054       2.0887     -22.4979
    517.9320     780.0601       1.2820       2.0519     -22.4355
    518.0844     790.5041       1.2650       2.0295     -22.2614
    518.2368     803.1062       1.2452       2.0028     -22.0098
    518.3892     809.1182       1.2359       2.0087     -22.1459
    518.5416     812.1243       1.2313       1.9837     -22.0871
    518.6940     810.2553       1.2342       1.9571     -21.9093
    518.8464     804.1082       1.2436       1.9405     -21.9532
    518.9988     800.5119       1.2492       1.8924     -21.8606
    519.1512     795.0902       1.2577       1.8384     -22.1483
    519.3036     791.0822       1.2641       1.8160     -22.3626
    519.4560     776.0521       1.2886       1.8195     -22.1683
    519.6084     766.0320       1.3054       1.8325     -22.1287
    519.7608     752.0040       1.3298       1.8469     -22.1307
    519.9132     743.9880       1.3441       1.8568     -22.1305
    520.0656     732.0316       1.3661       1.8744     -22.1332
    520.2180     717.9359       1.3929       1.8877     -22.1336
    520.3704     706.9138       1.4146       1.9102     -22.0926
    520.5228     695.8918       1.4370       1.9330     -21.9106
    520.6752     692.8857       1.4432       1.9663     -21.9456
    520.8276     691.8838       1.4453       1.9958     -21.9247
    520.9800     694.8898       1.4391       2.0023     -21.9323
    521.1324     701.9038       1.4247       2.0260     -21.9722
    521.2848     703.9078       1.4206       2.0492     -22.1473
    521.4372     708.9178       1.4106       2.0510     -22.1350
    521.5896     712.9258       1.4027       2.0357     -22.1058
    521.7420     717.9359       1.3929       2.0208     -22.3099
    521.8944     737.9760       1.3551       1.9969     -22.1721
    522.0468     749.1072       1.3349       1.9815     -22.1360
    522.1992     776.4465       1.2879       1.9507     -22.1173
    522.3516     789.6002       1.2665       1.9281     -22.1501
    522.5040     805.8454       1.2409       1.8876     -22.1094
    522.6564     821.1014       1.2179       1.8817     -22.2539
    522.8088     837.3133       1.1943       1.8993     -22.1119
    522.9612     856.4524       1.1676       1.8764     -22.1411
    523.1136     875.0432       1.1428       1.8454     -22.1407
    523.2660     883.2665       1.1322       1.7981     -22.0727
    523.4184     885.2706       1.1296       1.7825     -22.0377
    523.5708     883.2665       1.1322       1.7277     -21.9195
    523.7232     881.2625       1.1347       1.6933     -21.9356
    523.8756     884.2686       1.1309       1.6535     -22.0035
    524.0280     886.2725       1.1283       1.6430     -22.4130
    524.1804     894.2886       1.1182       1.6534     -22.5306
    524.3328     899.2728       1.1120       1.6689     -22.5266
    524.4852     901.3028       1.1095       1.6451     -22.5325
    524.6376     899.3251       1.1119       1.6075     -22.5296
    524.7900     897.3532       1.1144       1.5979     -22.5268
    524.9424     900.2993       1.1107       1.5693     -22.5342
    525.0948     903.0754       1.1073       1.5504     -22.5283
    525.2472     905.8246       1.1040       1.5569     -22.4975
    525.3996     913.4212       1.0948       1.5746     -22.2977
    525.5520     918.3666       1.0889       1.5617     -22.4847
    525.7044     923.3009       1.0831       1.5481     -22.6838
    525.8568     927.2556       1.0785       1.5635     -22.7301
    526.0092     940.0577       1.0638       1.5854     -22.7810
    526.1616     946.8135       1.0562       1.5781     -22.9188
    526.3140     953.4114       1.0489       1.5457     -23.0984
    526.4664     959.4998       1.0422       1.5178     -22.9692
    526.6188     960.5490       1.0411       1.4950     -22.9659
    526.7712     957.5576       1.0443       1.5087     -23.1784
    526.9236     956.5526       1.0454       1.4929     -23.3760
    527.0760     954.5526       1.0476       1.4805     -23.5596
    527.2284     954.5807       1.0476       1.4765     -23.3237
    527.3808     957.6456       1.0442       1.4884     -23.0949
    527.5332     958.7006       1.0431       1.4929     -23.3172
    527.6856     955.7109       1.0463       1.4833     -23.6942
