~Version Information
VERS  .          2.0                                   :CWLS Log Ascii Standard - Version 2.0
WRAP  .          NO                                    :One line per depth step
~Well Information Block
#MNEM.UNIT       Data Type                             Information
#---------       ---------                             -------------------------------
STRT  .M         301.0668                              :PROFUNDIDAD INICIAL
STOP  .M         1842.0000                             :PROFUNDIDAD FINAL
STEP  .M         0.1524                                :INCREMENTO
NULL  .          -999.25                               :VALOR NULO 
COMP  .          PETROLEOS MEXICANOS                   :COMPANIA
WELL  .          ABEDUL-1                              :NOMBRE DEL POZO 
FLD   .          ABEDUL                                :CAMPO 
STAT  .          VERACRUZ                              :ESTADO
CNTY  .          COATZINTLA                            :MUNICIPIO
CTRY  .          MEXICO                                :PAIS
DATE  .          03-MAR-79                             :FECHA
UWI   .          1030022740                            :VALOR UNICO DEL POZO
SRVC  .          PEMEX                                 :COMPANIA DE SERVICIOS
~Parameter Information Block
#MNEM.UNIT       Value                                 Description
#---------       ---------                             -------------
FL.              X=                                    :LOCALIZACION DEL CAMPO
FL1.             Y=                                    :LOCALIZACION DEL CAMPO
PDAT.            NIVEL DEL TERRENO                     :DATO PERMANENTE
EPD.M            135.10                                :ELEVACION DEL DATO PERMANENTE
APD.M            3.8                                   :DIFERENCIA ENTRE MR Y NIVEL DE TERRENO
EKB.M            139.58                                :ELEVACION DEL KELLY BUSHING
EDF.M            139.28                                :ELEVACION DE LA MESA ROTARIA
EGL.M            135.10                                :ELEVACION DEL TERRENO
ELZ.M            139.28                                :ELEVACION DEL CERO DE REFERENCIA
LMF.             MESA ROTARIA                          :REGISTRO MEDIDO DESDE
DMF.             MESA ROTARIA                          :PROFUNDIDAD MEDIDA DESDE
SECT.            DISTRITO POZA RICA                    :NOMBRE DEL SECTOR
CN.              PETROLEOS MEXICANOS                   :NOMBRE DE LA COMPANIA
LATI.            Y=78,766.87 M.                        :LATITUD
LONG.            X=119,309.85 M.                       :LONGITUD
NATI.            MEXICO                                :NACION
RANG.            ZONA NORTE                            :NOMBRE DE LA ZONA
SLAB.            ESTADO                                :ESTADO 
STAT.            VERACRUZ                              :NOMBRE DEL ESTADO
CLAB.            MUNICIPIO                             :ETIQUETA DEL MUNICIPIO
COUN.            COATZINTLA                            :NOMBRE DEL MUNICIPIO
SRVC.            REGISTRO IL  1:500                    :NOMBRE DEL SERVICIO
DATE.            03-MAR-79                             :FECHA DEL SERVICIO
BLI.M            1842.0000                             :PRIMERA LECTURA
TLI.M            301.0668                              :ULTIMA LECTURA
QCEN.            FABIOLA NALLELY PEREZ CASTELAN        :NOMBRE DEL INGENIERO DEL CONTROL DE CALIDAD DEL REGISTRO
DLQC.            01-APR-2009                           :FECHA DEL CONTROL DE CALIDAD DEL REGISTRO
CBL1.M           291.0                                 :ZAPATA SCHLUMBERGER
CBD1.M           300.0                                 :ZAPATA PERFORACION
TDL.M            1842.0                                :PROFUNDIDAD REGISTRO
TDD.M            1851.0                                :PROFUNDIDAD PERFORADOR
DFT.             SODICO                                :TIPO DE LODO
DFD.G/C3         1.25                                  :DENSIDAD DE LODO
DFV.S            45                                    :VISCOSIDAD DEL LODO
DFPH.            8.6                                   :PH DEL LODO
DFL.C3           N.R.                                  :PERDIDA DE LODO
MSS.             PRESA                                 :FUENTE DE LA MUESTRA DE LODO
RMS.ohm.m        1.8                                   :RESISTIVIDAD DE LODO
MST.DEGC         29                                    :TEMPERATURA DE LA MUESTRA DE LODO
MFSS.            PRENSA                                :FUENTE DEL FILTRADO DE LODO
RMFS.ohm.m       N.R.                                  :RESISTIVIDAD DEL FILTRADO
MFST.DEGC        N.R.                                  :TEMPERATURA DEL FILTRADO
MCSS.            PRENSA                                :FUENTE DEL ENJARRE DE LODO
RMCS.ohm.m       N.R.                                  :RESISTIVIDAD DEL ENJARRE DE LODO
MCST.DEGC        N.R.                                  :TEMPERATURA DEL ENJARRE
BSAL.PPM         N.R.                                  :SALINIDAD DEL LODO
TCS.             N.R.                                  :HORA EN QUE PARO CIRCULACION
STEM.DEGC        29                                    :TEMPERATURA DE SUPERFICIE
BHT.DEGC         70                                    :TEMPERATURA DE FONDO
MRT.DEGC         70                                    :MAXIMA TEMPERATURA REGISTRADA
BS.IN            8.5                                   :DIAMETRO DE BARRENA
CSIZ.IN          N.R.                                  :DIAMETRO DE T.R.
CWEI.lbm/ft      N.R.                                  :PESO DE LA T.R.
CTD1.M           300.0                                 :FONDO DE LA T.R. DEL PERFORADOR
CTL1.M           291.0                                 :FONDO DE LA T.R. DEL REGISTRO
ENGI.            PEDRO SABATH                          :NOMBRE DEL INGENIERO
WITN.            RAFAEL SANDOVAL CERVANTES             :NOMBRE DEL TESTIGO
LUN.             8-A                                   :NUMERO DE LA UNIDAD
RUN.             UNO                                   :NUMERO DE LA CORRIDA
OS1.             N.R.                                  :SERVICIOS
HIDE.            REGISTRO DE INDUCCION                 :NOMBRE DEL SERVICIO
HID1.            1:500                                 :NOMBRE DEL SERVICIO
LUL.             POZA RICA                             :LUGAR DE LA UNIDAD
R1.              POZA RICA                             :Remarks 1
R2.                                                    :Remarks 2
R3.  TRACK1            POTENCIAL NATURAL               :Remarks 3
R4.                           MV                       :Remarks 4
R5.                         -|10|+                     :Remarks 5
R6.                   -80_____________20               :Remarks 6
R7.                                                    :Remarks 7
R8.  TRACK2               RESISTIVIDAD                 :Remarks 8
R9.                           SN                       :Remarks 9
R10.                       OHMS-M2/M                   :Remarks 10
R11.                    0_____________20               :Remarks 11
R12.                    0_____________200              :Remarks 12
R13.                          ILD                      :Remarks 13
R14.                       OHMS-M2/M                   :Remarks 14
R15.                    0_____________20               :Remarks 15
R16.                    0_____________200              :Remarks 16
R17.                                                   :Remarks 17
R18.  TRACK3             CONDUCTIVIDAD                 :Remarks 18
R19.                         CILD                      :Remarks 19
R20.                       MILIMHOS/M                  :Remarks 20
R21.                  500_____________0                :Remarks 21
R22.                 1000_____________500              :Remarks 22
R23.                                                   :Remarks 23
R24.                                                   :Remarks 24
R25.                                                   :Remarks 25
R26. TEMPERATURA MAXIMA 70 degC                        :Remarks 26
R27. RM@TF=1.0 @ 70 PRENSA ; RMF@TF=0.75 @ 70 PRENSA   :Remarks 27
R28. RMC@TF=1.0 @ 70 PRENSA                            :Remarks 28
R29.                                                   :Remarks 29
R30.                                                   :Remarks 30
~Curve Information Block
#MNEM.UNIT       API Code            Curve    Description
#--------        --------------      -----    -------------------
DEPT  .M                             :0       Index
CILD  .MM/M                          :1       Calibrated Induction Deep Conductivity
ILD   .OHMM                          :2       Induction Deep Resistivity    
SN    .OHMM                          :3       Short Normal Resistivity (16 inch spacing)
SP    .MV                            :4       Spontaneous Potential         
~Ascii Data Section
# ...
   1416.0251     278.2791       5.4875       8.1434     -20.1540
   1416.1776     274.0481       5.6274       8.6245     -20.2999
   1416.3300     271.0421       5.7672       8.8665     -20.4101
   1416.4824     265.0301       5.9070       8.6009     -20.3937
   1416.6348     261.0220       6.0468       8.8439     -20.2876
   1416.7872     257.0140       6.1867       9.0514     -20.1927
   1416.9396     254.0080       6.3265       9.5298     -20.5953
   1417.0920     254.0080       6.4663       9.6035     -20.5425
   1417.2444     256.9133       6.6061       9.4308     -20.9013
   1417.3969     259.9497       6.6962       9.2211     -21.0974
   1417.5492     262.9979       6.5195       9.1305     -21.1217
   1417.7017     262.0452       6.3428       9.3589     -21.2956
   1417.8540     260.0898       6.1785       9.6597     -21.3328
   1418.0063     257.1295       6.3131       9.5334     -21.3399
   1418.1588     252.1550       6.4478       8.7647     -21.3272
   1418.3112     248.1732       6.5824       8.9240     -21.3409
   1418.4636     240.9820       6.7171      10.6600     -21.3265
   1418.6160     237.9760       6.4501      11.3400     -21.3409
   1418.7684     235.9719       6.5623      11.2600     -21.2129
   1418.9208     232.9659       7.3725      10.9000     -20.7782
   1419.0732     232.9659       7.4936      11.0200     -20.5135
   1419.2256     236.9740       7.6149      11.2200     -20.5032
   1419.3781     240.9820       7.7360      10.8200     -20.3191
   1419.5304     245.9920       7.3334      10.5000     -20.2822
   1419.6829     255.0100       6.8791      10.1800     -20.2102
   1419.8352     255.0100       6.4244       9.3800     -20.1465
   1419.9875     254.5456       6.6420       9.6600     -20.1967
   1420.1400     255.5239       6.3995       9.9800     -20.2492
   1420.2924     258.0160       6.1572       8.7400     -20.3088
   1420.4448     267.0341       5.9147       8.9800     -20.3637
   1420.5972     270.0401       5.7129       9.1800     -20.4210
   1420.7496     272.0441       5.8138       9.4600     -20.4768
   1420.9020     270.0401       5.9148       9.6965     -20.5350
   1421.0544     264.3390       6.0158       9.6659     -20.5887
   1421.2068     259.0180       6.1168       9.5076     -20.6483
   1421.3593     263.0261       6.2178       8.9846     -20.7071
   1421.5116     265.0301       6.2072       8.7820     -20.7286
   1421.6641     270.0401       6.1399       9.1270     -20.9216
   1421.8164     271.0421       6.0725       9.5986     -21.2911
   1421.9688     268.0361       6.0052       9.9000     -21.5376
   1422.1212     262.0240       5.9379       8.9400     -21.7402
   1422.2736     259.0180       6.5188       9.2200     -21.8770
   1422.4260     248.9980       7.1082       9.7400     -21.9459
   1422.5784     236.9740       7.6971      11.5491     -21.7941
   1422.7308     221.9439       8.2860      13.5166     -21.5705
   1422.8832     218.9379       8.5604      15.4841     -21.4019
   1423.0356     210.9218       8.8969      17.4516     -21.0336
   1423.1880     208.7719       9.2336      20.1000     -20.7699
   1423.3405     205.9118       9.5701      18.5259     -20.7344
   1423.4928     205.9118       9.9069      16.1187     -20.7347
   1423.6453     207.9158       9.7504      13.7116     -20.7394
   1423.7976     215.9319       9.3127      11.9324     -20.7706
   1423.9500     225.9519       8.8753      10.8600     -20.9611
   1424.1024     243.1367       8.4376      10.4967     -20.9335
   1424.2548     255.0100       8.0002      10.0389     -20.8586
   1424.4072     268.0361       7.4329       9.5719     -20.4673
   1424.5596     271.0421       6.8608       8.8096     -20.3162
   1424.7120     266.0321       6.4985       8.9888     -20.5041
   1424.8644     266.0321       6.2628       9.8444     -20.5316
   1425.0168     268.0361       6.1412       9.7764     -20.5546
   1425.1692     266.0321       6.3054       9.4941     -20.3897
   1425.3217     262.0240       6.4695       9.1685     -20.1937
   1425.4740     256.0120       6.6337      11.1941     -20.1078
   1425.6263     248.9980       6.7977      13.5427     -20.3036
   1425.7788     230.9619       6.9619      17.2515     -20.3710
   1425.9312     210.9218       7.1823      12.9800     -20.7000
   1426.0836     198.2799       8.4283      15.9612     -20.8851
   1426.2360     187.8757       9.6734      18.9092     -20.9465
   1426.3884     179.8597      10.9195      20.5000     -20.9369
   1426.5408     175.8517      12.1645      20.6200     -20.9270
   1426.6932     177.6285      12.6094      20.6001     -20.9540
   1426.8456     185.5888      11.7290      20.4887     -20.7700
   1426.9980     194.6284      10.8493      20.1461     -20.5469
   1427.1504     206.4940       9.9689      17.3502     -20.5462
   1427.3029     217.8433       9.0892      14.1060     -20.5201
   1427.4552     226.9196       8.2088      11.7906     -20.6933
   1427.6075     229.9334       8.0241      11.3315     -20.7444
   1427.7600     238.9341       7.8978      10.9484     -20.7387
   1427.9124     240.9820       7.7716      10.6153     -20.6978
   1428.0648     244.2995       7.3810      10.2066     -20.5234
   1428.2172     252.0040       7.0031      10.3651     -20.5028
   1428.3696     254.0080       6.8588      10.6821     -20.3235
   1428.5220     255.0100       6.7146      10.9400     -20.3377
   1428.6744     256.0120       6.5704      10.3598     -20.4714
   1428.8268     257.0140       6.4130       9.6261     -20.7355
   1428.9792     255.0100       6.6486       9.6700     -21.0016
   1429.1316     253.2157       6.8843      10.3723     -21.1494
   1429.2841     249.5176       7.1199      11.0745     -21.1146
   1429.4364     243.1623       7.3556      11.7768     -21.1657
   1429.5887     237.1272       7.5912      12.4790     -20.9665
   1429.7412     234.0863       7.8270      13.1813     -20.9140
   1429.8936     230.0445       7.9344      12.4883     -20.5531
   1430.0460     229.0210       7.7901      11.3879     -20.5220
   1430.1984     231.0160       7.6459      10.1000     -20.4739
   1430.3508     235.9719       7.5015      10.1800     -20.4575
   1430.5032     247.9960       7.3573      10.3400     -20.4240
   1430.6556     254.0080       7.2131      10.9000     -20.3949
   1430.8080     256.0120       7.0958      10.7800     -20.3675
   1430.9604     259.0180       6.9823      10.6600     -20.3432
   1431.1128     255.0100       6.8686      10.0600     -20.3855
   1431.2653     253.0060       6.7551       9.9800     -20.4278
   1431.4176     255.0100       6.6414      10.2200     -20.4729
   1431.5699     261.0220       6.5278      10.0600     -20.5154
   1431.7224     260.0201       6.6938       9.8600     -20.5615
   1431.8748     252.0040       7.0111      10.1400     -20.6013
   1432.0272     244.3713       7.3286      11.4600     -20.6495
   1432.1796     239.0800       7.6459      12.2742     -20.6952
   1432.3320     230.9619       7.9631      13.4365     -20.6954
   1432.4844     225.9519       8.2877      14.5988     -20.4842
   1432.6368     223.8640       8.6411      15.9170     -20.2911
   1432.7892     222.8821       8.5488      14.5185     -20.0827
   1432.9417     220.9558       8.2011      12.8599     -19.9379
   1433.0940     226.5422       7.8531      11.0315     -19.9251
   1433.2465     233.7306       7.5054      10.6504     -20.1011
   1433.3988     241.3494       7.1574      10.3898     -20.1575
   1433.5511     252.3738       6.8097      10.1819     -20.5681
   1433.7036     264.2976       6.4617      10.0138     -20.7286
   1433.8560     262.0240       6.8961      10.2200     -20.8930
   1434.0084     256.0120       7.8052      10.3000     -20.9130
   1434.1608     244.3954       8.4291      10.9209     -20.5357
   1434.3132     235.9719       8.3373      11.8338     -20.1481
   1434.4656     226.9539       8.2455      12.7467     -19.7219
   1434.6180     224.9499       8.1537      14.2200     -19.5214
   1434.7704     228.9579       8.0619      13.9681     -19.5940
