~Version Information
VERS  .          2.0                                   :CWLS Log Ascii Standard - Version 2.0
WRAP  .          NO                                    :One line per depth step
~Well Information Block
#MNEM.UNIT       Data Type                             Information
#---------       ---------                             -------------------------------
STRT  .M         301.0668                              :PROFUNDIDAD INICIAL
STOP  .M         1842.0000                             :PROFUNDIDAD FINAL
STEP  .M         0.1524                                :INCREMENTO
NULL  .          -999.25                               :VALOR NULO 
COMP  .          PETROLEOS MEXICANOS                   :COMPANIA
WELL  .          ABEDUL-1                              :NOMBRE DEL POZO 
FLD   .          ABEDUL                                :CAMPO 
STAT  .          VERACRUZ                              :ESTADO
CNTY  .          COATZINTLA                            :MUNICIPIO
CTRY  .          MEXICO                                :PAIS
DATE  .          03-MAR-79                             :FECHA
UWI   .          1030022740                            :VALOR UNICO DEL POZO
SRVC  .          PEMEX                                 :COMPANIA DE SERVICIOS
~Parameter Information Block
#MNEM.UNIT       Value                                 Description
#---------       ---------                             -------------
FL.              X=                                    :LOCALIZACION DEL CAMPO
FL1.             Y=                                    :LOCALIZACION DEL CAMPO
PDAT.            NIVEL DEL TERRENO                     :DATO PERMANENTE
EPD.M            135.10                                :ELEVACION DEL DATO PERMANENTE
APD.M            3.8                                   :DIFERENCIA ENTRE MR Y NIVEL DE TERRENO
EKB.M            139.58                                :ELEVACION DEL KELLY BUSHING
EDF.M            139.28                                :ELEVACION DE LA MESA ROTARIA
EGL.M            135.10                                :ELEVACION DEL TERRENO
ELZ.M            139.28                                :ELEVACION DEL CERO DE REFERENCIA
LMF.             MESA ROTARIA                          :REGISTRO MEDIDO DESDE
DMF.             MESA ROTARIA                          :PROFUNDIDAD MEDIDA DESDE
SECT.            DISTRITO POZA RICA                    :NOMBRE DEL SECTOR
CN.              PETROLEOS MEXICANOS                   :NOMBRE DE LA COMPANIA
LATI.            Y=78,766.87 M.                        :LATITUD
LONG.            X=119,309.85 M.                       :LONGITUD
NATI.            MEXICO                                :NACION
RANG.            ZONA NORTE                            :NOMBRE DE LA ZONA
SLAB.            ESTADO                                :ESTADO 
STAT.            VERACRUZ                              :NOMBRE DEL ESTADO
CLAB.            MUNICIPIO                             :ETIQUETA DEL MUNICIPIO
COUN.            COATZINTLA                            :NOMBRE DEL MUNICIPIO
SRVC.            REGISTRO IL  1:500                    :NOMBRE DEL SERVICIO
DATE.            03-MAR-79                             :FECHA DEL SERVICIO
BLI.M            1842.0000                             :PRIMERA LECTURA
TLI.M            301.0668                              :ULTIMA LECTURA
QCEN.            FABIOLA NALLELY PEREZ CASTELAN        :NOMBRE DEL INGENIERO DEL CONTROL DE CALIDAD DEL REGISTRO
DLQC.            01-APR-2009                           :FECHA DEL CONTROL DE CALIDAD DEL REGISTRO
CBL1.M           291.0                                 :ZAPATA SCHLUMBERGER
CBD1.M           300.0                                 :ZAPATA PERFORACION
TDL.M            1842.0                                :PROFUNDIDAD REGISTRO
TDD.M            1851.0                                :PROFUNDIDAD PERFORADOR
DFT.             SODICO                                :TIPO DE LODO
DFD.G/C3         1.25                                  :DENSIDAD DE LODO
DFV.S            45                                    :VISCOSIDAD DEL LODO
DFPH.            8.6                                   :PH DEL LODO
DFL.C3           N.R.                                  :PERDIDA DE LODO
MSS.             PRESA                                 :FUENTE DE LA MUESTRA DE LODO
RMS.ohm.m        1.8                                   :RESISTIVIDAD DE LODO
MST.DEGC         29                                    :TEMPERATURA DE LA MUESTRA DE LODO
MFSS.            PRENSA                                :FUENTE DEL FILTRADO DE LODO
RMFS.ohm.m       N.R.                                  :RESISTIVIDAD DEL FILTRADO
MFST.DEGC        N.R.                                  :TEMPERATURA DEL FILTRADO
MCSS.            PRENSA                                :FUENTE DEL ENJARRE DE LODO
RMCS.ohm.m       N.R.                                  :RESISTIVIDAD DEL ENJARRE DE LODO
MCST.DEGC        N.R.                                  :TEMPERATURA DEL ENJARRE
BSAL.PPM         N.R.                                  :SALINIDAD DEL LODO
TCS.             N.R.                                  :HORA EN QUE PARO CIRCULACION
STEM.DEGC        29                                    :TEMPERATURA DE SUPERFICIE
BHT.DEGC         70                                    :TEMPERATURA DE FONDO
MRT.DEGC         70                                    :MAXIMA TEMPERATURA REGISTRADA
BS.IN            8.5                                   :DIAMETRO DE BARRENA
CSIZ.IN          N.R.                                  :DIAMETRO DE T.R.
CWEI.lbm/ft      N.R.                                  :PESO DE LA T.R.
CTD1.M           300.0                                 :FONDO DE LA T.R. DEL PERFORADOR
CTL1.M           291.0                                 :FONDO DE LA T.R. DEL REGISTRO
ENGI.            PEDRO SABATH                          :NOMBRE DEL INGENIERO
WITN.            RAFAEL SANDOVAL CERVANTES             :NOMBRE DEL TESTIGO
LUN.             8-A                                   :NUMERO DE LA UNIDAD
RUN.             UNO                                   :NUMERO DE LA CORRIDA
OS1.             N.R.                                  :SERVICIOS
HIDE.            REGISTRO DE INDUCCION                 :NOMBRE DEL SERVICIO
HID1.            1:500                                 :NOMBRE DEL SERVICIO
LUL.             POZA RICA                             :LUGAR DE LA UNIDAD
R1.              POZA RICA                             :Remarks 1
R2.                                                    :Remarks 2
R3.  TRACK1            POTENCIAL NATURAL               :Remarks 3
R4.                           MV                       :Remarks 4
R5.                         -|10|+                     :Remarks 5
R6.                   -80_____________20               :Remarks 6
R7.                                                    :Remarks 7
R8.  TRACK2               RESISTIVIDAD                 :Remarks 8
R9.                           SN                       :Remarks 9
R10.                       OHMS-M2/M                   :Remarks 10
R11.                    0_____________20               :Remarks 11
R12.                    0_____________200              :Remarks 12
R13.                          ILD                      :Remarks 13
R14.                       OHMS-M2/M                   :Remarks 14
R15.                    0_____________20               :Remarks 15
R16.                    0_____________200              :Remarks 16
R17.                                                   :Remarks 17
R18.  TRACK3             CONDUCTIVIDAD                 :Remarks 18
R19.                         CILD                      :Remarks 19
R20.                       MILIMHOS/M                  :Remarks 20
R21.                  500_____________0                :Remarks 21
R22.                 1000_____________500              :Remarks 22
R23.                                                   :Remarks 23
R24.                                                   :Remarks 24
R25.                                                   :Remarks 25
R26. TEMPERATURA MAXIMA 70 degC                        :Remarks 26
R27. RM@TF=1.0 @ 70 PRENSA ; RMF@TF=0.75 @ 70 PRENSA   :Remarks 27
R28. RMC@TF=1.0 @ 70 PRENSA                            :Remarks 28
R29.                                                   :Remarks 29
R30.                                                   :Remarks 30
~Curve Information Block
#MNEM.UNIT       API Code            Curve    Description
#--------        --------------      -----    -------------------
DEPT  .M                             :0       Index
CILD  .MM/M                          :1       Calibrated Induction Deep Conductivity
ILD   .OHMM                          :2       Induction Deep Resistivity    
SN    .OHMM                          :3       Short Normal Resistivity (16 inch spacing)
SP    .MV                            :4       Spontaneous Potential         
~Ascii Data Section
# ...
   1737.2844     333.1663       4.4728       5.6083     -12.5728
   1737.4368     335.1703       4.5139       5.6403     -12.5528
   1737.5892     336.1723       4.4550       5.6252     -12.7069
   1737.7416     340.1804       4.3961       5.5501     -12.7521
   1737.8940     342.1844       4.3372       5.4611     -12.9381
   1738.0464     346.1924       4.2783       5.3568     -12.9482
   1738.1989     348.1964       4.2194       5.2993     -13.1325
   1738.3512     352.2044       4.1605       5.2341     -13.1649
   1738.5037     354.1724       4.1016       5.1265     -13.1724
   1738.6560     356.1725       4.0426       5.0663     -13.1649
   1738.8083     356.1893       3.9837       4.9519     -13.1667
   1738.9608     356.2222       4.0117       4.9366     -13.1690
   1739.1132     355.2555       4.0668       4.9872     -13.1796
   1739.2656     352.2724       4.1219       5.0757     -13.3374
   1739.4180     349.2644       4.1770       5.1267     -13.5139
   1739.5704     345.2287       4.2320       5.2082     -13.5506
   1739.7228     343.1864       4.2871       5.2927     -13.7247
   1739.8752     341.1824       4.3422       5.3472     -13.7643
   1740.0276     340.1804       4.3973       5.4330     -13.7674
   1740.1801     338.1764       4.4419       5.5104     -13.7688
   1740.3324     338.1764       4.4419       5.4899     -13.7225
   1740.4849     338.1764       4.4419       5.4557     -13.5158
   1740.6372     339.1783       4.4419       5.3412     -13.2167
   1740.7896     339.1783       4.4419       5.2220     -13.0119
   1740.9420     338.1764       4.4419       5.2124     -12.9609
   1741.0944     337.1743       4.4419       5.1766     -12.9697
   1741.2468     336.1723       4.4419       5.1862     -12.9681
   1741.3992     336.1723       4.4419       5.2606     -12.9738
   1741.5516     338.1764       4.4419       5.3391     -12.9544
   1741.7040     341.1824       4.4419       5.4138     -13.1246
   1741.8564     343.1864       4.4419       5.4439     -13.1621
   1742.0088     347.1944       4.4419       5.3982     -13.2261
   1742.1613     349.4135       4.3787       5.3376     -13.3511
   1742.3136     355.2104       4.2911       5.1846     -13.5302
   1742.4659     361.2224       4.2036       5.0745     -13.5926
   1742.6184     365.2305       4.1161       4.9479     -13.8992
   1742.7708     372.2445       4.0286       4.8122     -13.7540
   1742.9232     377.2545       3.9410       4.6740     -13.5924
   1743.0756     381.9623       3.8535       4.5925     -13.2895
   1743.2280     390.2805       3.7660       4.4118     -13.1351
   1743.3804     393.2866       3.6785       4.4190     -12.7987
   1743.5328     396.2926       3.5910       4.4623     -12.7719
   1743.6852     395.2906       3.5034       4.5046     -12.7655
   1743.8376     383.2665       3.4228       4.5929     -12.7682
   1743.9900     360.2204       3.5407       4.6790     -12.7807
   1744.1425     356.2124       3.6585       4.7552     -12.7462
   1744.2948     348.6985       3.7764       4.8032     -12.9272
   1744.4471     345.3033       3.8941       4.9322     -13.0094
   1744.5996     340.3488       4.0120       5.0449     -13.1899
   1744.7520     338.3475       4.1298       5.1850     -13.1562
   1744.9044     338.3196       4.2477       5.2710     -13.1699
   1745.0568     339.2988       4.3654       5.3292     -13.1685
   1745.2092     341.2888       4.4832       5.3282     -13.1701
   1745.3616     343.3096       4.4516       5.2870     -13.1294
   1745.5140     349.3651       4.3506       5.1541     -12.9399
   1745.6664     356.4220       4.2496       5.0975     -13.0218
   1745.8188     360.4439       4.1486       4.9714     -13.2132
   1745.9712     365.4333       4.0476       4.8316     -13.5166
   1746.1237     368.3914       3.9467       4.7598     -13.7217
   1746.2760     375.3631       3.8456       4.6235     -13.7720
   1746.4283     382.3618       3.7447       4.5676     -13.7622
   1746.5808     386.3855       3.6504       4.5262     -13.7676
   1746.7332     390.4254       3.6101       4.4142     -13.7564
   1746.8856     388.4386       3.5697       4.3782     -13.7777
   1747.0380     384.4219       3.5293       4.4986     -13.6269
   1747.1904     379.3828       3.5159       4.5680     -13.3649
   1747.3428     371.3335       3.6014       4.7590     -13.1427
   1747.4952     369.3112       3.6868       4.8552     -13.1764
   1747.6476     364.2934       3.7723       4.9834     -13.1676
   1747.8000     354.2594       3.8577       5.1015     -13.1654
   1747.9524     350.2004       3.9432       5.2126     -13.1695
   1748.1049     344.1884       4.0286       5.3327     -13.1726
   1748.2572     342.1844       4.1141       5.2324     -13.1482
   1748.4095     339.1783       4.1995       5.1481     -13.3620
   1748.5620     337.1743       4.2850       5.3386     -13.5998
   1748.7144     337.1743       4.3632       5.5274     -13.7220
   1748.8668     339.1783       4.3632       5.4436     -14.1535
   1749.0192     340.1804       4.3632       5.2930     -14.1436
   1749.1716     341.1824       4.3632       5.2027     -14.1571
   1749.3240     340.1804       4.3632       5.4139     -13.7698
   1749.4764     339.1783       4.3632       5.5195     -13.7582
   1749.6288     337.1743       4.3632       5.6505     -13.2536
   1749.7812     337.1743       4.3632       5.5940     -12.8677
   1749.9336     336.1723       4.3659       5.4255     -12.6181
   1750.0861     341.1824       4.3751       5.2185     -12.3990
   1750.2384     341.1824       4.3842       5.1795     -12.5426
   1750.3907     338.1764       4.3934       5.2513     -12.9831
   1750.5432     337.1743       4.4026       5.2963     -13.2381
   1750.6956     336.1723       4.2214       5.3830     -13.3281
   1750.8480     336.1723       4.2467       5.4489     -13.1187
   1751.0004     336.1723       4.2719       5.5028     -12.8405
   1751.1528     336.1723       4.2971       5.5348     -12.9993
   1751.3052     337.1743       4.3224       5.4474     -12.9826
   1751.4576     341.1824       4.3476       5.1491     -13.0289
   1751.6100     342.1844       4.3315       5.0970     -13.0409
   1751.7625     354.2084       4.2489       5.1441     -13.0646
   1751.9148     359.2184       4.1662       5.2390     -13.0873
   1752.0673     363.3885       4.0836       5.1808     -13.1102
   1752.2196     370.2405       4.0010       4.9124     -13.1290
   1752.3719     373.7138       3.9184       4.7806     -13.1550
   1752.5244     381.2625       3.8357       4.6574     -13.1747
   1752.6768     386.2726       3.7531       4.5380     -13.1259
   1752.8292     385.2705       3.6705       4.6149     -12.9141
   1752.9816     380.2605       3.6932       4.6767     -12.7492
   1753.1340     372.2445       3.7403       4.7403     -12.9130
   1753.2864     366.2325       3.7875       4.8224     -13.1266
   1753.4388     360.2204       3.8346       4.8912     -13.1782
   1753.5912     354.2084       3.8817       4.9357     -13.1304
   1753.7437     352.2044       3.9289       5.0190     -12.9070
   1753.8960     349.1984       3.9760       5.0100     -12.7572
   1754.0485     349.1984       4.0231       4.9646     -12.7832
   1754.2008     351.2024       4.0703       4.8591     -12.7471
   1754.3531     353.2064       4.1174       4.9353     -12.9306
   1754.5056     354.2084       4.1645       5.2057     -12.9650
   1754.6580     353.2064       4.2058       5.2637     -12.9845
   1754.8104     347.1944       4.2058       5.2343     -12.9427
   1754.9628     344.1884       4.2058       5.1804     -13.1255
   1755.1152     342.1857       4.2058       5.1165     -13.2124
   1755.2676     338.1419       4.2058       5.1732     -13.3865
   1755.4200     336.1231       4.2058       5.3340     -13.3476
   1755.5724     334.1170       4.2733       5.4428     -13.4227
   1755.7249     335.1245       4.3595       5.4680     -13.5616
   1755.8772     337.1294       4.3258       5.3846     -13.7159
   1756.0297     342.1449       4.2922       5.2528     -13.7790
