~Version Information
VERS  .          2.0                                   :CWLS Log Ascii Standard - Version 2.0
WRAP  .          NO                                    :One line per depth step
~Well Information Block
#MNEM.UNIT       Data Type                             Information
#---------       ---------                             -------------------------------
STRT  .M         301.0668                              :PROFUNDIDAD INICIAL
STOP  .M         1842.0000                             :PROFUNDIDAD FINAL
STEP  .M         0.1524                                :INCREMENTO
NULL  .          -999.25                               :VALOR NULO 
COMP  .          PETROLEOS MEXICANOS                   :COMPANIA
WELL  .          ABEDUL-1                              :NOMBRE DEL POZO 
FLD   .          ABEDUL                                :CAMPO 
STAT  .          VERACRUZ                              :ESTADO
CNTY  .          COATZINTLA                            :MUNICIPIO
CTRY  .          MEXICO                                :PAIS
DATE  .          03-MAR-79                             :FECHA
UWI   .          1030022740                            :VALOR UNICO DEL POZO
SRVC  .          PEMEX                                 :COMPANIA DE SERVICIOS
~Parameter Information Block
#MNEM.UNIT       Value                                 Description
#---------       ---------                             -------------
FL.              X=                                    :LOCALIZACION DEL CAMPO
FL1.             Y=                                    :LOCALIZACION DEL CAMPO
PDAT.            NIVEL DEL TERRENO                     :DATO PERMANENTE
EPD.M            135.10                                :ELEVACION DEL DATO PERMANENTE
APD.M            3.8                                   :DIFERENCIA ENTRE MR Y NIVEL DE TERRENO
EKB.M            139.58                                :ELEVACION DEL KELLY BUSHING
EDF.M            139.28                                :ELEVACION DE LA MESA ROTARIA
EGL.M            135.10                                :ELEVACION DEL TERRENO
ELZ.M            139.28                                :ELEVACION DEL CERO DE REFERENCIA
LMF.             MESA ROTARIA                          :REGISTRO MEDIDO DESDE
DMF.             MESA ROTARIA                          :PROFUNDIDAD MEDIDA DESDE
SECT.            DISTRITO POZA RICA                    :NOMBRE DEL SECTOR
CN.              PETROLEOS MEXICANOS                   :NOMBRE DE LA COMPANIA
LATI.            Y=78,766.87 M.                        :LATITUD
LONG.            X=119,309.85 M.                       :LONGITUD
NATI.            MEXICO                                :NACION
RANG.            ZONA NORTE                            :NOMBRE DE LA ZONA
SLAB.            ESTADO                                :ESTADO 
STAT.            VERACRUZ                              :NOMBRE DEL ESTADO
CLAB.            MUNICIPIO                             :ETIQUETA DEL MUNICIPIO
COUN.            COATZINTLA                            :NOMBRE DEL MUNICIPIO
SRVC.            REGISTRO IL  1:500                    :NOMBRE DEL SERVICIO
DATE.            03-MAR-79                             :FECHA DEL SERVICIO
BLI.M            1842.0000                             :PRIMERA LECTURA
TLI.M            301.0668                              :ULTIMA LECTURA
QCEN.            FABIOLA NALLELY PEREZ CASTELAN        :NOMBRE DEL INGENIERO DEL CONTROL DE CALIDAD DEL REGISTRO
DLQC.            01-APR-2009                           :FECHA DEL CONTROL DE CALIDAD DEL REGISTRO
CBL1.M           291.0                                 :ZAPATA SCHLUMBERGER
CBD1.M           300.0                                 :ZAPATA PERFORACION
TDL.M            1842.0                                :PROFUNDIDAD REGISTRO
TDD.M            1851.0                                :PROFUNDIDAD PERFORADOR
DFT.             SODICO                                :TIPO DE LODO
DFD.G/C3         1.25                                  :DENSIDAD DE LODO
DFV.S            45                                    :VISCOSIDAD DEL LODO
DFPH.            8.6                                   :PH DEL LODO
DFL.C3           N.R.                                  :PERDIDA DE LODO
MSS.             PRESA                                 :FUENTE DE LA MUESTRA DE LODO
RMS.ohm.m        1.8                                   :RESISTIVIDAD DE LODO
MST.DEGC         29                                    :TEMPERATURA DE LA MUESTRA DE LODO
MFSS.            PRENSA                                :FUENTE DEL FILTRADO DE LODO
RMFS.ohm.m       N.R.                                  :RESISTIVIDAD DEL FILTRADO
MFST.DEGC        N.R.                                  :TEMPERATURA DEL FILTRADO
MCSS.            PRENSA                                :FUENTE DEL ENJARRE DE LODO
RMCS.ohm.m       N.R.                                  :RESISTIVIDAD DEL ENJARRE DE LODO
MCST.DEGC        N.R.                                  :TEMPERATURA DEL ENJARRE
BSAL.PPM         N.R.                                  :SALINIDAD DEL LODO
TCS.             N.R.                                  :HORA EN QUE PARO CIRCULACION
STEM.DEGC        29                                    :TEMPERATURA DE SUPERFICIE
BHT.DEGC         70                                    :TEMPERATURA DE FONDO
MRT.DEGC         70                                    :MAXIMA TEMPERATURA REGISTRADA
BS.IN            8.5                                   :DIAMETRO DE BARRENA
CSIZ.IN          N.R.                                  :DIAMETRO DE T.R.
CWEI.lbm/ft      N.R.                                  :PESO DE LA T.R.
CTD1.M           300.0                                 :FONDO DE LA T.R. DEL PERFORADOR
CTL1.M           291.0                                 :FONDO DE LA T.R. DEL REGISTRO
ENGI.            PEDRO SABATH                          :NOMBRE DEL INGENIERO
WITN.            RAFAEL SANDOVAL CERVANTES             :NOMBRE DEL TESTIGO
LUN.             8-A                                   :NUMERO DE LA UNIDAD
RUN.             UNO                                   :NUMERO DE LA CORRIDA
OS1.             N.R.                                  :SERVICIOS
HIDE.            REGISTRO DE INDUCCION                 :NOMBRE DEL SERVICIO
HID1.            1:500                                 :NOMBRE DEL SERVICIO
LUL.             POZA RICA                             :LUGAR DE LA UNIDAD
R1.              POZA RICA                             :Remarks 1
R2.                                                    :Remarks 2
R3.  TRACK1            POTENCIAL NATURAL               :Remarks 3
R4.                           MV                       :Remarks 4
R5.                         -|10|+                     :Remarks 5
R6.                   -80_____________20               :Remarks 6
R7.                                                    :Remarks 7
R8.  TRACK2               RESISTIVIDAD                 :Remarks 8
R9.                           SN                       :Remarks 9
R10.                       OHMS-M2/M                   :Remarks 10
R11.                    0_____________20               :Remarks 11
R12.                    0_____________200              :Remarks 12
R13.                          ILD                      :Remarks 13
R14.                       OHMS-M2/M                   :Remarks 14
R15.                    0_____________20               :Remarks 15
R16.                    0_____________200              :Remarks 16
R17.                                                   :Remarks 17
R18.  TRACK3             CONDUCTIVIDAD                 :Remarks 18
R19.                         CILD                      :Remarks 19
R20.                       MILIMHOS/M                  :Remarks 20
R21.                  500_____________0                :Remarks 21
R22.                 1000_____________500              :Remarks 22
R23.                                                   :Remarks 23
R24.                                                   :Remarks 24
R25.                                                   :Remarks 25
R26. TEMPERATURA MAXIMA 70 degC                        :Remarks 26
R27. RM@TF=1.0 @ 70 PRENSA ; RMF@TF=0.75 @ 70 PRENSA   :Remarks 27
R28. RMC@TF=1.0 @ 70 PRENSA                            :Remarks 28
R29.                                                   :Remarks 29
R30.                                                   :Remarks 30
~Curve Information Block
#MNEM.UNIT       API Code            Curve    Description
#--------        --------------      -----    -------------------
DEPT  .M                             :0       Index
CILD  .MM/M                          :1       Calibrated Induction Deep Conductivity
ILD   .OHMM                          :2       Induction Deep Resistivity    
SN    .OHMM                          :3       Short Normal Resistivity (16 inch spacing)
SP    .MV                            :4       Spontaneous Potential         
~Ascii Data Section
# ...
    905.7900     652.8056       2.0615       2.4261     -22.1796
    905.9424     661.8237       2.0026       2.3966     -22.1182
    906.0948     658.8176       1.9437       2.3759     -22.1495
    906.2472     669.8397       1.8847       2.3416     -21.9787
    906.3996     669.8397       1.8258       2.3444     -21.8892
    906.5520     665.8317       1.7669       2.3597     -21.7106
    906.7044     654.8096       1.7080       2.3204     -21.7465
    906.8568     646.7936       1.6491       2.2797     -21.7331
    907.0092     634.0467       1.6190       2.2354     -21.9022
    907.1616     619.9978       1.6506       2.1776     -22.0878
    907.3140     605.7114       1.6821       2.1875     -22.2972
    907.4664     597.6954       1.7137       2.1966     -22.3319
    907.6188     592.6854       1.7452       2.2223     -22.2933
    907.7712     589.6794       1.7768       2.2664     -22.1449
    907.9236     589.6794       1.8084       2.3364     -22.4187
    908.0760     593.1182       1.8399       2.3990     -22.6119
    908.2284     597.5510       1.8715       2.4500     -22.7241
    908.3808     603.5992       1.9030       2.4906     -22.8483
    908.5332     607.6552       1.9346       2.4691     -22.7010
    908.6856     610.7010       1.9661       2.4500     -22.7608
    908.8380     616.7379       1.9977       2.4687     -22.5665
    908.9904     620.7526       1.9694       2.5090     -22.4706
    909.1428     627.4486       1.9306       2.4893     -22.3179
    909.2952     632.7747       1.8917       2.4706     -22.1919
    909.4476     632.7655       1.8529       2.4212     -21.9851
    909.6000     631.7635       1.8140       2.3978     -21.8124
    909.7524     631.7635       1.7752       2.3607     -21.9474
    909.9048     633.7675       1.7363       2.3107     -21.9228
    910.0572     639.1936       1.6975       2.2969     -21.9376
    910.2096     641.6369       1.6587       2.3130     -21.9309
    910.3620     644.7896       1.6198       2.3207     -21.9326
    910.5144     645.7916       1.5955       2.2844     -21.9324
    910.6668     647.6929       1.5768       2.2750     -21.9335
    910.8192     654.7199       1.5581       2.3092     -21.9307
    910.9716     662.7598       1.5394       2.3220     -21.9327
    911.1240     669.6224       1.5207       2.3046     -21.9378
    911.2764     675.8156       1.5020       2.2741     -21.9113
    911.4288     676.8308       1.4833       2.2512     -22.1307
    911.5812     674.8574       1.4646       2.2750     -22.3514
    911.7336     672.8457       1.4459       2.2182     -22.3274
    911.8860     683.8677       1.4272       2.1688     -22.3224
    912.0384     691.8838       1.4085       2.1334     -22.3473
    912.1908     700.8365       1.3898       2.1498     -22.1749
    912.3432     706.9138       1.3711       2.1187     -22.1281
    912.4956     713.9279       1.3524       2.0969     -22.0936
    912.6480     715.9319       1.3337       2.1249     -21.7801
    912.8004     713.9279       1.3150       2.0964     -21.5834
    912.9528     713.1870       1.2963       2.0832     -21.4769
    913.1052     712.5135       1.2776       2.1309     -21.3383
    913.2576     711.0051       1.2589       2.1235     -21.1777
    913.4100     704.8718       1.2402       2.1093     -21.1488
    913.5624     696.7370       1.2215       2.0842     -20.9740
    913.7148     677.6076       1.2422       2.0584     -20.9398
    913.8672     665.5660       1.2815       2.0525     -20.9296
    914.0196     656.6034       1.3208       2.0714     -20.9430
    914.1720     651.5484       1.3601       2.1074     -20.9335
    914.3244     647.7956       1.3993       2.1472     -20.9358
    914.4768     646.7936       1.4386       2.1731     -20.9670
    914.6292     640.7816       1.4779       2.2044     -21.1826
    914.7816     639.7795       1.5171       2.2059     -21.0663
    914.9340     632.7655       1.5564       2.1786     -21.6196
    915.0864     633.2725       1.5957       2.1725     -21.7302
    915.2388     635.2271       1.6350       2.2131     -21.7589
    915.3912     639.7795       1.6742       2.2494     -21.5672
    915.5436     641.7836       1.7135       2.2852     -21.5385
    915.6960     644.7896       1.7528       2.3294     -21.4894
    915.8484     646.7936       1.7531       2.3646     -21.3192
    916.0008     648.7720       1.7329       2.3786     -21.3373
    916.1532     643.8854       1.7127       2.3572     -21.3463
    916.3056     639.6950       1.6925       2.3436     -21.3095
    916.4580     629.1870       1.6723       2.3374     -21.4979
    916.6104     616.2580       1.6521       2.3633     -21.5719
    916.7628     591.2228       1.6319       2.3705     -21.7526
    916.9152     578.1362       1.6117       2.3195     -21.7670
    917.0676     561.0676       1.6463       2.3065     -21.9433
    917.2200     552.9506       1.6896       2.3265     -22.0706
    917.3724     548.5950       1.7328       2.3610     -22.2196
    917.5248     544.4796       1.7761       2.4440     -22.5436
    917.6772     543.5872       1.8194       2.5702     -22.6971
    917.8296     541.5832       1.8627       2.6792     -22.5565
    917.9820     542.5851       1.9060       2.7614     -22.6456
    918.1344     543.5872       1.9492       2.8807     -22.3905
    918.2868     543.5872       1.9925       2.8576     -22.3249
    918.4392     527.5551       2.0358       2.8080     -22.3376
    918.5916     527.5551       2.0791       2.8482     -22.3259
    918.7440     526.5531       2.0924       2.8737     -22.3286
    918.8964     522.9153       2.1043       2.8419     -22.3714
    919.0488     520.8383       2.1162       2.8321     -22.5571
    919.2012     516.7963       2.1281       2.8835     -22.6172
    919.3536     512.7849       2.1400       2.9225     -22.7096
    919.5060     510.7872       2.1518       2.9663     -22.7235
    919.6584     512.8055       2.0993       2.9630     -22.7438
    919.8108     514.8002       2.1245       2.9633     -22.5746
    919.9632     516.7874       2.1498       2.9734     -22.4691
    920.1156     516.5331       2.1750       2.9768     -22.2168
    920.2680     513.5270       2.2003       2.9705     -22.3020
    920.4204     512.5250       2.2255       2.9792     -22.2738
    920.5728     507.4143       2.2507       2.9851     -22.2333
    920.7252     501.5030       2.2760       2.9961     -22.1578
    920.8776     493.4870       2.3012       3.0461     -22.3694
    921.0300     483.4669       2.3461       3.1767     -22.3875
    921.1824     471.3237       2.4246       3.2545     -22.5089
    921.3348     460.3028       2.5032       3.3503     -22.5742
    921.4872     453.3175       2.5817       3.4108     -22.7404
    921.6396     442.2851       2.6603       3.4571     -22.7287
    921.7920     444.4003       2.7388       3.5354     -22.7498
    921.9444     451.4772       2.8174       3.5623     -23.0873
    922.0968     458.5329       2.8601       3.5727     -22.9898
    922.2492     469.5613       2.8376       3.4279     -22.9137
    922.4016     472.8911       2.8152       3.3404     -22.5492
    922.5540     477.4549       2.7927       3.3289     -22.5436
    922.7064     480.4609       2.7703       3.3673     -22.4741
    922.8588     484.4689       2.7479       3.2879     -22.3326
    923.0112     490.4810       2.7254       3.2191     -22.1621
    923.1636     496.4627       2.7020       3.1743     -21.9796
    923.3160     502.5050       2.6768       3.2001     -22.0905
    923.4684     505.5110       2.6515       3.1884     -22.1413
    923.6208     508.5170       2.6263       3.1572     -22.1228
    923.7732     510.5211       2.6010       3.1167     -22.1486
    923.9256     516.5331       2.5758       3.0684     -21.9716
    924.0780     518.5370       2.5494       3.0537     -21.8637
    924.2304     520.5411       2.5133       3.0886     -21.7623
    924.3828     526.5531       2.4772       3.0426     -21.7256
    924.5352     528.5571       2.4412       2.9933     -21.7524
