~Version Information
VERS  .          2.0                                   :CWLS Log Ascii Standard - Version 2.0
WRAP  .          NO                                    :One line per depth step
~Well Information Block
#MNEM.UNIT       Data Type                             Information
#---------       ---------                             -------------------------------
STRT  .M         301.0668                              :PROFUNDIDAD INICIAL
STOP  .M         1842.0000                             :PROFUNDIDAD FINAL
STEP  .M         0.1524                                :INCREMENTO
NULL  .          -999.25                               :VALOR NULO 
COMP  .          PETROLEOS MEXICANOS                   :COMPANIA
WELL  .          ABEDUL-1                              :NOMBRE DEL POZO 
FLD   .          ABEDUL                                :CAMPO 
STAT  .          VERACRUZ                              :ESTADO
CNTY  .          COATZINTLA                            :MUNICIPIO
CTRY  .          MEXICO                                :PAIS
DATE  .          03-MAR-79                             :FECHA
UWI   .          1030022740                            :VALOR UNICO DEL POZO
SRVC  .          PEMEX                                 :COMPANIA DE SERVICIOS
~Parameter Information Block
#MNEM.UNIT       Value                                 Description
#---------       ---------                             -------------
FL.              X=                                    :LOCALIZACION DEL CAMPO
FL1.             Y=                                    :LOCALIZACION DEL CAMPO
PDAT.            NIVEL DEL TERRENO                     :DATO PERMANENTE
EPD.M            135.10                                :ELEVACION DEL DATO PERMANENTE
APD.M            3.8                                   :DIFERENCIA ENTRE MR Y NIVEL DE TERRENO
EKB.M            139.58                                :ELEVACION DEL KELLY BUSHING
EDF.M            139.28                                :ELEVACION DE LA MESA ROTARIA
EGL.M            135.10                                :ELEVACION DEL TERRENO
ELZ.M            139.28                                :ELEVACION DEL CERO DE REFERENCIA
LMF.             MESA ROTARIA                          :REGISTRO MEDIDO DESDE
DMF.             MESA ROTARIA                          :PROFUNDIDAD MEDIDA DESDE
SECT.            DISTRITO POZA RICA                    :NOMBRE DEL SECTOR
CN.              PETROLEOS MEXICANOS                   :NOMBRE DE LA COMPANIA
LATI.            Y=78,766.87 M.                        :LATITUD
LONG.            X=119,309.85 M.                       :LONGITUD
NATI.            MEXICO                                :NACION
RANG.            ZONA NORTE                            :NOMBRE DE LA ZONA
SLAB.            ESTADO                                :ESTADO 
STAT.            VERACRUZ                              :NOMBRE DEL ESTADO
CLAB.            MUNICIPIO                             :ETIQUETA DEL MUNICIPIO
COUN.            COATZINTLA                            :NOMBRE DEL MUNICIPIO
SRVC.            REGISTRO IL  1:500                    :NOMBRE DEL SERVICIO
DATE.            03-MAR-79                             :FECHA DEL SERVICIO
BLI.M            1842.0000                             :PRIMERA LECTURA
TLI.M            301.0668                              :ULTIMA LECTURA
QCEN.            FABIOLA NALLELY PEREZ CASTELAN        :NOMBRE DEL INGENIERO DEL CONTROL DE CALIDAD DEL REGISTRO
DLQC.            01-APR-2009                           :FECHA DEL CONTROL DE CALIDAD DEL REGISTRO
CBL1.M           291.0                                 :ZAPATA SCHLUMBERGER
CBD1.M           300.0                                 :ZAPATA PERFORACION
TDL.M            1842.0                                :PROFUNDIDAD REGISTRO
TDD.M            1851.0                                :PROFUNDIDAD PERFORADOR
DFT.             SODICO                                :TIPO DE LODO
DFD.G/C3         1.25                                  :DENSIDAD DE LODO
DFV.S            45                                    :VISCOSIDAD DEL LODO
DFPH.            8.6                                   :PH DEL LODO
DFL.C3           N.R.                                  :PERDIDA DE LODO
MSS.             PRESA                                 :FUENTE DE LA MUESTRA DE LODO
RMS.ohm.m        1.8                                   :RESISTIVIDAD DE LODO
MST.DEGC         29                                    :TEMPERATURA DE LA MUESTRA DE LODO
MFSS.            PRENSA                                :FUENTE DEL FILTRADO DE LODO
RMFS.ohm.m       N.R.                                  :RESISTIVIDAD DEL FILTRADO
MFST.DEGC        N.R.                                  :TEMPERATURA DEL FILTRADO
MCSS.            PRENSA                                :FUENTE DEL ENJARRE DE LODO
RMCS.ohm.m       N.R.                                  :RESISTIVIDAD DEL ENJARRE DE LODO
MCST.DEGC        N.R.                                  :TEMPERATURA DEL ENJARRE
BSAL.PPM         N.R.                                  :SALINIDAD DEL LODO
TCS.             N.R.                                  :HORA EN QUE PARO CIRCULACION
STEM.DEGC        29                                    :TEMPERATURA DE SUPERFICIE
BHT.DEGC         70                                    :TEMPERATURA DE FONDO
MRT.DEGC         70                                    :MAXIMA TEMPERATURA REGISTRADA
BS.IN            8.5                                   :DIAMETRO DE BARRENA
CSIZ.IN          N.R.                                  :DIAMETRO DE T.R.
CWEI.lbm/ft      N.R.                                  :PESO DE LA T.R.
CTD1.M           300.0                                 :FONDO DE LA T.R. DEL PERFORADOR
CTL1.M           291.0                                 :FONDO DE LA T.R. DEL REGISTRO
ENGI.            PEDRO SABATH                          :NOMBRE DEL INGENIERO
WITN.            RAFAEL SANDOVAL CERVANTES             :NOMBRE DEL TESTIGO
LUN.             8-A                                   :NUMERO DE LA UNIDAD
RUN.             UNO                                   :NUMERO DE LA CORRIDA
OS1.             N.R.                                  :SERVICIOS
HIDE.            REGISTRO DE INDUCCION                 :NOMBRE DEL SERVICIO
HID1.            1:500                                 :NOMBRE DEL SERVICIO
LUL.             POZA RICA                             :LUGAR DE LA UNIDAD
R1.              POZA RICA                             :Remarks 1
R2.                                                    :Remarks 2
R3.  TRACK1            POTENCIAL NATURAL               :Remarks 3
R4.                           MV                       :Remarks 4
R5.                         -|10|+                     :Remarks 5
R6.                   -80_____________20               :Remarks 6
R7.                                                    :Remarks 7
R8.  TRACK2               RESISTIVIDAD                 :Remarks 8
R9.                           SN                       :Remarks 9
R10.                       OHMS-M2/M                   :Remarks 10
R11.                    0_____________20               :Remarks 11
R12.                    0_____________200              :Remarks 12
R13.                          ILD                      :Remarks 13
R14.                       OHMS-M2/M                   :Remarks 14
R15.                    0_____________20               :Remarks 15
R16.                    0_____________200              :Remarks 16
R17.                                                   :Remarks 17
R18.  TRACK3             CONDUCTIVIDAD                 :Remarks 18
R19.                         CILD                      :Remarks 19
R20.                       MILIMHOS/M                  :Remarks 20
R21.                  500_____________0                :Remarks 21
R22.                 1000_____________500              :Remarks 22
R23.                                                   :Remarks 23
R24.                                                   :Remarks 24
R25.                                                   :Remarks 25
R26. TEMPERATURA MAXIMA 70 degC                        :Remarks 26
R27. RM@TF=1.0 @ 70 PRENSA ; RMF@TF=0.75 @ 70 PRENSA   :Remarks 27
R28. RMC@TF=1.0 @ 70 PRENSA                            :Remarks 28
R29.                                                   :Remarks 29
R30.                                                   :Remarks 30
~Curve Information Block
#MNEM.UNIT       API Code            Curve    Description
#--------        --------------      -----    -------------------
DEPT  .M                             :0       Index
CILD  .MM/M                          :1       Calibrated Induction Deep Conductivity
ILD   .OHMM                          :2       Induction Deep Resistivity    
SN    .OHMM                          :3       Short Normal Resistivity (16 inch spacing)
SP    .MV                            :4       Spontaneous Potential         
~Ascii Data Section
# ...
   1623.8988     277.0541       5.5788       7.5753     -22.1360
   1624.0511     274.6037       5.5216       7.8739     -21.9925
   1624.2036     266.2660       5.9978       8.1803     -21.7903
   1624.3560     261.0220       6.4737       8.4868     -21.5201
   1624.5084     251.0020       6.9500       8.9010     -21.3366
   1624.6608     243.9880       7.4259       9.5614     -21.1505
   1624.8132     236.9740       7.9018      10.6200     -20.8603
   1624.9656     237.9760       7.7915      10.4074     -20.7485
   1625.1180     240.3490       7.5608       9.8724     -20.5894
   1625.2704     242.7592       7.3298       9.3373     -20.4886
   1625.4229     246.9940       7.0991       8.6200     -20.3564
   1625.5752     247.9960       6.8682       8.9376     -20.6047
   1625.7277     248.9980       6.7429       9.4200     -20.7848
   1625.8800     246.9940       6.7934       9.0600     -20.9809
   1626.0323     240.5603       7.1141       9.4530     -21.2970
   1626.1848     236.3380       7.4958      10.6184     -21.4627
   1626.3372     223.1221       7.8772      11.7838     -21.7463
   1626.4896     218.0650       8.2589      12.9493     -21.9464
   1626.6420     214.9732       8.6402      13.9000     -22.0506
   1626.7944     206.8736       9.0216      13.3121     -22.3163
   1626.9468     206.8362       9.4033      12.8157     -22.1754
   1627.0992     214.8763       9.0957      12.3193     -22.0946
   1627.2516     221.9358       8.6195      11.8229     -21.8743
   1627.4041     232.1977       8.1436      11.3265     -21.6456
   1627.5564     240.9820       7.6673      10.6256     -21.2756
   1627.7089     244.9900       7.1914       9.8689     -20.9441
   1627.8612     247.9960       6.8108       9.0200     -20.5713
   1628.0135     250.0000       6.6090       9.1800     -20.5571
   1628.1660     253.0060       6.4112       8.9926     -20.9097
   1628.3184     253.0060       6.5907       8.8137     -20.9754
   1628.4708     251.0020       6.7703       8.6600     -21.1562
   1628.6232     244.9900       6.9498       9.3436     -21.1080
   1628.7756     240.9781       7.1293       9.9429     -20.9743
   1628.9280     238.9174       7.3089      10.9000     -20.7350
   1629.0804     238.5346       7.4884      10.7965     -20.5231
   1629.2328     237.8187       7.6680      10.5397     -20.3734
   1629.3853     230.7943       7.7942      10.2600     -19.9152
   1629.5376     227.8161       7.9205      10.5672     -19.6944
   1629.6901     224.8499       8.0467      10.7356     -19.3860
   1629.8424     223.8745       8.3732      10.3982     -19.2082
   1629.9948     220.8566       8.7265      10.0607     -18.9410
   1630.1472     213.9325       9.0801      11.0796     -18.7238
   1630.2996     208.7018       9.4334      12.5249     -18.7453
   1630.4520     206.6169       9.5528      13.9702     -18.8005
   1630.6044     206.5548       8.7647      16.1382     -18.9355
   1630.7568     214.5326       7.9772      16.0535     -19.2292
   1630.9092     220.5247       7.1892      14.2654     -19.5443
   1631.0616     233.1371       6.5321      12.4772     -19.8403
   1631.2140     246.9940       6.1659      10.6891     -20.2109
   1631.3665     256.0120       5.7999       9.2928     -20.3638
   1631.5188     284.0681       5.4337       8.2059     -20.7112
   1631.6711     305.1102       5.0678       7.1191     -20.7096
   1631.8236     335.1703       4.7016       6.4109     -20.3211
   1631.9760     354.0201       4.3366       5.8745     -20.0099
   1632.1284     371.1230       3.9829       5.3380     -19.4825
   1632.2808     383.2665       3.6296       4.8909     -19.1911
   1632.4332     390.2805       3.2762       4.5739     -18.9113
   1632.5856     400.3006       3.1808       4.4200     -18.3340
   1632.7380     408.3166       3.0967       4.3400     -17.9374
   1632.8904     410.3206       3.0125       4.1800     -17.7416
   1633.0428     408.8438       2.9284       4.1000     -17.7368
   1633.1952     407.8665       2.9008       3.9800     -17.9053
   1633.3477     405.3106       3.0161       4.0200     -17.9598
   1633.5000     394.2886       3.1316       4.0720     -17.9371
   1633.6523     387.2745       3.2470       4.1856     -18.0883
   1633.8048     379.2585       3.3624       4.3054     -18.3409
   1633.9572     377.2545       3.4778       4.5379     -18.7096
   1634.1096     378.6094       3.4697       4.5185     -18.8936
   1634.2620     380.2605       3.4360       4.3926     -18.9598
   1634.4144     386.2726       3.4024       4.2994     -18.9233
   1634.5668     392.2846       3.3687       4.1443     -19.1055
   1634.7192     400.3006       3.3217       4.0305     -19.1364
   1634.8716     409.3186       3.2004       3.8957     -19.1605
   1635.0240     418.6754       3.0793       3.7294     -19.0020
   1635.1764     425.5980       2.9581       3.6918     -18.7421
   1635.3289     431.3627       2.8704       3.7689     -18.5292
   1635.4812     431.3627       2.8796       3.9083     -18.5359
   1635.6335     429.3587       2.8888       3.8547     -18.7031
   1635.7860     428.4187       2.8979       3.7416     -18.7455
   1635.9384     427.3040       2.9071       3.6167     -18.7537
   1636.0908     426.8239       2.9163       3.6983     -18.7312
   1636.2432     426.4307       2.9255       3.8385     -18.7682
   1636.3956     426.4421       2.9347       3.9546     -18.5840
   1636.5480     426.4398       2.9438       3.9858     -18.5435
   1636.7004     425.4148       2.9424       3.9378     -18.5484
   1636.8528     426.3801       2.9361       3.8082     -18.5313
   1637.0052     428.3567       2.9298       3.7515     -18.7248
   1637.1576     429.3587       2.9235       3.5842     -18.9482
   1637.3101     429.3587       2.9172       3.4945     -18.9414
   1637.4624     428.3567       2.9108       3.4769     -18.9442
   1637.6147     426.3527       2.9045       3.6413     -18.9444
   1637.7672     425.3507       2.8982       3.7299     -18.9405
   1637.9196     425.3507       2.8919       3.9175     -18.9031
   1638.0720     425.3507       2.8856       4.0115     -18.8669
   1638.2244     426.3527       2.8793       4.0153     -18.8293
   1638.3768     428.3567       2.8730       3.9401     -18.7927
   1638.5292     428.3567       2.8696       3.8580     -18.7555
   1638.6816     428.3567       2.8768       3.8010     -18.7185
   1638.8340     427.3547       2.8840       3.7558     -18.6815
   1638.9865     425.3507       2.8912       3.6618     -18.6445
   1639.1388     422.3447       2.8985       3.5241     -18.6074
   1639.2913     419.3387       2.9057       3.5702     -18.5704
   1639.4436     417.3347       2.9129       3.7855     -18.5333
   1639.5959     415.3307       2.9201       3.9605     -18.4963
   1639.7484     414.3286       2.9273       4.0543     -18.4592
   1639.9008     410.3206       2.9345       3.9724     -18.4222
   1640.0532     409.3186       2.9417       3.8455     -18.3852
   1640.2056     404.3086       2.9613       3.7785     -18.3477
   1640.3580     402.3046       3.0084       3.8950     -18.3117
   1640.5104     397.2946       3.0555       4.0858     -18.2728
   1640.6628     393.2866       3.1026       4.1822     -18.2372
   1640.8152     391.2826       3.1498       4.2290     -18.2027
   1640.9677     388.2766       3.1969       4.2382     -18.1517
   1641.1200     386.2726       3.2440       4.2487     -18.1711
   1641.2725     384.2685       3.2911       4.1841     -17.9754
   1641.4248     385.2705       3.3383       4.0713     -17.9699
   1641.5771     386.2726       3.3854       3.9640     -17.7868
   1641.7296     384.2685       3.4325       3.9007     -17.7113
   1641.8820     381.2625       3.4796       3.8697     -17.5251
   1642.0344     379.2585       3.4819       3.9740     -17.5637
   1642.1868     381.2625       3.4567       4.0426     -17.5443
   1642.3392     383.2665       3.4315       4.1966     -17.5552
   1642.4916     387.2745       3.4062       4.3012     -17.5429
   1642.6440     392.2846       3.3810       4.3443     -17.5613
