~Version Information
VERS  .          2.0                                   :CWLS Log Ascii Standard - Version 2.0
WRAP  .          NO                                    :One line per depth step
~Well Information Block
#MNEM.UNIT       Data Type                             Information
#---------       ---------                             -------------------------------
STRT  .M         301.0668                              :PROFUNDIDAD INICIAL
STOP  .M         1842.0000                             :PROFUNDIDAD FINAL
STEP  .M         0.1524                                :INCREMENTO
NULL  .          -999.25                               :VALOR NULO 
COMP  .          PETROLEOS MEXICANOS                   :COMPANIA
WELL  .          ABEDUL-1                              :NOMBRE DEL POZO 
FLD   .          ABEDUL                                :CAMPO 
STAT  .          VERACRUZ                              :ESTADO
CNTY  .          COATZINTLA                            :MUNICIPIO
CTRY  .          MEXICO                                :PAIS
DATE  .          03-MAR-79                             :FECHA
UWI   .          1030022740                            :VALOR UNICO DEL POZO
SRVC  .          PEMEX                                 :COMPANIA DE SERVICIOS
~Parameter Information Block
#MNEM.UNIT       Value                                 Description
#---------       ---------                             -------------
FL.              X=                                    :LOCALIZACION DEL CAMPO
FL1.             Y=                                    :LOCALIZACION DEL CAMPO
PDAT.            NIVEL DEL TERRENO                     :DATO PERMANENTE
EPD.M            135.10                                :ELEVACION DEL DATO PERMANENTE
APD.M            3.8                                   :DIFERENCIA ENTRE MR Y NIVEL DE TERRENO
EKB.M            139.58                                :ELEVACION DEL KELLY BUSHING
EDF.M            139.28                                :ELEVACION DE LA MESA ROTARIA
EGL.M            135.10                                :ELEVACION DEL TERRENO
ELZ.M            139.28                                :ELEVACION DEL CERO DE REFERENCIA
LMF.             MESA ROTARIA                          :REGISTRO MEDIDO DESDE
DMF.             MESA ROTARIA                          :PROFUNDIDAD MEDIDA DESDE
SECT.            DISTRITO POZA RICA                    :NOMBRE DEL SECTOR
CN.              PETROLEOS MEXICANOS                   :NOMBRE DE LA COMPANIA
LATI.            Y=78,766.87 M.                        :LATITUD
LONG.            X=119,309.85 M.                       :LONGITUD
NATI.            MEXICO                                :NACION
RANG.            ZONA NORTE                            :NOMBRE DE LA ZONA
SLAB.            ESTADO                                :ESTADO 
STAT.            VERACRUZ                              :NOMBRE DEL ESTADO
CLAB.            MUNICIPIO                             :ETIQUETA DEL MUNICIPIO
COUN.            COATZINTLA                            :NOMBRE DEL MUNICIPIO
SRVC.            REGISTRO IL  1:500                    :NOMBRE DEL SERVICIO
DATE.            03-MAR-79                             :FECHA DEL SERVICIO
BLI.M            1842.0000                             :PRIMERA LECTURA
TLI.M            301.0668                              :ULTIMA LECTURA
QCEN.            FABIOLA NALLELY PEREZ CASTELAN        :NOMBRE DEL INGENIERO DEL CONTROL DE CALIDAD DEL REGISTRO
DLQC.            01-APR-2009                           :FECHA DEL CONTROL DE CALIDAD DEL REGISTRO
CBL1.M           291.0                                 :ZAPATA SCHLUMBERGER
CBD1.M           300.0                                 :ZAPATA PERFORACION
TDL.M            1842.0                                :PROFUNDIDAD REGISTRO
TDD.M            1851.0                                :PROFUNDIDAD PERFORADOR
DFT.             SODICO                                :TIPO DE LODO
DFD.G/C3         1.25                                  :DENSIDAD DE LODO
DFV.S            45                                    :VISCOSIDAD DEL LODO
DFPH.            8.6                                   :PH DEL LODO
DFL.C3           N.R.                                  :PERDIDA DE LODO
MSS.             PRESA                                 :FUENTE DE LA MUESTRA DE LODO
RMS.ohm.m        1.8                                   :RESISTIVIDAD DE LODO
MST.DEGC         29                                    :TEMPERATURA DE LA MUESTRA DE LODO
MFSS.            PRENSA                                :FUENTE DEL FILTRADO DE LODO
RMFS.ohm.m       N.R.                                  :RESISTIVIDAD DEL FILTRADO
MFST.DEGC        N.R.                                  :TEMPERATURA DEL FILTRADO
MCSS.            PRENSA                                :FUENTE DEL ENJARRE DE LODO
RMCS.ohm.m       N.R.                                  :RESISTIVIDAD DEL ENJARRE DE LODO
MCST.DEGC        N.R.                                  :TEMPERATURA DEL ENJARRE
BSAL.PPM         N.R.                                  :SALINIDAD DEL LODO
TCS.             N.R.                                  :HORA EN QUE PARO CIRCULACION
STEM.DEGC        29                                    :TEMPERATURA DE SUPERFICIE
BHT.DEGC         70                                    :TEMPERATURA DE FONDO
MRT.DEGC         70                                    :MAXIMA TEMPERATURA REGISTRADA
BS.IN            8.5                                   :DIAMETRO DE BARRENA
CSIZ.IN          N.R.                                  :DIAMETRO DE T.R.
CWEI.lbm/ft      N.R.                                  :PESO DE LA T.R.
CTD1.M           300.0                                 :FONDO DE LA T.R. DEL PERFORADOR
CTL1.M           291.0                                 :FONDO DE LA T.R. DEL REGISTRO
ENGI.            PEDRO SABATH                          :NOMBRE DEL INGENIERO
WITN.            RAFAEL SANDOVAL CERVANTES             :NOMBRE DEL TESTIGO
LUN.             8-A                                   :NUMERO DE LA UNIDAD
RUN.             UNO                                   :NUMERO DE LA CORRIDA
OS1.             N.R.                                  :SERVICIOS
HIDE.            REGISTRO DE INDUCCION                 :NOMBRE DEL SERVICIO
HID1.            1:500                                 :NOMBRE DEL SERVICIO
LUL.             POZA RICA                             :LUGAR DE LA UNIDAD
R1.              POZA RICA                             :Remarks 1
R2.                                                    :Remarks 2
R3.  TRACK1            POTENCIAL NATURAL               :Remarks 3
R4.                           MV                       :Remarks 4
R5.                         -|10|+                     :Remarks 5
R6.                   -80_____________20               :Remarks 6
R7.                                                    :Remarks 7
R8.  TRACK2               RESISTIVIDAD                 :Remarks 8
R9.                           SN                       :Remarks 9
R10.                       OHMS-M2/M                   :Remarks 10
R11.                    0_____________20               :Remarks 11
R12.                    0_____________200              :Remarks 12
R13.                          ILD                      :Remarks 13
R14.                       OHMS-M2/M                   :Remarks 14
R15.                    0_____________20               :Remarks 15
R16.                    0_____________200              :Remarks 16
R17.                                                   :Remarks 17
R18.  TRACK3             CONDUCTIVIDAD                 :Remarks 18
R19.                         CILD                      :Remarks 19
R20.                       MILIMHOS/M                  :Remarks 20
R21.                  500_____________0                :Remarks 21
R22.                 1000_____________500              :Remarks 22
R23.                                                   :Remarks 23
R24.                                                   :Remarks 24
R25.                                                   :Remarks 25
R26. TEMPERATURA MAXIMA 70 degC                        :Remarks 26
R27. RM@TF=1.0 @ 70 PRENSA ; RMF@TF=0.75 @ 70 PRENSA   :Remarks 27
R28. RMC@TF=1.0 @ 70 PRENSA                            :Remarks 28
R29.                                                   :Remarks 29
R30.                                                   :Remarks 30
~Curve Information Block
#MNEM.UNIT       API Code            Curve    Description
#--------        --------------      -----    -------------------
DEPT  .M                             :0       Index
CILD  .MM/M                          :1       Calibrated Induction Deep Conductivity
ILD   .OHMM                          :2       Induction Deep Resistivity    
SN    .OHMM                          :3       Short Normal Resistivity (16 inch spacing)
SP    .MV                            :4       Spontaneous Potential         
~Ascii Data Section
# ...
   1529.4108     346.1924       4.0441       4.5049     -20.5558
   1529.5632     347.1944       4.1249       4.7040     -20.5172
   1529.7156     353.2064       4.2057       4.8118     -20.7167
   1529.8680     359.2184       4.1128       4.6070     -21.1791
   1530.0204     370.6220       4.0195       4.2995     -21.7889
   1530.1729     380.3511       3.9263       4.2208     -22.3471
   1530.3252     387.2745       3.8331       3.9614     -22.5571
   1530.4777     392.2846       3.7399       3.8401     -22.3519
   1530.6300     394.3253       3.6466       3.6686     -21.8673
   1530.7823     395.2670       3.5534       3.5663     -21.4763
   1530.9348     391.2149       3.4602       3.5866     -21.1341
   1531.0872     388.8854       3.3670       3.6254     -20.7874
   1531.2396     387.2235       3.2737       3.7155     -20.5778
   1531.3920     377.2502       3.3053       3.7836     -20.4919
   1531.5444     369.2966       3.3558       3.8900     -20.2169
   1531.6968     364.3413       3.4063       4.0260     -19.6606
   1531.8492     357.3413       3.4568       4.1139     -19.5909
   1532.0016     357.7114       3.5073       4.3119     -19.7318
   1532.1541     356.6900       3.5578       4.4413     -20.2651
   1532.3064     356.2189       3.6083       4.5181     -20.3407
   1532.4589     356.1798       3.6588       4.6307     -20.5602
   1532.6112     355.1762       3.7093       4.6161     -20.3690
   1532.7635     355.2151       3.7598       4.6130     -20.3447
   1532.9160     361.2939       3.8103       4.5444     -20.2915
   1533.0684     375.1060       3.7953       4.4090     -20.1295
   1533.2208     372.1532       3.7774       4.3101     -20.1079
   1533.3732     364.4181       3.7596       4.2155     -19.8772
   1533.5256     357.0371       3.7418       4.1893     -19.7367
   1533.6780     362.3599       3.7240       4.4321     -19.7294
   1533.8304     365.3312       3.7062       4.5482     -19.9267
   1533.9828     368.0284       3.6883       4.5067     -20.1854
   1534.1353     369.4323       3.6705       4.3833     -19.9675
   1534.2876     371.1644       3.6527       4.3077     -19.9509
   1534.4401     374.1060       3.6349       4.1548     -19.7940
   1534.5924     378.0707       3.6170       4.0623     -19.5879
   1534.7448     385.0784       3.5992       3.9672     -19.5528
   1534.8972     390.1055       3.5814       3.8869     -19.9539
   1535.0496     390.1431       3.5483       3.8582     -20.1775
   1535.2020     390.1747       3.5090       3.8600     -19.9312
   1535.3544     390.1774       3.4698       3.8914     -19.7302
   1535.5068     392.1515       3.4305       4.0043     -19.6072
   1535.6592     395.1037       3.3912       4.0553     -19.3850
   1535.8116     400.0637       3.3519       4.0275     -19.3228
   1535.9640     406.0527       3.3127       3.9814     -19.5178
   1536.1165     410.2155       3.2734       3.8237     -19.9652
   1536.2688     414.1465       3.2341       3.7131     -20.1812
   1536.4211     417.2401       3.1949       3.5866     -20.3785
   1536.5736     420.3407       3.1556       3.4963     -20.1625
   1536.7260     423.3467       3.1163       3.4659     -20.1252
   1536.8784     427.3547       3.0770       3.5051     -19.7457
   1537.0308     432.7645       3.0378       3.6275     -19.7727
   1537.1832     435.2383       3.0220       3.7861     -19.5744
   1537.3356     436.3727       3.0169       3.8613     -19.5164
   1537.4880     437.3748       3.0119       3.8183     -19.2609
   1537.6404     438.3767       3.0068       3.6764     -19.2861
   1537.7928     442.3848       3.0018       3.5546     -19.5249
   1537.9452     446.3928       2.9967       3.4674     -19.9264
   1538.0977     448.5420       2.9917       3.3350     -19.9357
   1538.2500     450.4008       2.9866       3.2500     -19.9038
   1538.4023     452.4048       2.9816       3.1588     -19.7204
   1538.5548     452.4048       2.9765       3.1102     -19.7495
   1538.7072     449.3988       2.9715       3.1017     -19.7315
   1538.8596     444.3888       2.9664       3.1628     -19.7651
   1539.0120     440.5879       2.9614       3.2468     -19.5331
   1539.1644     437.6193       2.9563       3.3774     -19.3414
   1539.3168     432.3647       2.9513       3.4192     -19.1698
   1539.4692     430.3607       2.9475       3.5560     -19.0410
   1539.6216     430.3607       2.9547       3.6676     -18.9579
   1539.7740     430.3607       2.9619       3.7788     -18.8881
   1539.9264     430.4494       2.9691       3.7772     -18.7920
   1540.0789     428.7250       2.9763       3.7767     -18.7402
   1540.2312     427.0006       2.9835       3.6974     -18.7491
   1540.3835     426.3527       2.9907       3.6072     -18.7408
   1540.5360     425.3507       2.9980       3.6331     -18.7521
   1540.6884     422.3447       3.0052       3.7363     -18.6090
   1540.8408     416.3327       3.0124       3.8893     -18.3890
   1540.9932     408.1296       3.0196       4.0253     -18.2970
   1541.1456     402.8888       3.0325       3.9959     -18.1356
   1541.2980     396.2926       3.0692       4.0509     -18.1733
   1541.4504     393.2866       3.1059       4.0930     -18.5597
   1541.6028     391.2826       3.1426       4.1874     -18.7979
   1541.7552     392.2846       3.1794       4.2190     -18.9622
   1541.9076     395.2906       3.2161       4.2231     -18.9335
   1542.0601     396.3471       3.2528       4.1616     -18.9478
   1542.2124     397.2946       3.2895       4.0571     -18.9447
   1542.3647     398.2966       3.3262       3.9380     -18.9399
   1542.5172     400.3023       3.3328       3.8018     -18.9486
   1542.6696     400.3097       3.3209       3.7562     -18.9437
   1542.8220     400.3132       3.3091       3.7065     -18.9088
   1542.9744     400.5027       3.2972       3.7303     -18.7199
   1543.1268     400.9963       3.2853       3.7670     -18.7564
   1543.2792     401.3652       3.2734       3.8414     -18.7781
   1543.4316     401.3792       3.2615       3.8959     -18.9626
   1543.5840     402.3818       3.2497       3.9936     -18.9747
   1543.7365     403.3066       3.2378       4.0653     -19.1677
   1543.8888     405.3106       3.2259       4.0582     -19.1306
   1544.0413     407.8584       3.2140       4.0594     -19.1504
   1544.1936     410.2406       3.2021       4.0600     -19.1437
   1544.3459     412.3246       3.1903       4.0365     -19.1050
   1544.4984     414.3286       3.1692       3.9474     -18.9235
   1544.6508     417.3347       3.1329       3.8882     -18.9492
   1544.8032     418.3367       3.0965       3.8234     -18.9804
   1544.9556     420.0257       3.0602       3.7372     -19.1893
   1545.1080     422.0488       3.0238       3.6834     -19.5210
   1545.2604     424.3487       2.9875       3.5782     -19.4470
   1545.4128     426.3527       2.9511       3.4668     -19.1291
   1545.5652     431.3627       2.9148       3.4931     -19.0048
   1545.7177     437.3748       2.8784       3.5722     -18.8998
   1545.8700     439.3788       2.8420       3.6258     -18.6768
   1546.0225     445.4174       2.8057       3.7282     -18.5776
   1546.1748     450.7112       2.7693       3.6960     -18.8090
   1546.3271     456.4128       2.7330       3.5712     -18.9511
   1546.4796     463.4268       2.6966       3.5151     -18.9408
   1546.6320     473.4469       2.6603       3.4302     -18.9497
   1546.7844     479.4589       2.6239       3.3656     -18.9090
   1546.9368     484.4465       2.5876       3.3253     -18.6851
   1547.0892     486.6620       2.5512       3.2244     -18.5020
   1547.2416     484.5241       2.5148       3.1893     -18.3192
   1547.3940     482.3863       2.4785       3.1106     -18.5014
   1547.5464     480.4609       2.5647       3.1662     -18.6838
   1547.6989     458.4168       2.6656       3.3215     -18.9137
   1547.8512     451.4028       2.7667       3.4710     -18.9358
   1548.0037     434.1342       2.8676       3.7126     -18.9641
   1548.1560     419.9631       2.9686       3.9367     -18.7909
