~Version Information
VERS  .          2.0                                   :CWLS Log Ascii Standard - Version 2.0
WRAP  .          NO                                    :One line per depth step
~Well Information Block
#MNEM.UNIT       Data Type                             Information
#---------       ---------                             -------------------------------
STRT  .M         301.0668                              :PROFUNDIDAD INICIAL
STOP  .M         1842.0000                             :PROFUNDIDAD FINAL
STEP  .M         0.1524                                :INCREMENTO
NULL  .          -999.25                               :VALOR NULO 
COMP  .          PETROLEOS MEXICANOS                   :COMPANIA
WELL  .          ABEDUL-1                              :NOMBRE DEL POZO 
FLD   .          ABEDUL                                :CAMPO 
STAT  .          VERACRUZ                              :ESTADO
CNTY  .          COATZINTLA                            :MUNICIPIO
CTRY  .          MEXICO                                :PAIS
DATE  .          03-MAR-79                             :FECHA
UWI   .          1030022740                            :VALOR UNICO DEL POZO
SRVC  .          PEMEX                                 :COMPANIA DE SERVICIOS
~Parameter Information Block
#MNEM.UNIT       Value                                 Description
#---------       ---------                             -------------
FL.              X=                                    :LOCALIZACION DEL CAMPO
FL1.             Y=                                    :LOCALIZACION DEL CAMPO
PDAT.            NIVEL DEL TERRENO                     :DATO PERMANENTE
EPD.M            135.10                                :ELEVACION DEL DATO PERMANENTE
APD.M            3.8                                   :DIFERENCIA ENTRE MR Y NIVEL DE TERRENO
EKB.M            139.58                                :ELEVACION DEL KELLY BUSHING
EDF.M            139.28                                :ELEVACION DE LA MESA ROTARIA
EGL.M            135.10                                :ELEVACION DEL TERRENO
ELZ.M            139.28                                :ELEVACION DEL CERO DE REFERENCIA
LMF.             MESA ROTARIA                          :REGISTRO MEDIDO DESDE
DMF.             MESA ROTARIA                          :PROFUNDIDAD MEDIDA DESDE
SECT.            DISTRITO POZA RICA                    :NOMBRE DEL SECTOR
CN.              PETROLEOS MEXICANOS                   :NOMBRE DE LA COMPANIA
LATI.            Y=78,766.87 M.                        :LATITUD
LONG.            X=119,309.85 M.                       :LONGITUD
NATI.            MEXICO                                :NACION
RANG.            ZONA NORTE                            :NOMBRE DE LA ZONA
SLAB.            ESTADO                                :ESTADO 
STAT.            VERACRUZ                              :NOMBRE DEL ESTADO
CLAB.            MUNICIPIO                             :ETIQUETA DEL MUNICIPIO
COUN.            COATZINTLA                            :NOMBRE DEL MUNICIPIO
SRVC.            REGISTRO IL  1:500                    :NOMBRE DEL SERVICIO
DATE.            03-MAR-79                             :FECHA DEL SERVICIO
BLI.M            1842.0000                             :PRIMERA LECTURA
TLI.M            301.0668                              :ULTIMA LECTURA
QCEN.            FABIOLA NALLELY PEREZ CASTELAN        :NOMBRE DEL INGENIERO DEL CONTROL DE CALIDAD DEL REGISTRO
DLQC.            01-APR-2009                           :FECHA DEL CONTROL DE CALIDAD DEL REGISTRO
CBL1.M           291.0                                 :ZAPATA SCHLUMBERGER
CBD1.M           300.0                                 :ZAPATA PERFORACION
TDL.M            1842.0                                :PROFUNDIDAD REGISTRO
TDD.M            1851.0                                :PROFUNDIDAD PERFORADOR
DFT.             SODICO                                :TIPO DE LODO
DFD.G/C3         1.25                                  :DENSIDAD DE LODO
DFV.S            45                                    :VISCOSIDAD DEL LODO
DFPH.            8.6                                   :PH DEL LODO
DFL.C3           N.R.                                  :PERDIDA DE LODO
MSS.             PRESA                                 :FUENTE DE LA MUESTRA DE LODO
RMS.ohm.m        1.8                                   :RESISTIVIDAD DE LODO
MST.DEGC         29                                    :TEMPERATURA DE LA MUESTRA DE LODO
MFSS.            PRENSA                                :FUENTE DEL FILTRADO DE LODO
RMFS.ohm.m       N.R.                                  :RESISTIVIDAD DEL FILTRADO
MFST.DEGC        N.R.                                  :TEMPERATURA DEL FILTRADO
MCSS.            PRENSA                                :FUENTE DEL ENJARRE DE LODO
RMCS.ohm.m       N.R.                                  :RESISTIVIDAD DEL ENJARRE DE LODO
MCST.DEGC        N.R.                                  :TEMPERATURA DEL ENJARRE
BSAL.PPM         N.R.                                  :SALINIDAD DEL LODO
TCS.             N.R.                                  :HORA EN QUE PARO CIRCULACION
STEM.DEGC        29                                    :TEMPERATURA DE SUPERFICIE
BHT.DEGC         70                                    :TEMPERATURA DE FONDO
MRT.DEGC         70                                    :MAXIMA TEMPERATURA REGISTRADA
BS.IN            8.5                                   :DIAMETRO DE BARRENA
CSIZ.IN          N.R.                                  :DIAMETRO DE T.R.
CWEI.lbm/ft      N.R.                                  :PESO DE LA T.R.
CTD1.M           300.0                                 :FONDO DE LA T.R. DEL PERFORADOR
CTL1.M           291.0                                 :FONDO DE LA T.R. DEL REGISTRO
ENGI.            PEDRO SABATH                          :NOMBRE DEL INGENIERO
WITN.            RAFAEL SANDOVAL CERVANTES             :NOMBRE DEL TESTIGO
LUN.             8-A                                   :NUMERO DE LA UNIDAD
RUN.             UNO                                   :NUMERO DE LA CORRIDA
OS1.             N.R.                                  :SERVICIOS
HIDE.            REGISTRO DE INDUCCION                 :NOMBRE DEL SERVICIO
HID1.            1:500                                 :NOMBRE DEL SERVICIO
LUL.             POZA RICA                             :LUGAR DE LA UNIDAD
R1.              POZA RICA                             :Remarks 1
R2.                                                    :Remarks 2
R3.  TRACK1            POTENCIAL NATURAL               :Remarks 3
R4.                           MV                       :Remarks 4
R5.                         -|10|+                     :Remarks 5
R6.                   -80_____________20               :Remarks 6
R7.                                                    :Remarks 7
R8.  TRACK2               RESISTIVIDAD                 :Remarks 8
R9.                           SN                       :Remarks 9
R10.                       OHMS-M2/M                   :Remarks 10
R11.                    0_____________20               :Remarks 11
R12.                    0_____________200              :Remarks 12
R13.                          ILD                      :Remarks 13
R14.                       OHMS-M2/M                   :Remarks 14
R15.                    0_____________20               :Remarks 15
R16.                    0_____________200              :Remarks 16
R17.                                                   :Remarks 17
R18.  TRACK3             CONDUCTIVIDAD                 :Remarks 18
R19.                         CILD                      :Remarks 19
R20.                       MILIMHOS/M                  :Remarks 20
R21.                  500_____________0                :Remarks 21
R22.                 1000_____________500              :Remarks 22
R23.                                                   :Remarks 23
R24.                                                   :Remarks 24
R25.                                                   :Remarks 25
R26. TEMPERATURA MAXIMA 70 degC                        :Remarks 26
R27. RM@TF=1.0 @ 70 PRENSA ; RMF@TF=0.75 @ 70 PRENSA   :Remarks 27
R28. RMC@TF=1.0 @ 70 PRENSA                            :Remarks 28
R29.                                                   :Remarks 29
R30.                                                   :Remarks 30
~Curve Information Block
#MNEM.UNIT       API Code            Curve    Description
#--------        --------------      -----    -------------------
DEPT  .M                             :0       Index
CILD  .MM/M                          :1       Calibrated Induction Deep Conductivity
ILD   .OHMM                          :2       Induction Deep Resistivity    
SN    .OHMM                          :3       Short Normal Resistivity (16 inch spacing)
SP    .MV                            :4       Spontaneous Potential         
~Ascii Data Section
# ...
    395.5548     617.7355       1.6188       2.1104     -26.0566
    395.7072     618.7375       1.6162       2.1000     -26.1417
    395.8596     621.7435       1.6084       2.1163     -25.9570
    396.0120     625.7515       1.5981       2.1613     -25.8901
    396.1644     630.8323       1.5852       2.2160     -25.6098
    396.3168     633.7675       1.5779       2.2491     -25.5204
    396.4692     640.7816       1.5606       2.2860     -25.5139
    396.6216     643.7876       1.5533       2.2983     -25.5154
    396.7740     648.7976       1.5413       2.2926     -25.5628
    396.9264     648.7976       1.5413       2.2770     -25.7305
    397.0788     644.7720       1.5509       2.2434     -25.7623
    397.2312     640.7816       1.5606       2.1878     -25.9592
    397.3836     634.0267       1.5772       2.1315     -26.1176
    397.5360     626.7535       1.5955       2.0908     -26.2635
    397.6884     623.7475       1.6032       2.0918     -26.3170
    397.8408     621.7435       1.6084       2.1029     -26.3577
    397.9932     618.7375       1.6162       2.1334     -26.5410
    398.1456     618.1863       1.6176       2.1524     -26.7290
    398.2980     617.7355       1.6188       2.1814     -26.9047
    398.4504     617.7355       1.6188       2.1974     -26.9521
    398.6028     617.7355       1.6188       2.1930     -27.1380
    398.7552     618.7375       1.6162       2.1723     -27.0452
    398.9076     616.7335       1.6214       2.1661     -27.0593
    399.0600     613.2545       1.6306       2.1426     -26.9854
    399.2124     609.6461       1.6403       2.1334     -26.5567
    399.3648     603.6099       1.6567       2.1402     -26.3208
    399.5172     598.6113       1.6705       2.1706     -26.0563
    399.6696     595.6478       1.6788       2.1943     -25.8645
    399.8220     593.7040       1.6843       2.2123     -25.6720
    399.9744     591.6503       1.6902       2.2215     -25.4647
    400.1268     589.2581       1.6970       2.2160     -25.4102
    400.2792     586.8085       1.7041       2.2315     -25.3224
    400.4316     586.7989       1.7042       2.2380     -25.2844
    400.5840     585.7526       1.7072       2.2613     -25.0900
    400.7364     584.6859       1.7103       2.2714     -25.1496
    400.8888     584.6212       1.7105       2.2869     -24.9582
    401.0412     583.1562       1.7148       2.2923     -24.9162
    401.1936     584.5872       1.7106       2.2908     -24.9244
    401.3460     585.6412       1.7075       2.2789     -24.9124
    401.4984     586.7166       1.7044       2.2751     -25.0594
    401.6508     588.7860       1.6984       2.2859     -25.2813
    401.8032     591.8167       1.6897       2.3056     -25.3213
    401.9556     593.7957       1.6841       2.3229     -25.3271
    402.1080     598.2052       1.6717       2.3000     -25.2962
    402.2604     602.6946       1.6592       2.2765     -25.4840
    402.4128     608.6626       1.6429       2.2708     -25.5063
    402.5652     614.6638       1.6269       2.2670     -25.5438
    402.7176     619.6986       1.6137       2.2971     -25.3559
    402.8700     621.7697       1.6083       2.3155     -25.2829
    403.0224     623.8687       1.6029       2.3321     -25.0851
    403.1748     623.9893       1.6026       2.3248     -25.1519
    403.3272     618.0530       1.6180       2.3043     -24.9587
    403.4796     502.5731       1.6474       2.2794     -24.9082
    403.6320     502.3900       1.6897       2.2589     -24.9415
    403.7844     502.2069       1.7316       2.2354     -24.7594
    403.9368     502.0238       1.7758       2.2428     -24.7100
    404.0892     501.8408       1.8527       2.2883     -24.5849
    404.2416     501.6577       1.8991       2.3339     -24.4632
    404.3940     501.4745       1.9780       2.4030     -24.4612
    404.5464     501.2915       2.0255       2.5248     -24.5342
    404.6988     501.1084       2.0327       2.6273     -24.5222
    404.8512     500.9253       2.0359       2.7129     -24.5176
    405.0036     499.1801       2.0395       2.6301     -24.5761
    405.1560     488.8660       2.0430       2.5935     -24.6803
    405.3084     478.5518       2.0472       2.6397     -24.7696
    405.4608     468.2397       2.0514       2.9112     -24.9318
    405.6132     457.9255       2.0556       3.1210     -24.9126
    405.7656     447.6113       2.0599       3.2009     -24.9653
    405.9180     437.2971       2.0599       3.2500     -25.0980
    406.0704     428.3890       2.0641       3.2811     -24.8905
    406.2228     428.0490       2.0641       3.2903     -24.9359
    406.3752     427.7090       2.0641       3.2596     -24.9068
    406.5276     427.3689       2.0641       3.2331     -24.9432
    406.6800     427.0289       2.0641       3.2091     -24.7533
    406.8324     426.6888       2.0641       3.1735     -24.7367
    406.9848     426.1738       2.0641       3.1720     -24.5874
    407.1372     425.5788       2.0641       3.1792     -24.6590
    407.2896     424.9837       2.0641       3.1958     -24.7529
    407.4420     424.3888       2.0641       3.2184     -24.8744
    407.5944     423.7938       2.0641       3.2360     -24.9643
    407.7468     423.1987       2.0641       3.2527     -25.0774
    407.8992     422.6037       2.0641       3.2619     -25.1639
    408.0516     422.0086       2.0641       3.2718     -25.3319
    408.2040     421.4136       2.0641       3.2868     -25.3176
    408.3564     419.9302       2.0641       3.2932     -25.3137
    408.5088     416.6845       2.0641       3.3095     -25.2925
    408.6612     413.4389       2.0641       3.3389     -24.9612
    408.8136     410.1933       2.0641       3.3793     -24.7272
    408.9660     406.9476       2.0641       3.4055     -24.5284
    409.1184     403.7020       2.0641       3.4440     -24.6958
    409.2708     400.4570       2.0641       3.4858     -24.7190
    409.4232     397.2113       2.0684       3.5287     -24.7220
    409.5756     393.9657       2.0684       3.5588     -24.7264
    409.7280     397.8409       2.0684       3.5692     -24.6774
    409.8804     403.9242       2.0684       3.5814     -24.5061
    410.0328     410.0074       2.0684       3.5767     -24.5334
    410.1852     416.0907       2.0684       3.5439     -24.4779
    410.3376     422.1727       2.0684       3.5039     -24.3075
    410.4900     428.2560       2.0641       3.4191     -24.3274
    410.6424     434.3392       2.0641       3.3440     -24.3224
    410.7948     438.9189       2.0599       3.3133     -24.3534
    410.9472     442.9992       2.0556       3.2529     -24.6946
    411.0996     447.0796       2.0472       3.1717     -24.9701
    411.2520     451.1591       2.0223       3.1983     -25.1828
    411.4044     455.2395       2.0060       3.2433     -25.2831
    411.5568     458.5147       1.9861       3.1640     -25.1096
    411.7092     459.8749       1.9665       3.3031     -24.9742
    411.8616     461.2350       1.9665       3.3656     -24.9155
    412.0140     462.5951       1.9704       3.3299     -24.8589
    412.1664     463.9550       1.9542       3.2576     -24.7419
    412.3188     465.3151       1.9393       3.1892     -24.6803
    412.4712     472.3387       1.9323       3.1150     -24.6785
    412.6236     480.4315       1.9327       3.0903     -24.7356
    412.7760     488.5242       1.9442       3.1165     -24.7098
    412.9284     496.6170       2.0109       3.1513     -24.8691
    413.0808     493.6866       2.0394       3.1340     -25.0529
    413.2332     493.1065       2.0558       3.1046     -25.0048
    413.3856     497.2715       2.0640       3.0756     -25.1203
    413.5380     501.4365       2.0680       3.1018     -25.1411
    413.6904     501.8240       2.0765       3.1498     -24.9439
    413.8428     491.9632       2.0764       3.1899     -25.0734
    413.9952     482.1023       2.0764       3.2106     -25.2144
    414.1476     472.2435       2.0636       3.2816     -25.5641
    414.3000     462.3826       2.0553       3.3662     -25.9598
