~Version Information
VERS  .          2.0                                   :CWLS Log Ascii Standard - Version 2.0
WRAP  .          NO                                    :One line per depth step
~Well Information Block
#MNEM.UNIT       Data Type                             Information
#---------       ---------                             -------------------------------
STRT  .M         301.0668                              :PROFUNDIDAD INICIAL
STOP  .M         1842.0000                             :PROFUNDIDAD FINAL
STEP  .M         0.1524                                :INCREMENTO
NULL  .          -999.25                               :VALOR NULO 
COMP  .          PETROLEOS MEXICANOS                   :COMPANIA
WELL  .          ABEDUL-1                              :NOMBRE DEL POZO 
FLD   .          ABEDUL                                :CAMPO 
STAT  .          VERACRUZ                              :ESTADO
CNTY  .          COATZINTLA                            :MUNICIPIO
CTRY  .          MEXICO                                :PAIS
DATE  .          03-MAR-79                             :FECHA
UWI   .          1030022740                            :VALOR UNICO DEL POZO
SRVC  .          PEMEX                                 :COMPANIA DE SERVICIOS
~Parameter Information Block
#MNEM.UNIT       Value                                 Description
#---------       ---------                             -------------
FL.              X=                                    :LOCALIZACION DEL CAMPO
FL1.             Y=                                    :LOCALIZACION DEL CAMPO
PDAT.            NIVEL DEL TERRENO                     :DATO PERMANENTE
EPD.M            135.10                                :ELEVACION DEL DATO PERMANENTE
APD.M            3.8                                   :DIFERENCIA ENTRE MR Y NIVEL DE TERRENO
EKB.M            139.58                                :ELEVACION DEL KELLY BUSHING
EDF.M            139.28                                :ELEVACION DE LA MESA ROTARIA
EGL.M            135.10                                :ELEVACION DEL TERRENO
ELZ.M            139.28                                :ELEVACION DEL CERO DE REFERENCIA
LMF.             MESA ROTARIA                          :REGISTRO MEDIDO DESDE
DMF.             MESA ROTARIA                          :PROFUNDIDAD MEDIDA DESDE
SECT.            DISTRITO POZA RICA                    :NOMBRE DEL SECTOR
CN.              PETROLEOS MEXICANOS                   :NOMBRE DE LA COMPANIA
LATI.            Y=78,766.87 M.                        :LATITUD
LONG.            X=119,309.85 M.                       :LONGITUD
NATI.            MEXICO                                :NACION
RANG.            ZONA NORTE                            :NOMBRE DE LA ZONA
SLAB.            ESTADO                                :ESTADO 
STAT.            VERACRUZ                              :NOMBRE DEL ESTADO
CLAB.            MUNICIPIO                             :ETIQUETA DEL MUNICIPIO
COUN.            COATZINTLA                            :NOMBRE DEL MUNICIPIO
SRVC.            REGISTRO IL  1:500                    :NOMBRE DEL SERVICIO
DATE.            03-MAR-79                             :FECHA DEL SERVICIO
BLI.M            1842.0000                             :PRIMERA LECTURA
TLI.M            301.0668                              :ULTIMA LECTURA
QCEN.            FABIOLA NALLELY PEREZ CASTELAN        :NOMBRE DEL INGENIERO DEL CONTROL DE CALIDAD DEL REGISTRO
DLQC.            01-APR-2009                           :FECHA DEL CONTROL DE CALIDAD DEL REGISTRO
CBL1.M           291.0                                 :ZAPATA SCHLUMBERGER
CBD1.M           300.0                                 :ZAPATA PERFORACION
TDL.M            1842.0                                :PROFUNDIDAD REGISTRO
TDD.M            1851.0                                :PROFUNDIDAD PERFORADOR
DFT.             SODICO                                :TIPO DE LODO
DFD.G/C3         1.25                                  :DENSIDAD DE LODO
DFV.S            45                                    :VISCOSIDAD DEL LODO
DFPH.            8.6                                   :PH DEL LODO
DFL.C3           N.R.                                  :PERDIDA DE LODO
MSS.             PRESA                                 :FUENTE DE LA MUESTRA DE LODO
RMS.ohm.m        1.8                                   :RESISTIVIDAD DE LODO
MST.DEGC         29                                    :TEMPERATURA DE LA MUESTRA DE LODO
MFSS.            PRENSA                                :FUENTE DEL FILTRADO DE LODO
RMFS.ohm.m       N.R.                                  :RESISTIVIDAD DEL FILTRADO
MFST.DEGC        N.R.                                  :TEMPERATURA DEL FILTRADO
MCSS.            PRENSA                                :FUENTE DEL ENJARRE DE LODO
RMCS.ohm.m       N.R.                                  :RESISTIVIDAD DEL ENJARRE DE LODO
MCST.DEGC        N.R.                                  :TEMPERATURA DEL ENJARRE
BSAL.PPM         N.R.                                  :SALINIDAD DEL LODO
TCS.             N.R.                                  :HORA EN QUE PARO CIRCULACION
STEM.DEGC        29                                    :TEMPERATURA DE SUPERFICIE
BHT.DEGC         70                                    :TEMPERATURA DE FONDO
MRT.DEGC         70                                    :MAXIMA TEMPERATURA REGISTRADA
BS.IN            8.5                                   :DIAMETRO DE BARRENA
CSIZ.IN          N.R.                                  :DIAMETRO DE T.R.
CWEI.lbm/ft      N.R.                                  :PESO DE LA T.R.
CTD1.M           300.0                                 :FONDO DE LA T.R. DEL PERFORADOR
CTL1.M           291.0                                 :FONDO DE LA T.R. DEL REGISTRO
ENGI.            PEDRO SABATH                          :NOMBRE DEL INGENIERO
WITN.            RAFAEL SANDOVAL CERVANTES             :NOMBRE DEL TESTIGO
LUN.             8-A                                   :NUMERO DE LA UNIDAD
RUN.             UNO                                   :NUMERO DE LA CORRIDA
OS1.             N.R.                                  :SERVICIOS
HIDE.            REGISTRO DE INDUCCION                 :NOMBRE DEL SERVICIO
HID1.            1:500                                 :NOMBRE DEL SERVICIO
LUL.             POZA RICA                             :LUGAR DE LA UNIDAD
R1.              POZA RICA                             :Remarks 1
R2.                                                    :Remarks 2
R3.  TRACK1            POTENCIAL NATURAL               :Remarks 3
R4.                           MV                       :Remarks 4
R5.                         -|10|+                     :Remarks 5
R6.                   -80_____________20               :Remarks 6
R7.                                                    :Remarks 7
R8.  TRACK2               RESISTIVIDAD                 :Remarks 8
R9.                           SN                       :Remarks 9
R10.                       OHMS-M2/M                   :Remarks 10
R11.                    0_____________20               :Remarks 11
R12.                    0_____________200              :Remarks 12
R13.                          ILD                      :Remarks 13
R14.                       OHMS-M2/M                   :Remarks 14
R15.                    0_____________20               :Remarks 15
R16.                    0_____________200              :Remarks 16
R17.                                                   :Remarks 17
R18.  TRACK3             CONDUCTIVIDAD                 :Remarks 18
R19.                         CILD                      :Remarks 19
R20.                       MILIMHOS/M                  :Remarks 20
R21.                  500_____________0                :Remarks 21
R22.                 1000_____________500              :Remarks 22
R23.                                                   :Remarks 23
R24.                                                   :Remarks 24
R25.                                                   :Remarks 25
R26. TEMPERATURA MAXIMA 70 degC                        :Remarks 26
R27. RM@TF=1.0 @ 70 PRENSA ; RMF@TF=0.75 @ 70 PRENSA   :Remarks 27
R28. RMC@TF=1.0 @ 70 PRENSA                            :Remarks 28
R29.                                                   :Remarks 29
R30.                                                   :Remarks 30
~Curve Information Block
#MNEM.UNIT       API Code            Curve    Description
#--------        --------------      -----    -------------------
DEPT  .M                             :0       Index
CILD  .MM/M                          :1       Calibrated Induction Deep Conductivity
ILD   .OHMM                          :2       Induction Deep Resistivity    
SN    .OHMM                          :3       Short Normal Resistivity (16 inch spacing)
SP    .MV                            :4       Spontaneous Potential         
~Ascii Data Section
# ...
    811.3020     852.7910       1.1726       1.6220     -21.9017
    811.4544     844.1884       1.1846       1.6325     -22.3653
    811.6068     829.1583       1.2060       1.6253     -21.8493
    811.7592     822.1443       1.2163       1.6216     -21.7043
    811.9116     817.1343       1.2238       1.6322     -21.3213
    812.0640     810.4503       1.2339       1.6674     -20.9655
    812.2164     804.1082       1.2436       1.6821     -20.7405
    812.3688     799.0982       1.2514       1.6834     -20.7878
    812.5212     793.0862       1.2609       1.6684     -20.9366
    812.6736     791.0822       1.2641       1.6725     -21.0884
    812.8260     790.0801       1.2657       1.7082     -21.1357
    812.9784     792.0842       1.2625       1.7358     -21.1390
    813.1308     798.3380       1.2526       1.7340     -20.8741
    813.2832     805.1102       1.2421       1.7734     -20.8828
    813.4356     812.1243       1.2313       1.7846     -20.9805
    813.5880     817.1343       1.2238       1.7882     -21.1613
    813.7404     822.1443       1.2163       1.7431     -21.1179
    813.8928     824.1483       1.2134       1.7065     -21.1233
    814.0452     829.3320       1.2058       1.6920     -20.7195
    814.1976     835.5257       1.1969       1.7020     -20.5127
    814.3500     839.1783       1.1916       1.7230     -20.7184
    814.5024     847.1944       1.1804       1.7477     -21.1256
    814.6548     852.2044       1.1734       1.7295     -21.1100
    814.8072     855.2104       1.1693       1.7042     -21.3072
    814.9596     858.2164       1.1652       1.6531     -21.3137
    815.1120     862.2010       1.1598       1.6367     -21.3816
    815.2644     867.2345       1.1531       1.6256     -21.0143
    815.4168     869.2385       1.1504       1.6415     -20.9173
    815.5692     873.2465       1.1452       1.6610     -21.1285
    815.7216     876.2525       1.1412       1.6458     -21.4763
    815.8740     877.2545       1.1399       1.6274     -21.8827
    816.0264     877.2545       1.1399       1.5956     -22.2063
    816.1788     877.2545       1.1399       1.5943     -22.3205
    816.3312     877.2545       1.1399       1.6192     -22.5210
    816.4836     879.2585       1.1373       1.6263     -22.7559
    816.6360     882.2645       1.1334       1.6013     -22.6814
    816.7884     888.2766       1.1258       1.5870     -22.5115
    816.9408     886.8762       1.1276       1.6113     -22.5134
    817.0932     883.9809       1.1312       1.6224     -22.2759
    817.2456     881.2625       1.1347       1.6287     -21.9595
    817.3980     880.5670       1.1356       1.6209     -21.9070
    817.5504     880.2605       1.1360       1.5901     -21.5615
    817.7028     880.2605       1.1360       1.5808     -21.4053
    817.8552     880.2605       1.1360       1.5717     -21.1634
    818.0076     877.2243       1.1400       1.5880     -21.1453
    818.1600     874.2485       1.1438       1.6057     -21.1107
    818.3124     871.2425       1.1478       1.6044     -21.3080
    818.4648     871.2425       1.1478       1.5927     -21.3155
    818.6172     874.2485       1.1438       1.5770     -21.4938
    818.7696     876.2525       1.1412       1.5927     -21.5691
    818.9220     881.2625       1.1347       1.6055     -21.7969
    819.0744     888.1776       1.1259       1.6214     -21.9434
    819.2268     893.2866       1.1195       1.6209     -21.9148
    819.3792     904.3086       1.1058       1.6048     -21.9566
    819.5316     908.3167       1.1009       1.5772     -21.7749
    819.6840     919.2162       1.0879       1.5633     -21.6892
    819.8364     923.3107       1.0831       1.5805     -21.5102
    819.9888     922.4405       1.0841       1.5987     -21.5558
    820.1412     922.5942       1.0839       1.6031     -21.4818
    820.2936     920.7360       1.0861       1.5686     -21.2943
    820.4460     906.7967       1.1028       1.5407     -20.9741
    820.5984     893.7975       1.1188       1.5101     -20.9238
    820.7508     879.7338       1.1367       1.5096     -21.0855
    820.9032     871.2425       1.1478       1.5213     -21.2703
    821.0556     857.3550       1.1664       1.5386     -21.6393
    821.2080     842.1844       1.1874       1.5498     -21.8927
    821.3604     835.1703       1.1974       1.5647     -21.9431
    821.5128     819.1383       1.2208       1.5737     -21.9320
    821.6652     812.1243       1.2313       1.5877     -21.8904
    821.8176     804.1082       1.2436       1.6044     -21.7167
    821.9700     803.1062       1.2452       1.6209     -21.7390
    822.1224     807.4171       1.2385       1.6512     -21.7285
    822.2748     811.1223       1.2329       1.6793     -21.7700
    822.4272     815.1302       1.2268       1.7336     -21.9634
    822.5796     823.1463       1.2149       1.7494     -21.9005
    822.7320     829.1583       1.2060       1.7571     -22.0989
    822.8844     833.1663       1.2002       1.7250     -22.1306
    823.0368     833.6229       1.1996       1.6965     -22.1291
    823.1892     832.1643       1.2017       1.6748     -22.1732
    823.3416     830.1603       1.2046       1.6900     -22.3444
    823.4940     830.1603       1.2046       1.7036     -22.4533
    823.6464     835.1703       1.1974       1.6994     -22.7063
    823.7988     840.1804       1.1902       1.6797     -22.5899
    823.9512     840.6127       1.1896       1.6817     -22.3707
    824.1036     842.0787       1.1875       1.6918     -22.2202
    824.2560     843.1864       1.1860       1.7020     -22.1107
    824.4084     844.1539       1.1846       1.6915     -21.8920
    824.5608     845.1420       1.1832       1.6810     -22.0638
    824.7132     842.1269       1.1875       1.6587     -21.9142
    824.8656     836.1302       1.1960       1.6506     -21.9019
    825.0180     825.6923       1.2111       1.6363     -21.7158
    825.1704     816.5853       1.2246       1.6207     -21.7269
    825.3228     806.2059       1.2404       1.6256     -21.8826
    825.4752     803.2202       1.2450       1.6356     -21.9469
    825.6276     801.1022       1.2483       1.6525     -21.7904
    825.7800     797.0942       1.2546       1.6660     -21.5801
    825.9324     794.0882       1.2593       1.6761     -21.3870
    826.0848     792.6210       1.2616       1.6845     -21.1782
    826.2372     792.0842       1.2625       1.6848     -21.1301
    826.3896     795.0902       1.2577       1.6770     -21.0995
    826.5420     800.1002       1.2498       1.6817     -20.9184
    826.6944     811.1223       1.2329       1.6915     -20.9086
    826.8468     827.1543       1.2090       1.7015     -20.7137
    826.9992     844.2271       1.1845       1.6995     -20.7386
    827.1516     861.2225       1.1611       1.6967     -20.7870
    827.3040     877.2545       1.1399       1.6829     -20.9492
    827.4564     894.2886       1.1182       1.6763     -21.2808
    827.6088     904.3086       1.1058       1.6494     -21.3326
    827.7612     913.3267       1.0949       1.6377     -21.3451
    827.9136     916.2230       1.0914       1.5857     -21.3250
    828.0660     911.0243       1.0977       1.5553     -21.3357
    828.2184     907.0983       1.1024       1.5228     -21.3732
    828.3708     905.1036       1.1048       1.4996     -21.5534
    828.5232     899.1170       1.1122       1.4860     -21.5245
    828.6756     895.1446       1.1171       1.4755     -21.5370
    828.8280     892.1675       1.1209       1.4657     -21.5336
    828.9804     894.0729       1.1185       1.4824     -21.5330
    829.1328     896.1793       1.1158       1.4987     -21.5344
    829.2852     900.1690       1.1109       1.5108     -21.5334
    829.4376     902.1552       1.1085       1.5304     -21.5331
    829.5900     902.1554       1.1085       1.5444     -21.5358
    829.7424     900.1854       1.1109       1.5571     -21.5314
    829.8948     896.7609       1.1151       1.5551     -21.5350
    830.0472     892.4189       1.1205       1.5563     -21.5399
