~Version Information
VERS  .          2.0                                   :CWLS Log Ascii Standard - Version 2.0
WRAP  .          NO                                    :One line per depth step
~Well Information Block
#MNEM.UNIT       Data Type                             Information
#---------       ---------                             -------------------------------
STRT  .M         301.0668                              :PROFUNDIDAD INICIAL
STOP  .M         1842.0000                             :PROFUNDIDAD FINAL
STEP  .M         0.1524                                :INCREMENTO
NULL  .          -999.25                               :VALOR NULO 
COMP  .          PETROLEOS MEXICANOS                   :COMPANIA
WELL  .          ABEDUL-1                              :NOMBRE DEL POZO 
FLD   .          ABEDUL                                :CAMPO 
STAT  .          VERACRUZ                              :ESTADO
CNTY  .          COATZINTLA                            :MUNICIPIO
CTRY  .          MEXICO                                :PAIS
DATE  .          03-MAR-79                             :FECHA
UWI   .          1030022740                            :VALOR UNICO DEL POZO
SRVC  .          PEMEX                                 :COMPANIA DE SERVICIOS
~Parameter Information Block
#MNEM.UNIT       Value                                 Description
#---------       ---------                             -------------
FL.              X=                                    :LOCALIZACION DEL CAMPO
FL1.             Y=                                    :LOCALIZACION DEL CAMPO
PDAT.            NIVEL DEL TERRENO                     :DATO PERMANENTE
EPD.M            135.10                                :ELEVACION DEL DATO PERMANENTE
APD.M            3.8                                   :DIFERENCIA ENTRE MR Y NIVEL DE TERRENO
EKB.M            139.58                                :ELEVACION DEL KELLY BUSHING
EDF.M            139.28                                :ELEVACION DE LA MESA ROTARIA
EGL.M            135.10                                :ELEVACION DEL TERRENO
ELZ.M            139.28                                :ELEVACION DEL CERO DE REFERENCIA
LMF.             MESA ROTARIA                          :REGISTRO MEDIDO DESDE
DMF.             MESA ROTARIA                          :PROFUNDIDAD MEDIDA DESDE
SECT.            DISTRITO POZA RICA                    :NOMBRE DEL SECTOR
CN.              PETROLEOS MEXICANOS                   :NOMBRE DE LA COMPANIA
LATI.            Y=78,766.87 M.                        :LATITUD
LONG.            X=119,309.85 M.                       :LONGITUD
NATI.            MEXICO                                :NACION
RANG.            ZONA NORTE                            :NOMBRE DE LA ZONA
SLAB.            ESTADO                                :ESTADO 
STAT.            VERACRUZ                              :NOMBRE DEL ESTADO
CLAB.            MUNICIPIO                             :ETIQUETA DEL MUNICIPIO
COUN.            COATZINTLA                            :NOMBRE DEL MUNICIPIO
SRVC.            REGISTRO IL  1:500                    :NOMBRE DEL SERVICIO
DATE.            03-MAR-79                             :FECHA DEL SERVICIO
BLI.M            1842.0000                             :PRIMERA LECTURA
TLI.M            301.0668                              :ULTIMA LECTURA
QCEN.            FABIOLA NALLELY PEREZ CASTELAN        :NOMBRE DEL INGENIERO DEL CONTROL DE CALIDAD DEL REGISTRO
DLQC.            01-APR-2009                           :FECHA DEL CONTROL DE CALIDAD DEL REGISTRO
CBL1.M           291.0                                 :ZAPATA SCHLUMBERGER
CBD1.M           300.0                                 :ZAPATA PERFORACION
TDL.M            1842.0                                :PROFUNDIDAD REGISTRO
TDD.M            1851.0                                :PROFUNDIDAD PERFORADOR
DFT.             SODICO                                :TIPO DE LODO
DFD.G/C3         1.25                                  :DENSIDAD DE LODO
DFV.S            45                                    :VISCOSIDAD DEL LODO
DFPH.            8.6                                   :PH DEL LODO
DFL.C3           N.R.                                  :PERDIDA DE LODO
MSS.             PRESA                                 :FUENTE DE LA MUESTRA DE LODO
RMS.ohm.m        1.8                                   :RESISTIVIDAD DE LODO
MST.DEGC         29                                    :TEMPERATURA DE LA MUESTRA DE LODO
MFSS.            PRENSA                                :FUENTE DEL FILTRADO DE LODO
RMFS.ohm.m       N.R.                                  :RESISTIVIDAD DEL FILTRADO
MFST.DEGC        N.R.                                  :TEMPERATURA DEL FILTRADO
MCSS.            PRENSA                                :FUENTE DEL ENJARRE DE LODO
RMCS.ohm.m       N.R.                                  :RESISTIVIDAD DEL ENJARRE DE LODO
MCST.DEGC        N.R.                                  :TEMPERATURA DEL ENJARRE
BSAL.PPM         N.R.                                  :SALINIDAD DEL LODO
TCS.             N.R.                                  :HORA EN QUE PARO CIRCULACION
STEM.DEGC        29                                    :TEMPERATURA DE SUPERFICIE
BHT.DEGC         70                                    :TEMPERATURA DE FONDO
MRT.DEGC         70                                    :MAXIMA TEMPERATURA REGISTRADA
BS.IN            8.5                                   :DIAMETRO DE BARRENA
CSIZ.IN          N.R.                                  :DIAMETRO DE T.R.
CWEI.lbm/ft      N.R.                                  :PESO DE LA T.R.
CTD1.M           300.0                                 :FONDO DE LA T.R. DEL PERFORADOR
CTL1.M           291.0                                 :FONDO DE LA T.R. DEL REGISTRO
ENGI.            PEDRO SABATH                          :NOMBRE DEL INGENIERO
WITN.            RAFAEL SANDOVAL CERVANTES             :NOMBRE DEL TESTIGO
LUN.             8-A                                   :NUMERO DE LA UNIDAD
RUN.             UNO                                   :NUMERO DE LA CORRIDA
OS1.             N.R.                                  :SERVICIOS
HIDE.            REGISTRO DE INDUCCION                 :NOMBRE DEL SERVICIO
HID1.            1:500                                 :NOMBRE DEL SERVICIO
LUL.             POZA RICA                             :LUGAR DE LA UNIDAD
R1.              POZA RICA                             :Remarks 1
R2.                                                    :Remarks 2
R3.  TRACK1            POTENCIAL NATURAL               :Remarks 3
R4.                           MV                       :Remarks 4
R5.                         -|10|+                     :Remarks 5
R6.                   -80_____________20               :Remarks 6
R7.                                                    :Remarks 7
R8.  TRACK2               RESISTIVIDAD                 :Remarks 8
R9.                           SN                       :Remarks 9
R10.                       OHMS-M2/M                   :Remarks 10
R11.                    0_____________20               :Remarks 11
R12.                    0_____________200              :Remarks 12
R13.                          ILD                      :Remarks 13
R14.                       OHMS-M2/M                   :Remarks 14
R15.                    0_____________20               :Remarks 15
R16.                    0_____________200              :Remarks 16
R17.                                                   :Remarks 17
R18.  TRACK3             CONDUCTIVIDAD                 :Remarks 18
R19.                         CILD                      :Remarks 19
R20.                       MILIMHOS/M                  :Remarks 20
R21.                  500_____________0                :Remarks 21
R22.                 1000_____________500              :Remarks 22
R23.                                                   :Remarks 23
R24.                                                   :Remarks 24
R25.                                                   :Remarks 25
R26. TEMPERATURA MAXIMA 70 degC                        :Remarks 26
R27. RM@TF=1.0 @ 70 PRENSA ; RMF@TF=0.75 @ 70 PRENSA   :Remarks 27
R28. RMC@TF=1.0 @ 70 PRENSA                            :Remarks 28
R29.                                                   :Remarks 29
R30.                                                   :Remarks 30
~Curve Information Block
#MNEM.UNIT       API Code            Curve    Description
#--------        --------------      -----    -------------------
DEPT  .M                             :0       Index
CILD  .MM/M                          :1       Calibrated Induction Deep Conductivity
ILD   .OHMM                          :2       Induction Deep Resistivity    
SN    .OHMM                          :3       Short Normal Resistivity (16 inch spacing)
SP    .MV                            :4       Spontaneous Potential         
~Ascii Data Section
# ...
    603.4284     990.8498       1.0092       1.4497     -22.6909
    603.5808     965.5618       1.0357       1.4520     -22.5070
    603.7332     940.2737       1.0635       1.4546     -22.5365
    603.8856     914.9857       1.0929       1.4606     -22.5723
    604.0380     890.2522       1.1233       1.4822     -22.6498
    604.1904     865.6788       1.1552       1.5153     -22.3461
    604.3428     841.1055       1.1889       1.5534     -22.3371
    604.4952     816.5322       1.2247       1.5553     -22.2893
    604.6476     791.9588       1.2627       1.5560     -22.1120
    604.8000     767.3854       1.3031       1.5632     -22.1422
    604.9524     754.0080       1.3262       1.6070     -22.1367
    605.1048     748.5026       1.3360       1.6618     -22.3064
    605.2572     742.9860       1.3459       1.7489     -22.5121
    605.4096     741.9839       1.3477       1.8030     -22.5200
    605.5620     732.9659       1.3643       1.8404     -22.5852
    605.7144     728.9579       1.3718       1.8468     -22.7318
    605.8668     720.9419       1.3871       1.8825     -22.8309
    606.0192     714.9299       1.3987       1.9452     -22.7999
    606.1716     707.4752       1.4135       1.9563     -23.0362
    606.3240     703.9078       1.4206       1.9731     -23.2253
    606.4764     703.9078       1.4206       1.9816     -23.3914
    606.6288     711.9238       1.4046       1.9955     -23.5163
    606.7812     715.9319       1.3968       2.0088     -23.6538
    606.9336     718.9379       1.3909       2.0154     -23.3446
    607.0860     717.9359       1.3929       2.0220     -23.0864
    607.2384     716.9338       1.3948       2.0364     -22.9108
    607.3908     715.9319       1.3968       2.0501     -22.9259
    607.5432     714.9299       1.3987       2.0588     -22.9429
    607.6956     715.9319       1.3968       2.0532     -22.8093
    607.8480     713.9279       1.4007       2.0339     -22.9466
    608.0004     711.9238       1.4046       2.0160     -22.9069
    608.1528     704.9098       1.4186       2.0140     -22.8043
    608.3052     702.9058       1.4227       2.0063     -22.6791
    608.4576     699.8998       1.4288       2.0201     -22.5493
    608.6100     699.8998       1.4288       2.0356     -22.4342
    608.7624     701.9038       1.4247       2.0527     -22.3366
    608.9148     712.9258       1.4027       2.0613     -22.2880
    609.0672     709.9199       1.4086       2.0522     -22.1600
    609.2196     719.9399       1.3890       2.0431     -22.3006
    609.3720     720.2634       1.3884       2.0438     -22.3293
    609.5244     723.2357       1.3827       2.0460     -22.3336
    609.6768     730.1997       1.3695       2.0534     -22.3287
    609.8292     743.1698       1.3456       2.0659     -22.3271
    609.9816     749.1223       1.3349       2.0520     -22.3745
    610.1340     751.6859       1.3303       2.0372     -22.5423
    610.2864     754.0510       1.3262       2.0185     -22.5268
    610.4388     754.0285       1.3262       1.9929     -22.5568
    610.5912     753.0060       1.3280       1.9789     -22.8981
    610.7436     753.0060       1.3280       1.9816     -22.9368
    610.8960     752.0040       1.3298       1.9694     -22.7880
    611.0484     752.0040       1.3298       1.9630     -22.5438
    611.2008     749.5264       1.3342       1.9797     -22.1472
    611.3532     750.0000       1.3333       1.9857     -22.1388
    611.5056     751.0020       1.3316       1.9892     -22.1267
    611.6580     751.0020       1.3316       1.9797     -22.1333
    611.8104     753.0060       1.3280       1.9718     -22.1303
    611.9628     755.0100       1.3245       1.9665     -22.1371
    612.1152     757.0140       1.3210       1.9701     -22.1184
    612.2676     767.9001       1.3023       1.9782     -22.1563
    612.4200     775.0501       1.2902       1.9734     -21.9720
    612.5724     789.0782       1.2673       1.9717     -21.8914
    612.7248     794.0882       1.2593       1.9723     -21.7163
    612.8772     799.0982       1.2514       1.9653     -21.7220
    613.0296     800.1002       1.2498       1.9362     -21.9326
    613.1820     802.1861       1.2466       1.8943     -22.1461
    613.3344     805.1102       1.2421       1.8924     -22.1302
    613.4868     812.1243       1.2313       1.8884     -22.1682
    613.6392     813.1263       1.2298       1.8792     -22.3163
    613.7916     810.1202       1.2344       1.8592     -22.1031
    613.9440     804.1082       1.2436       1.8454     -22.1040
    614.0964     802.9688       1.2454       1.8442     -21.9103
    614.2488     800.1867       1.2497       1.8436     -21.9419
    614.4012     797.1494       1.2545       1.8462     -21.9260
    614.5536     794.1082       1.2593       1.8521     -21.9685
    614.7060     786.0640       1.2722       1.8581     -22.1975
    614.8584     782.0654       1.2787       1.8659     -22.3288
    615.0108     782.5803       1.2778       1.9005     -22.4749
    615.1632     787.9163       1.2692       1.9402     -22.6670
    615.3156     792.0842       1.2625       1.9655     -22.9348
    615.4680     799.0982       1.2514       1.9745     -23.1847
    615.6204     797.0942       1.2546       1.9833     -23.3374
    615.7728     779.0581       1.2836       2.0059     -23.3608
    615.9252     760.0200       1.3158       1.9676     -23.5428
    616.0776     740.7496       1.3500       1.9181     -23.5981
    616.2300     717.9359       1.3929       1.8140     -23.7648
    616.3824     710.9218       1.4066       1.9092     -23.9095
    616.5348     707.9158       1.4126       2.0357     -24.0417
    616.6872     699.8998       1.4288       2.0910     -24.2945
    616.8396     692.8857       1.4432       2.0984     -24.9182
    616.9920     687.4026       1.4548       2.1570     -25.5770
    617.1444     689.7849       1.4497       2.2252     -26.1918
    617.2968     696.8938       1.4349       2.1869     -26.5342
    617.4492     731.9639       1.3662       1.8395     -26.3724
    617.6016     745.9920       1.3405       1.6745     -25.5681
    617.7540     754.0080       1.3262       1.8772     -25.2773
    617.9064     763.0261       1.3106       2.2974     -24.9335
    618.0588     762.0240       1.3123       2.2721     -24.6603
    618.2112     761.0220       1.3140       2.2242     -24.3347
    618.3636     759.0181       1.3175       2.1093     -24.1929
    618.5160     754.0080       1.3262       2.0661     -23.9597
    618.6684     753.0060       1.3280       2.0249     -23.9141
    618.8208     753.0060       1.3280       2.0030     -23.9456
    618.9732     753.0060       1.3280       1.9886     -23.7451
    619.1256     753.0060       1.3280       1.9767     -23.5554
    619.2780     752.0040       1.3298       1.9639     -23.3726
    619.4304     752.0040       1.3298       1.9554     -23.2835
    619.5828     750.0000       1.3333       1.9560     -23.1003
    619.7352     750.0000       1.3333       1.9617     -23.1840
    619.8876     751.0020       1.3316       1.9634     -23.3439
    620.0400     749.9133       1.3335       1.9534     -23.3985
    620.1924     750.2840       1.3328       1.9401     -23.5608
    620.3448     750.6364       1.3322       1.8872     -23.7441
    620.4972     750.9263       1.3317       1.8838     -23.7131
    620.6496     749.9291       1.3335       1.8750     -23.7369
    620.8020     747.9234       1.3370       1.8746     -23.7058
    620.9544     748.9351       1.3352       1.8664     -23.8843
    621.1068     748.9552       1.3352       1.8462     -24.0308
    621.2592     750.0000       1.3333       1.8271     -24.1130
    621.4116     748.9980       1.3351       1.8366     -24.1323
    621.5640     748.9980       1.3351       1.8499     -24.0134
    621.7164     750.0000       1.3333       1.8562     -24.0047
    621.8688     754.0080       1.3262       1.8849     -23.7494
    622.0212     768.0361       1.3020       1.9381     -23.7149
    622.1736     777.9255       1.2855       1.9488     -23.7865
