~Version Information
VERS  .          2.0                                   :CWLS Log Ascii Standard - Version 2.0
WRAP  .          NO                                    :One line per depth step
~Well Information Block
#MNEM.UNIT       Data Type                             Information
#---------       ---------                             -------------------------------
STRT  .M         301.0668                              :PROFUNDIDAD INICIAL
STOP  .M         1842.0000                             :PROFUNDIDAD FINAL
STEP  .M         0.1524                                :INCREMENTO
NULL  .          -999.25                               :VALOR NULO 
COMP  .          PETROLEOS MEXICANOS                   :COMPANIA
WELL  .          ABEDUL-1                              :NOMBRE DEL POZO 
FLD   .          ABEDUL                                :CAMPO 
STAT  .          VERACRUZ                              :ESTADO
CNTY  .          COATZINTLA                            :MUNICIPIO
CTRY  .          MEXICO                                :PAIS
DATE  .          03-MAR-79                             :FECHA
UWI   .          1030022740                            :VALOR UNICO DEL POZO
SRVC  .          PEMEX                                 :COMPANIA DE SERVICIOS
~Parameter Information Block
#MNEM.UNIT       Value                                 Description
#---------       ---------                             -------------
FL.              X=                                    :LOCALIZACION DEL CAMPO
FL1.             Y=                                    :LOCALIZACION DEL CAMPO
PDAT.            NIVEL DEL TERRENO                     :DATO PERMANENTE
EPD.M            135.10                                :ELEVACION DEL DATO PERMANENTE
APD.M            3.8                                   :DIFERENCIA ENTRE MR Y NIVEL DE TERRENO
EKB.M            139.58                                :ELEVACION DEL KELLY BUSHING
EDF.M            139.28                                :ELEVACION DE LA MESA ROTARIA
EGL.M            135.10                                :ELEVACION DEL TERRENO
ELZ.M            139.28                                :ELEVACION DEL CERO DE REFERENCIA
LMF.             MESA ROTARIA                          :REGISTRO MEDIDO DESDE
DMF.             MESA ROTARIA                          :PROFUNDIDAD MEDIDA DESDE
SECT.            DISTRITO POZA RICA                    :NOMBRE DEL SECTOR
CN.              PETROLEOS MEXICANOS                   :NOMBRE DE LA COMPANIA
LATI.            Y=78,766.87 M.                        :LATITUD
LONG.            X=119,309.85 M.                       :LONGITUD
NATI.            MEXICO                                :NACION
RANG.            ZONA NORTE                            :NOMBRE DE LA ZONA
SLAB.            ESTADO                                :ESTADO 
STAT.            VERACRUZ                              :NOMBRE DEL ESTADO
CLAB.            MUNICIPIO                             :ETIQUETA DEL MUNICIPIO
COUN.            COATZINTLA                            :NOMBRE DEL MUNICIPIO
SRVC.            REGISTRO IL  1:500                    :NOMBRE DEL SERVICIO
DATE.            03-MAR-79                             :FECHA DEL SERVICIO
BLI.M            1842.0000                             :PRIMERA LECTURA
TLI.M            301.0668                              :ULTIMA LECTURA
QCEN.            FABIOLA NALLELY PEREZ CASTELAN        :NOMBRE DEL INGENIERO DEL CONTROL DE CALIDAD DEL REGISTRO
DLQC.            01-APR-2009                           :FECHA DEL CONTROL DE CALIDAD DEL REGISTRO
CBL1.M           291.0                                 :ZAPATA SCHLUMBERGER
CBD1.M           300.0                                 :ZAPATA PERFORACION
TDL.M            1842.0                                :PROFUNDIDAD REGISTRO
TDD.M            1851.0                                :PROFUNDIDAD PERFORADOR
DFT.             SODICO                                :TIPO DE LODO
DFD.G/C3         1.25                                  :DENSIDAD DE LODO
DFV.S            45                                    :VISCOSIDAD DEL LODO
DFPH.            8.6                                   :PH DEL LODO
DFL.C3           N.R.                                  :PERDIDA DE LODO
MSS.             PRESA                                 :FUENTE DE LA MUESTRA DE LODO
RMS.ohm.m        1.8                                   :RESISTIVIDAD DE LODO
MST.DEGC         29                                    :TEMPERATURA DE LA MUESTRA DE LODO
MFSS.            PRENSA                                :FUENTE DEL FILTRADO DE LODO
RMFS.ohm.m       N.R.                                  :RESISTIVIDAD DEL FILTRADO
MFST.DEGC        N.R.                                  :TEMPERATURA DEL FILTRADO
MCSS.            PRENSA                                :FUENTE DEL ENJARRE DE LODO
RMCS.ohm.m       N.R.                                  :RESISTIVIDAD DEL ENJARRE DE LODO
MCST.DEGC        N.R.                                  :TEMPERATURA DEL ENJARRE
BSAL.PPM         N.R.                                  :SALINIDAD DEL LODO
TCS.             N.R.                                  :HORA EN QUE PARO CIRCULACION
STEM.DEGC        29                                    :TEMPERATURA DE SUPERFICIE
BHT.DEGC         70                                    :TEMPERATURA DE FONDO
MRT.DEGC         70                                    :MAXIMA TEMPERATURA REGISTRADA
BS.IN            8.5                                   :DIAMETRO DE BARRENA
CSIZ.IN          N.R.                                  :DIAMETRO DE T.R.
CWEI.lbm/ft      N.R.                                  :PESO DE LA T.R.
CTD1.M           300.0                                 :FONDO DE LA T.R. DEL PERFORADOR
CTL1.M           291.0                                 :FONDO DE LA T.R. DEL REGISTRO
ENGI.            PEDRO SABATH                          :NOMBRE DEL INGENIERO
WITN.            RAFAEL SANDOVAL CERVANTES             :NOMBRE DEL TESTIGO
LUN.             8-A                                   :NUMERO DE LA UNIDAD
RUN.             UNO                                   :NUMERO DE LA CORRIDA
OS1.             N.R.                                  :SERVICIOS
HIDE.            REGISTRO DE INDUCCION                 :NOMBRE DEL SERVICIO
HID1.            1:500                                 :NOMBRE DEL SERVICIO
LUL.             POZA RICA                             :LUGAR DE LA UNIDAD
R1.              POZA RICA                             :Remarks 1
R2.                                                    :Remarks 2
R3.  TRACK1            POTENCIAL NATURAL               :Remarks 3
R4.                           MV                       :Remarks 4
R5.                         -|10|+                     :Remarks 5
R6.                   -80_____________20               :Remarks 6
R7.                                                    :Remarks 7
R8.  TRACK2               RESISTIVIDAD                 :Remarks 8
R9.                           SN                       :Remarks 9
R10.                       OHMS-M2/M                   :Remarks 10
R11.                    0_____________20               :Remarks 11
R12.                    0_____________200              :Remarks 12
R13.                          ILD                      :Remarks 13
R14.                       OHMS-M2/M                   :Remarks 14
R15.                    0_____________20               :Remarks 15
R16.                    0_____________200              :Remarks 16
R17.                                                   :Remarks 17
R18.  TRACK3             CONDUCTIVIDAD                 :Remarks 18
R19.                         CILD                      :Remarks 19
R20.                       MILIMHOS/M                  :Remarks 20
R21.                  500_____________0                :Remarks 21
R22.                 1000_____________500              :Remarks 22
R23.                                                   :Remarks 23
R24.                                                   :Remarks 24
R25.                                                   :Remarks 25
R26. TEMPERATURA MAXIMA 70 degC                        :Remarks 26
R27. RM@TF=1.0 @ 70 PRENSA ; RMF@TF=0.75 @ 70 PRENSA   :Remarks 27
R28. RMC@TF=1.0 @ 70 PRENSA                            :Remarks 28
R29.                                                   :Remarks 29
R30.                                                   :Remarks 30
~Curve Information Block
#MNEM.UNIT       API Code            Curve    Description
#--------        --------------      -----    -------------------
DEPT  .M                             :0       Index
CILD  .MM/M                          :1       Calibrated Induction Deep Conductivity
ILD   .OHMM                          :2       Induction Deep Resistivity    
SN    .OHMM                          :3       Short Normal Resistivity (16 inch spacing)
SP    .MV                            :4       Spontaneous Potential         
~Ascii Data Section
# ...
   1227.0492     457.5937       2.6853       3.5378     -16.9557
   1227.2017     461.3869       2.6674       3.4935     -16.9553
   1227.3540     464.7082       2.6519       3.4641     -16.9355
   1227.5063     467.3519       2.6397       3.4004     -17.1118
   1227.6588     470.3702       2.6260       3.3415     -17.1506
   1227.8112     471.3931       2.6214       3.2657     -17.1593
   1227.9636     470.8810       2.6237       3.2321     -17.1450
   1228.1160     469.9215       2.6280       3.2146     -17.1479
   1228.2684     469.4007       2.6304       3.2563     -17.2010
   1228.4208     469.3752       2.6305       3.3452     -17.3502
   1228.5732     467.3282       2.6398       3.3795     -17.4985
   1228.7256     464.9080       2.6510       3.4118     -17.5658
   1228.8781     461.9090       2.6649       3.4645     -17.5271
   1229.0304     460.9136       2.6696       3.4608     -17.7195
   1229.1829     462.1831       2.6636       3.4301     -17.7292
   1229.3352     462.2034       2.6635       3.3920     -17.9055
   1229.4875     460.2368       2.6728       3.3462     -18.0194
   1229.6400     455.2696       2.6965       3.3394     -18.4373
   1229.7924     455.3208       2.6963       3.3716     -18.5373
   1229.9448     457.3771       2.6864       3.4881     -18.5140
   1230.0972     459.4240       2.6766       3.5021     -18.3220
   1230.2496     459.4588       2.6765       3.4653     -18.2981
   1230.4020     461.4786       2.6669       3.3780     -17.7350
   1230.5544     460.4724       2.6717       3.2974     -17.7877
   1230.7068     457.4446       2.6861       3.2626     -17.5789
   1230.8593     457.4190       2.6862       3.3382     -17.5367
   1231.0116     459.4028       2.6767       3.4512     -17.3260
   1231.1641     461.3969       2.6673       3.5044     -17.1706
   1231.3164     467.4062       2.6395       3.3598     -17.1522
   1231.4688     471.4053       2.6213       3.2285     -17.1109
   1231.6212     476.4080       2.5990       3.1279     -16.9346
   1231.7736     478.3989       2.5903       3.0536     -16.9594
   1231.9260     481.3536       2.5775       3.0601     -16.9512
   1232.0784     480.8771       2.5795       3.0988     -16.9537
   1232.2308     480.4609       2.5813       3.1675     -16.9439
   1232.3832     474.4489       2.6077       3.2534     -17.0015
   1232.5356     469.4389       2.6302       3.3069     -17.0599
   1232.6880     465.4308       2.6485       3.4128     -17.0565
   1232.8405     455.4108       2.6958       3.4887     -17.0354
   1232.9928     451.5022       2.7148       3.5478     -17.2061
   1233.1453     447.3322       2.7355       3.6427     -17.3605
   1233.2976     445.3932       2.7452       3.7140     -17.3138
   1233.4500     444.4391       2.7500       3.7388     -17.1191
   1233.6024     445.4758       2.7448       3.7372     -17.1786
   1233.7548     446.5009       2.7396       3.6557     -17.0304
   1233.9072     445.5179       2.7446       3.6090     -17.1540
   1234.0596     442.2350       2.7612       3.5881     -16.9406
   1234.2120     439.3788       2.7759       3.7177     -16.8155
   1234.3644     432.3647       2.8129       3.7797     -16.9741
   1234.5168     432.3647       2.8129       3.6898     -16.9004
   1234.6692     433.3667       2.8075       3.5757     -16.8619
   1234.8217     433.3667       2.8075       3.5409     -17.2691
   1234.9740     432.0274       2.8147       3.6546     -17.3796
   1235.1263     429.1178       2.8304       3.8218     -17.1868
   1235.2788     426.3527       2.8455       3.8550     -17.1542
   1235.4312     424.3487       2.8566       3.7927     -17.0473
   1235.5836     423.3467       2.8621       3.6626     -17.0223
   1235.7360     423.3467       2.8621       3.6621     -16.9163
   1235.8884     426.3527       2.8455       3.7932     -17.1177
   1236.0408     429.3727       2.8290       3.8537     -17.2462
   1236.1932     433.3667       2.8075       3.8264     -17.3240
   1236.3456     435.3707       2.7969       3.7504     -17.5045
   1236.4980     440.3808       2.7708       3.7538     -17.5565
   1236.6504     450.7308       2.7186       3.6234     -17.5521
   1236.8029     457.7676       2.6845       3.5392     -17.5116
   1236.9552     469.2838       2.6309       3.4744     -17.2945
   1237.1075     477.0484       2.5962       3.4194     -17.2442
   1237.2600     482.6656       2.5718       3.3158     -16.9931
   1237.4124     481.5638       2.5766       3.2304     -16.9539
   1237.5648     472.4538       2.6166       3.2550     -16.9088
   1237.7172     465.4308       2.6485       3.3504     -16.7372
   1237.8696     455.4108       2.6958       3.4711     -16.7631
   1238.0220     441.3820       2.7656       3.5772     -16.8218
   1238.1744     428.1882       2.8354       3.7305     -16.9230
   1238.3268     411.3226       2.9312       3.8600     -16.9600
   1238.4792     404.3086       2.9734       3.9895     -16.9410
   1238.6316     391.2826       3.1181       4.1438     -16.9694
   1238.7841     386.2726       3.2527       4.2505     -16.8267
   1238.9364     377.2545       3.3874       4.3662     -17.0134
   1239.0887     370.2405       3.5220       4.4050     -17.1621
   1239.2412     367.2345       3.6545       4.4904     -17.1023
   1239.3936     363.2264       3.6209       4.5516     -16.9463
   1239.5460     362.2245       3.5872       4.5992     -16.9430
   1239.6984     363.2264       3.5536       4.6641     -17.0689
   1239.8508     366.2325       3.5199       4.6606     -16.9335
   1240.0032     367.2345       3.4976       4.5984     -16.9669
   1240.1556     368.2365       3.4976       4.4667     -16.9443
   1240.3080     370.2405       3.4976       4.3598     -16.9512
   1240.4604     372.2445       3.4976       4.2572     -16.9649
   1240.6128     373.2465       3.4976       4.3317     -16.9224
   1240.7653     377.2545       3.4976       4.4076     -17.1319
   1240.9176     378.2565       3.4530       4.4849     -16.9935
   1241.0699     381.2625       3.4025       4.4596     -16.9540
   1241.2224     385.2705       3.3520       4.3239     -16.9451
   1241.3748     389.2786       3.3015       4.2197     -16.9580
   1241.5272     392.2846       3.2696       4.1504     -16.9491
   1241.6796     393.2866       3.3089       4.2662     -16.9538
   1241.8320     393.2866       3.3482       4.2422     -16.9529
   1241.9844     391.8936       3.3875       4.1690     -16.9477
   1242.1368     390.2805       3.4267       4.1882     -16.9645
   1242.2892     386.2726       3.4660       4.3872     -16.9284
   1242.4417     382.2645       3.5053       4.5279     -17.1141
   1242.5940     375.2505       3.5446       4.5887     -17.1817
   1242.7465     372.2445       3.5838       4.5639     -17.3958
   1242.8988     367.2345       3.6231       4.4843     -17.1834
   1243.0511     362.2245       3.6624       4.5789     -17.2678
   1243.2036     359.2184       3.7017       4.7416     -17.3415
   1243.3560     356.2124       3.7409       4.8490     -17.3135
   1243.5084     356.2124       3.7802       4.6512     -17.1308
   1243.6608     358.2164       3.8087       4.6726     -17.1609
   1243.8132     361.2224       3.7885       4.7830     -17.1479
   1243.9656     363.2264       3.7683       4.8934     -17.1523
   1244.1180     365.2305       3.7481       4.8723     -17.1524
   1244.2704     364.2285       3.7286       4.7483     -17.1477
   1244.4229     363.2264       3.7108       4.5943     -17.1611
   1244.5752     362.2245       3.6929       4.6214     -17.1316
   1244.7277     364.2285       3.6751       4.7469     -17.3109
   1244.8800     368.1041       3.6573       4.9542     -17.3522
   1245.0323     371.1094       3.6395       4.9336     -17.3541
   1245.1848     372.1366       3.6216       4.8483     -17.3470
   1245.3372     373.1762       3.6038       4.6835     -17.3525
   1245.4896     371.2046       3.5860       4.5626     -17.3506
   1245.6420     369.2083       3.5682       4.4082     -17.3499
   1245.7944     371.1959       3.5504       4.4351     -17.3519
