~Version Information
VERS  .          2.0                                   :CWLS Log Ascii Standard - Version 2.0
WRAP  .          NO                                    :One line per depth step
~Well Information Block
#MNEM.UNIT       Data Type                             Information
#---------       ---------                             -------------------------------
STRT  .M         301.0668                              :PROFUNDIDAD INICIAL
STOP  .M         1842.0000                             :PROFUNDIDAD FINAL
STEP  .M         0.1524                                :INCREMENTO
NULL  .          -999.25                               :VALOR NULO 
COMP  .          PETROLEOS MEXICANOS                   :COMPANIA
WELL  .          ABEDUL-1                              :NOMBRE DEL POZO 
FLD   .          ABEDUL                                :CAMPO 
STAT  .          VERACRUZ                              :ESTADO
CNTY  .          COATZINTLA                            :MUNICIPIO
CTRY  .          MEXICO                                :PAIS
DATE  .          03-MAR-79                             :FECHA
UWI   .          1030022740                            :VALOR UNICO DEL POZO
SRVC  .          PEMEX                                 :COMPANIA DE SERVICIOS
~Parameter Information Block
#MNEM.UNIT       Value                                 Description
#---------       ---------                             -------------
FL.              X=                                    :LOCALIZACION DEL CAMPO
FL1.             Y=                                    :LOCALIZACION DEL CAMPO
PDAT.            NIVEL DEL TERRENO                     :DATO PERMANENTE
EPD.M            135.10                                :ELEVACION DEL DATO PERMANENTE
APD.M            3.8                                   :DIFERENCIA ENTRE MR Y NIVEL DE TERRENO
EKB.M            139.58                                :ELEVACION DEL KELLY BUSHING
EDF.M            139.28                                :ELEVACION DE LA MESA ROTARIA
EGL.M            135.10                                :ELEVACION DEL TERRENO
ELZ.M            139.28                                :ELEVACION DEL CERO DE REFERENCIA
LMF.             MESA ROTARIA                          :REGISTRO MEDIDO DESDE
DMF.             MESA ROTARIA                          :PROFUNDIDAD MEDIDA DESDE
SECT.            DISTRITO POZA RICA                    :NOMBRE DEL SECTOR
CN.              PETROLEOS MEXICANOS                   :NOMBRE DE LA COMPANIA
LATI.            Y=78,766.87 M.                        :LATITUD
LONG.            X=119,309.85 M.                       :LONGITUD
NATI.            MEXICO                                :NACION
RANG.            ZONA NORTE                            :NOMBRE DE LA ZONA
SLAB.            ESTADO                                :ESTADO 
STAT.            VERACRUZ                              :NOMBRE DEL ESTADO
CLAB.            MUNICIPIO                             :ETIQUETA DEL MUNICIPIO
COUN.            COATZINTLA                            :NOMBRE DEL MUNICIPIO
SRVC.            REGISTRO IL  1:500                    :NOMBRE DEL SERVICIO
DATE.            03-MAR-79                             :FECHA DEL SERVICIO
BLI.M            1842.0000                             :PRIMERA LECTURA
TLI.M            301.0668                              :ULTIMA LECTURA
QCEN.            FABIOLA NALLELY PEREZ CASTELAN        :NOMBRE DEL INGENIERO DEL CONTROL DE CALIDAD DEL REGISTRO
DLQC.            01-APR-2009                           :FECHA DEL CONTROL DE CALIDAD DEL REGISTRO
CBL1.M           291.0                                 :ZAPATA SCHLUMBERGER
CBD1.M           300.0                                 :ZAPATA PERFORACION
TDL.M            1842.0                                :PROFUNDIDAD REGISTRO
TDD.M            1851.0                                :PROFUNDIDAD PERFORADOR
DFT.             SODICO                                :TIPO DE LODO
DFD.G/C3         1.25                                  :DENSIDAD DE LODO
DFV.S            45                                    :VISCOSIDAD DEL LODO
DFPH.            8.6                                   :PH DEL LODO
DFL.C3           N.R.                                  :PERDIDA DE LODO
MSS.             PRESA                                 :FUENTE DE LA MUESTRA DE LODO
RMS.ohm.m        1.8                                   :RESISTIVIDAD DE LODO
MST.DEGC         29                                    :TEMPERATURA DE LA MUESTRA DE LODO
MFSS.            PRENSA                                :FUENTE DEL FILTRADO DE LODO
RMFS.ohm.m       N.R.                                  :RESISTIVIDAD DEL FILTRADO
MFST.DEGC        N.R.                                  :TEMPERATURA DEL FILTRADO
MCSS.            PRENSA                                :FUENTE DEL ENJARRE DE LODO
RMCS.ohm.m       N.R.                                  :RESISTIVIDAD DEL ENJARRE DE LODO
MCST.DEGC        N.R.                                  :TEMPERATURA DEL ENJARRE
BSAL.PPM         N.R.                                  :SALINIDAD DEL LODO
TCS.             N.R.                                  :HORA EN QUE PARO CIRCULACION
STEM.DEGC        29                                    :TEMPERATURA DE SUPERFICIE
BHT.DEGC         70                                    :TEMPERATURA DE FONDO
MRT.DEGC         70                                    :MAXIMA TEMPERATURA REGISTRADA
BS.IN            8.5                                   :DIAMETRO DE BARRENA
CSIZ.IN          N.R.                                  :DIAMETRO DE T.R.
CWEI.lbm/ft      N.R.                                  :PESO DE LA T.R.
CTD1.M           300.0                                 :FONDO DE LA T.R. DEL PERFORADOR
CTL1.M           291.0                                 :FONDO DE LA T.R. DEL REGISTRO
ENGI.            PEDRO SABATH                          :NOMBRE DEL INGENIERO
WITN.            RAFAEL SANDOVAL CERVANTES             :NOMBRE DEL TESTIGO
LUN.             8-A                                   :NUMERO DE LA UNIDAD
RUN.             UNO                                   :NUMERO DE LA CORRIDA
OS1.             N.R.                                  :SERVICIOS
HIDE.            REGISTRO DE INDUCCION                 :NOMBRE DEL SERVICIO
HID1.            1:500                                 :NOMBRE DEL SERVICIO
LUL.             POZA RICA                             :LUGAR DE LA UNIDAD
R1.              POZA RICA                             :Remarks 1
R2.                                                    :Remarks 2
R3.  TRACK1            POTENCIAL NATURAL               :Remarks 3
R4.                           MV                       :Remarks 4
R5.                         -|10|+                     :Remarks 5
R6.                   -80_____________20               :Remarks 6
R7.                                                    :Remarks 7
R8.  TRACK2               RESISTIVIDAD                 :Remarks 8
R9.                           SN                       :Remarks 9
R10.                       OHMS-M2/M                   :Remarks 10
R11.                    0_____________20               :Remarks 11
R12.                    0_____________200              :Remarks 12
R13.                          ILD                      :Remarks 13
R14.                       OHMS-M2/M                   :Remarks 14
R15.                    0_____________20               :Remarks 15
R16.                    0_____________200              :Remarks 16
R17.                                                   :Remarks 17
R18.  TRACK3             CONDUCTIVIDAD                 :Remarks 18
R19.                         CILD                      :Remarks 19
R20.                       MILIMHOS/M                  :Remarks 20
R21.                  500_____________0                :Remarks 21
R22.                 1000_____________500              :Remarks 22
R23.                                                   :Remarks 23
R24.                                                   :Remarks 24
R25.                                                   :Remarks 25
R26. TEMPERATURA MAXIMA 70 degC                        :Remarks 26
R27. RM@TF=1.0 @ 70 PRENSA ; RMF@TF=0.75 @ 70 PRENSA   :Remarks 27
R28. RMC@TF=1.0 @ 70 PRENSA                            :Remarks 28
R29.                                                   :Remarks 29
R30.                                                   :Remarks 30
~Curve Information Block
#MNEM.UNIT       API Code            Curve    Description
#--------        --------------      -----    -------------------
DEPT  .M                             :0       Index
CILD  .MM/M                          :1       Calibrated Induction Deep Conductivity
ILD   .OHMM                          :2       Induction Deep Resistivity    
SN    .OHMM                          :3       Short Normal Resistivity (16 inch spacing)
SP    .MV                            :4       Spontaneous Potential         
~Ascii Data Section
# ...
   1831.7725     433.4814       3.3036       3.8976     -14.2262
   1831.9248     436.6137       3.2725       3.7284     -13.9978
   1832.0771     442.6756       3.2415       3.6469     -13.9642
   1832.2296     452.7137       3.2104       3.4554     -13.9622
   1832.3820     456.7806       3.1793       3.4150     -13.9686
   1832.5344     463.5479       3.1482       3.3203     -13.9654
   1832.6868     465.4331       3.1172       3.2387     -13.9550
   1832.8392     464.3326       3.0861       3.2139     -14.0117
   1832.9916     460.2464       3.0550       3.2584     -14.2094
   1833.1440     462.2051       3.0238       3.3384     -14.5102
   1833.2964     469.2000       2.9902       3.4516     -14.7565
   1833.4489     472.2156       2.9565       3.5327     -14.9902
   1833.6012     473.2633       2.9228       3.5710     -14.9408
   1833.7537     473.3411       2.8892       3.5750     -14.9823
   1833.9060     470.4299       2.8555       3.5026     -14.7947
   1834.0583     466.3261       2.8219       3.3818     -14.7741
   1834.2108     468.4369       2.7882       3.2560     -14.7285
   1834.3632     470.4409       2.7545       3.1695     -14.9070
   1834.5156     474.4489       2.7209       3.0716     -14.5797
   1834.6680     474.4489       2.7177       3.0164     -14.5703
   1834.8204     473.4469       2.7278       3.1460     -14.5926
   1834.9728     471.4429       2.7379       3.3053     -14.7918
   1835.1252     467.4349       2.7480       3.3605     -14.7098
   1835.2776     464.4289       2.7581       3.2186     -14.5315
   1835.4301     463.4268       2.7682       3.1394     -14.7889
   1835.5824     466.4329       2.7783       2.9855     -15.3819
   1835.7349     467.4349       2.7884       2.9414     -15.6326
   1835.8872     463.4268       2.8122       2.8586     -15.6000
   1836.0396     458.4168       2.8374       3.0516     -15.5430
   1836.1920     448.3968       2.8627       3.3275     -15.1525
   1836.3444     440.3808       2.8879       3.4238     -15.3244
   1836.4968     430.3607       2.9132       3.5561     -15.4280
   1836.6492     425.4028       2.9384       3.7166     -15.8110
   1836.8016     414.3345       2.9951       3.7565     -15.6950
   1836.9540     411.2449       3.0673       3.9759     -15.4993
   1837.1064     414.1524       3.1394       3.9040     -15.3712
   1837.2588     418.0894       3.2115       3.7144     -15.1658
   1837.4113     427.0614       3.2836       3.5935     -14.7760
   1837.5636     429.0447       3.3184       3.4622     -14.2389
   1837.7159     435.3707       3.2174       3.3888     -14.1395
   1837.8684     439.3788       3.1164       3.3030     -14.3569
   1838.0208     438.3767       3.0154       3.5337     -14.6272
   1838.1732     432.3647       3.0173       3.6867     -14.8965
   1838.3256     427.3547       3.2376       4.0052     -15.2652
   1838.4780     408.3166       3.4578       4.2107     -15.5069
   1838.6304     395.2906       3.6782       4.4590     -15.7173
   1838.7828     376.2525       3.8985       4.6659     -15.7965
   1838.9352     343.9344       4.1189       5.0297     -15.9790
   1839.0876     327.1543       4.3391       5.6710     -15.9383
   1839.2400     319.1383       4.5595       5.9110     -15.9762
   1839.3925     313.1263       4.7798       6.2691     -15.7722
   1839.5448     309.1182       4.8644       6.3871     -15.3564
   1839.6971     303.1062       4.9032       6.3695     -14.9498
   1839.8496     301.1022       4.9421       6.3706     -14.7355
   1840.0020     299.0982       4.9809       6.1446     -14.9113
   1840.1544     298.2520       5.0198       6.0213     -15.0991
   1840.3068     298.2174       5.0586       5.9366     -15.3648
   1840.4592     298.1854       5.0974       5.8930     -15.5766
   1840.6116     298.1621       5.1363       5.9326     -15.5525
   1840.7640     298.1363       5.1751       6.0951     -15.5611
   1840.9164     299.1069       5.2140       6.1782     -15.5148
   1841.0688     300.0640       5.2255       6.3011     -15.3231
   1841.2212     301.0224       5.2202       6.2563     -14.9321
   1841.3737     301.9936       5.2149       6.2335     -14.7859
   1841.5260     302.9891       5.2096       6.1203     -14.4134
   1841.6783     304.0090       5.2043       6.0128     -14.0944
   1841.8308     304.0416       5.1990       5.9054     -13.9238
   1841.9832     304.0751       5.1936       5.7137     -13.5943
