~Version Information
VERS  .          2.0                                   :CWLS Log Ascii Standard - Version 2.0
WRAP  .          NO                                    :One line per depth step
~Well Information Block
#MNEM.UNIT       Data Type                             Information
#---------       ---------                             -------------------------------
STRT  .M         301.0668                              :PROFUNDIDAD INICIAL
STOP  .M         1842.0000                             :PROFUNDIDAD FINAL
STEP  .M         0.1524                                :INCREMENTO
NULL  .          -999.25                               :VALOR NULO 
COMP  .          PETROLEOS MEXICANOS                   :COMPANIA
WELL  .          ABEDUL-1                              :NOMBRE DEL POZO 
FLD   .          ABEDUL                                :CAMPO 
STAT  .          VERACRUZ                              :ESTADO
CNTY  .          COATZINTLA                            :MUNICIPIO
CTRY  .          MEXICO                                :PAIS
DATE  .          03-MAR-79                             :FECHA
UWI   .          1030022740                            :VALOR UNICO DEL POZO
SRVC  .          PEMEX                                 :COMPANIA DE SERVICIOS
~Parameter Information Block
#MNEM.UNIT       Value                                 Description
#---------       ---------                             -------------
FL.              X=                                    :LOCALIZACION DEL CAMPO
FL1.             Y=                                    :LOCALIZACION DEL CAMPO
PDAT.            NIVEL DEL TERRENO                     :DATO PERMANENTE
EPD.M            135.10                                :ELEVACION DEL DATO PERMANENTE
APD.M            3.8                                   :DIFERENCIA ENTRE MR Y NIVEL DE TERRENO
EKB.M            139.58                                :ELEVACION DEL KELLY BUSHING
EDF.M            139.28                                :ELEVACION DE LA MESA ROTARIA
EGL.M            135.10                                :ELEVACION DEL TERRENO
ELZ.M            139.28                                :ELEVACION DEL CERO DE REFERENCIA
LMF.             MESA ROTARIA                          :REGISTRO MEDIDO DESDE
DMF.             MESA ROTARIA                          :PROFUNDIDAD MEDIDA DESDE
SECT.            DISTRITO POZA RICA                    :NOMBRE DEL SECTOR
CN.              PETROLEOS MEXICANOS                   :NOMBRE DE LA COMPANIA
LATI.            Y=78,766.87 M.                        :LATITUD
LONG.            X=119,309.85 M.                       :LONGITUD
NATI.            MEXICO                                :NACION
RANG.            ZONA NORTE                            :NOMBRE DE LA ZONA
SLAB.            ESTADO                                :ESTADO 
STAT.            VERACRUZ                              :NOMBRE DEL ESTADO
CLAB.            MUNICIPIO                             :ETIQUETA DEL MUNICIPIO
COUN.            COATZINTLA                            :NOMBRE DEL MUNICIPIO
SRVC.            REGISTRO IL  1:500                    :NOMBRE DEL SERVICIO
DATE.            03-MAR-79                             :FECHA DEL SERVICIO
BLI.M            1842.0000                             :PRIMERA LECTURA
TLI.M            301.0668                              :ULTIMA LECTURA
QCEN.            FABIOLA NALLELY PEREZ CASTELAN        :NOMBRE DEL INGENIERO DEL CONTROL DE CALIDAD DEL REGISTRO
DLQC.            01-APR-2009                           :FECHA DEL CONTROL DE CALIDAD DEL REGISTRO
CBL1.M           291.0                                 :ZAPATA SCHLUMBERGER
CBD1.M           300.0                                 :ZAPATA PERFORACION
TDL.M            1842.0                                :PROFUNDIDAD REGISTRO
TDD.M            1851.0                                :PROFUNDIDAD PERFORADOR
DFT.             SODICO                                :TIPO DE LODO
DFD.G/C3         1.25                                  :DENSIDAD DE LODO
DFV.S            45                                    :VISCOSIDAD DEL LODO
DFPH.            8.6                                   :PH DEL LODO
DFL.C3           N.R.                                  :PERDIDA DE LODO
MSS.             PRESA                                 :FUENTE DE LA MUESTRA DE LODO
RMS.ohm.m        1.8                                   :RESISTIVIDAD DE LODO
MST.DEGC         29                                    :TEMPERATURA DE LA MUESTRA DE LODO
MFSS.            PRENSA                                :FUENTE DEL FILTRADO DE LODO
RMFS.ohm.m       N.R.                                  :RESISTIVIDAD DEL FILTRADO
MFST.DEGC        N.R.                                  :TEMPERATURA DEL FILTRADO
MCSS.            PRENSA                                :FUENTE DEL ENJARRE DE LODO
RMCS.ohm.m       N.R.                                  :RESISTIVIDAD DEL ENJARRE DE LODO
MCST.DEGC        N.R.                                  :TEMPERATURA DEL ENJARRE
BSAL.PPM         N.R.                                  :SALINIDAD DEL LODO
TCS.             N.R.                                  :HORA EN QUE PARO CIRCULACION
STEM.DEGC        29                                    :TEMPERATURA DE SUPERFICIE
BHT.DEGC         70                                    :TEMPERATURA DE FONDO
MRT.DEGC         70                                    :MAXIMA TEMPERATURA REGISTRADA
BS.IN            8.5                                   :DIAMETRO DE BARRENA
CSIZ.IN          N.R.                                  :DIAMETRO DE T.R.
CWEI.lbm/ft      N.R.                                  :PESO DE LA T.R.
CTD1.M           300.0                                 :FONDO DE LA T.R. DEL PERFORADOR
CTL1.M           291.0                                 :FONDO DE LA T.R. DEL REGISTRO
ENGI.            PEDRO SABATH                          :NOMBRE DEL INGENIERO
WITN.            RAFAEL SANDOVAL CERVANTES             :NOMBRE DEL TESTIGO
LUN.             8-A                                   :NUMERO DE LA UNIDAD
RUN.             UNO                                   :NUMERO DE LA CORRIDA
OS1.             N.R.                                  :SERVICIOS
HIDE.            REGISTRO DE INDUCCION                 :NOMBRE DEL SERVICIO
HID1.            1:500                                 :NOMBRE DEL SERVICIO
LUL.             POZA RICA                             :LUGAR DE LA UNIDAD
R1.              POZA RICA                             :Remarks 1
R2.                                                    :Remarks 2
R3.  TRACK1            POTENCIAL NATURAL               :Remarks 3
R4.                           MV                       :Remarks 4
R5.                         -|10|+                     :Remarks 5
R6.                   -80_____________20               :Remarks 6
R7.                                                    :Remarks 7
R8.  TRACK2               RESISTIVIDAD                 :Remarks 8
R9.                           SN                       :Remarks 9
R10.                       OHMS-M2/M                   :Remarks 10
R11.                    0_____________20               :Remarks 11
R12.                    0_____________200              :Remarks 12
R13.                          ILD                      :Remarks 13
R14.                       OHMS-M2/M                   :Remarks 14
R15.                    0_____________20               :Remarks 15
R16.                    0_____________200              :Remarks 16
R17.                                                   :Remarks 17
R18.  TRACK3             CONDUCTIVIDAD                 :Remarks 18
R19.                         CILD                      :Remarks 19
R20.                       MILIMHOS/M                  :Remarks 20
R21.                  500_____________0                :Remarks 21
R22.                 1000_____________500              :Remarks 22
R23.                                                   :Remarks 23
R24.                                                   :Remarks 24
R25.                                                   :Remarks 25
R26. TEMPERATURA MAXIMA 70 degC                        :Remarks 26
R27. RM@TF=1.0 @ 70 PRENSA ; RMF@TF=0.75 @ 70 PRENSA   :Remarks 27
R28. RMC@TF=1.0 @ 70 PRENSA                            :Remarks 28
R29.                                                   :Remarks 29
R30.                                                   :Remarks 30
~Curve Information Block
#MNEM.UNIT       API Code            Curve    Description
#--------        --------------      -----    -------------------
DEPT  .M                             :0       Index
CILD  .MM/M                          :1       Calibrated Induction Deep Conductivity
ILD   .OHMM                          :2       Induction Deep Resistivity    
SN    .OHMM                          :3       Short Normal Resistivity (16 inch spacing)
SP    .MV                            :4       Spontaneous Potential         
~Ascii Data Section
# ...
    716.8140     965.4124       1.0358       1.4407     -20.3692
    716.9664     969.4389       1.0315       1.4116     -20.1437
    717.1188     970.4409       1.0305       1.4140     -19.9000
    717.2712     961.4229       1.0401       1.4394     -20.1119
    717.4236     954.4088       1.0478       1.4278     -20.1203
    717.5760     925.3507       1.0807       1.4182     -20.3416
    717.7284     916.3326       1.0913       1.4517     -20.5544
    717.8808     892.2845       1.1207       1.4443     -20.5425
    718.0332     885.2706       1.1296       1.4279     -20.5200
    718.1856     874.2485       1.1438       1.4198     -20.6950
    718.3380     857.2144       1.1666       1.4370     -20.7426
    718.4904     848.1964       1.1790       1.4543     -20.7602
    718.6428     842.1844       1.1874       1.5104     -21.1472
    718.7952     839.1783       1.1916       1.5297     -21.3816
    718.9476     835.1703       1.1974       1.5900     -21.6029
    719.1000     832.1643       1.2017       1.6206     -21.7195
    719.2524     828.1165       1.2076       1.6140     -21.8855
    719.4048     826.1877       1.2104       1.6045     -21.9754
    719.5572     826.2228       1.2103       1.5913     -22.1538
    719.7096     828.2231       1.2074       1.6127     -22.1178
    719.8620     828.1890       1.2075       1.6293     -22.1359
    720.0144     833.1537       1.2003       1.6527     -22.1320
    720.1668     835.1070       1.1975       1.6594     -22.1270
    720.3192     838.0608       1.1932       1.6249     -22.1355
    720.4716     841.1824       1.1888       1.6435     -22.1328
    720.6240     842.1844       1.1874       1.6723     -22.0928
    720.7764     837.1744       1.1945       1.6610     -21.9101
    720.9288     834.1683       1.1988       1.6414     -21.9472
    721.0812     829.1583       1.2060       1.6567     -21.9235
    721.2336     826.1523       1.2104       1.6837     -21.9322
    721.3860     827.5494       1.2084       1.6647     -21.9790
    721.5384     831.0398       1.2033       1.6336     -22.1262
    721.6908     835.1703       1.1974       1.6230     -22.3311
    721.8432     843.1864       1.1860       1.5906     -22.5347
    721.9956     857.2144       1.1666       1.5973     -22.6820
    722.1480     853.2064       1.1720       1.6233     -22.7311
    722.3004     853.2064       1.1720       1.6533     -22.7321
    722.4528     859.2184       1.1638       1.6714     -22.7232
    722.6052     863.2264       1.1584       1.6857     -22.7397
    722.7576     864.2896       1.1570       1.6582     -22.6806
    722.9100     860.2007       1.1625       1.6156     -22.4898
    723.0624     847.8123       1.1795       1.5526     -22.1613
    723.2148     833.9066       1.1992       1.5123     -22.1352
    723.3672     816.8076       1.2243       1.4971     -22.1241
    723.5196     800.7635       1.2488       1.5278     -22.1414
    723.6720     795.7910       1.2566       1.5841     -22.1169
    723.8244     791.8397       1.2629       1.6968     -22.1554
    723.9768     791.0822       1.2641       1.7358     -21.9745
    724.1292     785.2944       1.2734       1.6917     -21.8892
    724.2816     780.0601       1.2820       1.6799     -21.7332
    724.4340     777.0541       1.2869       1.7130     -21.8313
    724.5864     773.0461       1.2936       1.7413     -21.8776
    724.7388     771.0421       1.2969       1.7451     -21.9274
    724.8912     767.0341       1.3037       1.7064     -21.9328
    725.0436     761.9444       1.3124       1.6899     -21.9000
    725.1960     756.2970       1.3222       1.7279     -21.6699
    725.3484     750.0000       1.3333       1.7483     -21.6927
    725.5008     744.9900       1.3423       1.7798     -21.6264
    725.6532     740.9819       1.3496       1.7708     -21.7430
    725.8056     735.9719       1.3587       1.7378     -21.7374
    725.9580     731.9639       1.3662       1.7108     -21.5863
    726.1104     729.5667       1.3707       1.7387     -21.6198
    726.2628     726.9539       1.3756       1.7892     -21.6603
    726.4152     723.9479       1.3813       1.8315     -21.8931
    726.5676     720.9419       1.3871       1.8122     -21.9341
    726.7200     717.9359       1.3929       1.7697     -21.9384
    726.8724     714.9299       1.3987       1.7567     -21.8888
    727.0248     710.9218       1.4066       1.8111     -21.7157
    727.1772     703.7412       1.4210       1.8626     -21.7395
    727.3296     700.9018       1.4267       1.9205     -21.7334
    727.4820     701.7953       1.4249       1.9484     -21.7302
    727.6344     702.8776       1.4227       1.9215     -21.7297
    727.7868     705.9781       1.4165       1.8813     -21.7789
    727.9392     707.0460       1.4143       1.7771     -21.9009
    728.0916     708.0615       1.4123       1.6959     -21.7728
    728.2440     721.0633       1.3868       1.7068     -21.7340
    728.3964     726.0057       1.3774       1.7558     -21.6917
    728.5488     731.9534       1.3662       1.7945     -21.5222
    728.7012     733.9680       1.3625       1.8472     -21.5240
    728.8536     732.9659       1.3643       1.8599     -21.6900
    729.0060     733.9680       1.3625       1.8319     -21.7350
    729.1584     738.3822       1.3543       1.8083     -21.7372
    729.3108     740.9819       1.3496       1.7771     -21.7289
    729.4632     741.9839       1.3477       1.7502     -21.7357
    729.6156     745.9920       1.3405       1.7322     -21.7306
    729.7680     750.0000       1.3333       1.7391     -21.7371
    729.9204     751.9494       1.3299       1.7567     -21.6884
    730.0728     755.3040       1.3240       1.7714     -21.5817
    730.2252     760.1833       1.3155       1.7883     -21.5274
    730.3776     762.1076       1.3122       1.8009     -21.5392
    730.5300     767.1352       1.3036       1.7998     -21.5303
    730.6824     769.1294       1.3002       1.7595     -21.5307
    730.8348     770.1054       1.2985       1.7345     -21.5785
    730.9872     770.0813       1.2986       1.7152     -21.7119
    731.1396     771.0421       1.2969       1.7305     -21.5793
    731.2920     771.0421       1.2969       1.7397     -21.5333
    731.4444     771.0421       1.2969       1.7239     -21.5254
    731.5968     769.0381       1.3003       1.7103     -21.5833
    731.7492     768.0361       1.3020       1.7238     -21.7700
    731.9016     768.0361       1.3020       1.7391     -22.1001
    732.0540     771.0421       1.2969       1.7405     -22.1647
    732.2064     773.8625       1.2922       1.7297     -22.3609
    732.3588     778.0561       1.2853       1.7004     -22.3080
    732.5112     780.0601       1.2820       1.7160     -22.3476
    732.6636     779.0581       1.2836       1.7386     -22.1921
    732.8160     779.0581       1.2836       1.7496     -21.9344
    732.9684     788.0762       1.2689       1.7578     -21.6712
    733.1208     785.3753       1.2733       1.7352     -21.4829
    733.2732     778.0561       1.2853       1.7498     -21.3227
    733.4256     774.0481       1.2919       1.6957     -21.3815
    733.5780     768.0361       1.3020       1.6643     -21.5682
    733.7304     763.8672       1.3091       1.6463     -21.7404
    733.8828     753.0060       1.3280       1.6460     -21.8727
    734.0352     750.0000       1.3333       1.6574     -21.7316
    734.1876     744.9900       1.3423       1.6774     -21.5534
    734.3400     742.9860       1.3459       1.7028     -21.2641
    734.4924     740.9819       1.3496       1.7197     -21.0928
    734.6448     733.9680       1.3625       1.7382     -20.7871
    734.7972     730.9619       1.3681       1.7572     -20.5799
    734.9496     727.9559       1.3737       1.7871     -20.5329
    735.1020     727.9559       1.3737       1.8036     -20.5363
    735.2544     727.9559       1.3737       1.8143     -20.5447
    735.4068     728.9579       1.3718       1.7986     -20.5331
    735.5592     727.9559       1.3737       1.7987     -20.5354
