~Version Information
VERS  .          2.0                                   :CWLS Log Ascii Standard - Version 2.0
WRAP  .          NO                                    :One line per depth step
~Well Information Block
#MNEM.UNIT       Data Type                             Information
#---------       ---------                             -------------------------------
STRT  .M         301.0668                              :PROFUNDIDAD INICIAL
STOP  .M         1842.0000                             :PROFUNDIDAD FINAL
STEP  .M         0.1524                                :INCREMENTO
NULL  .          -999.25                               :VALOR NULO 
COMP  .          PETROLEOS MEXICANOS                   :COMPANIA
WELL  .          ABEDUL-1                              :NOMBRE DEL POZO 
FLD   .          ABEDUL                                :CAMPO 
STAT  .          VERACRUZ                              :ESTADO
CNTY  .          COATZINTLA                            :MUNICIPIO
CTRY  .          MEXICO                                :PAIS
DATE  .          03-MAR-79                             :FECHA
UWI   .          1030022740                            :VALOR UNICO DEL POZO
SRVC  .          PEMEX                                 :COMPANIA DE SERVICIOS
~Parameter Information Block
#MNEM.UNIT       Value                                 Description
#---------       ---------                             -------------
FL.              X=                                    :LOCALIZACION DEL CAMPO
FL1.             Y=                                    :LOCALIZACION DEL CAMPO
PDAT.            NIVEL DEL TERRENO                     :DATO PERMANENTE
EPD.M            135.10                                :ELEVACION DEL DATO PERMANENTE
APD.M            3.8                                   :DIFERENCIA ENTRE MR Y NIVEL DE TERRENO
EKB.M            139.58                                :ELEVACION DEL KELLY BUSHING
EDF.M            139.28                                :ELEVACION DE LA MESA ROTARIA
EGL.M            135.10                                :ELEVACION DEL TERRENO
ELZ.M            139.28                                :ELEVACION DEL CERO DE REFERENCIA
LMF.             MESA ROTARIA                          :REGISTRO MEDIDO DESDE
DMF.             MESA ROTARIA                          :PROFUNDIDAD MEDIDA DESDE
SECT.            DISTRITO POZA RICA                    :NOMBRE DEL SECTOR
CN.              PETROLEOS MEXICANOS                   :NOMBRE DE LA COMPANIA
LATI.            Y=78,766.87 M.                        :LATITUD
LONG.            X=119,309.85 M.                       :LONGITUD
NATI.            MEXICO                                :NACION
RANG.            ZONA NORTE                            :NOMBRE DE LA ZONA
SLAB.            ESTADO                                :ESTADO 
STAT.            VERACRUZ                              :NOMBRE DEL ESTADO
CLAB.            MUNICIPIO                             :ETIQUETA DEL MUNICIPIO
COUN.            COATZINTLA                            :NOMBRE DEL MUNICIPIO
SRVC.            REGISTRO IL  1:500                    :NOMBRE DEL SERVICIO
DATE.            03-MAR-79                             :FECHA DEL SERVICIO
BLI.M            1842.0000                             :PRIMERA LECTURA
TLI.M            301.0668                              :ULTIMA LECTURA
QCEN.            FABIOLA NALLELY PEREZ CASTELAN        :NOMBRE DEL INGENIERO DEL CONTROL DE CALIDAD DEL REGISTRO
DLQC.            01-APR-2009                           :FECHA DEL CONTROL DE CALIDAD DEL REGISTRO
CBL1.M           291.0                                 :ZAPATA SCHLUMBERGER
CBD1.M           300.0                                 :ZAPATA PERFORACION
TDL.M            1842.0                                :PROFUNDIDAD REGISTRO
TDD.M            1851.0                                :PROFUNDIDAD PERFORADOR
DFT.             SODICO                                :TIPO DE LODO
DFD.G/C3         1.25                                  :DENSIDAD DE LODO
DFV.S            45                                    :VISCOSIDAD DEL LODO
DFPH.            8.6                                   :PH DEL LODO
DFL.C3           N.R.                                  :PERDIDA DE LODO
MSS.             PRESA                                 :FUENTE DE LA MUESTRA DE LODO
RMS.ohm.m        1.8                                   :RESISTIVIDAD DE LODO
MST.DEGC         29                                    :TEMPERATURA DE LA MUESTRA DE LODO
MFSS.            PRENSA                                :FUENTE DEL FILTRADO DE LODO
RMFS.ohm.m       N.R.                                  :RESISTIVIDAD DEL FILTRADO
MFST.DEGC        N.R.                                  :TEMPERATURA DEL FILTRADO
MCSS.            PRENSA                                :FUENTE DEL ENJARRE DE LODO
RMCS.ohm.m       N.R.                                  :RESISTIVIDAD DEL ENJARRE DE LODO
MCST.DEGC        N.R.                                  :TEMPERATURA DEL ENJARRE
BSAL.PPM         N.R.                                  :SALINIDAD DEL LODO
TCS.             N.R.                                  :HORA EN QUE PARO CIRCULACION
STEM.DEGC        29                                    :TEMPERATURA DE SUPERFICIE
BHT.DEGC         70                                    :TEMPERATURA DE FONDO
MRT.DEGC         70                                    :MAXIMA TEMPERATURA REGISTRADA
BS.IN            8.5                                   :DIAMETRO DE BARRENA
CSIZ.IN          N.R.                                  :DIAMETRO DE T.R.
CWEI.lbm/ft      N.R.                                  :PESO DE LA T.R.
CTD1.M           300.0                                 :FONDO DE LA T.R. DEL PERFORADOR
CTL1.M           291.0                                 :FONDO DE LA T.R. DEL REGISTRO
ENGI.            PEDRO SABATH                          :NOMBRE DEL INGENIERO
WITN.            RAFAEL SANDOVAL CERVANTES             :NOMBRE DEL TESTIGO
LUN.             8-A                                   :NUMERO DE LA UNIDAD
RUN.             UNO                                   :NUMERO DE LA CORRIDA
OS1.             N.R.                                  :SERVICIOS
HIDE.            REGISTRO DE INDUCCION                 :NOMBRE DEL SERVICIO
HID1.            1:500                                 :NOMBRE DEL SERVICIO
LUL.             POZA RICA                             :LUGAR DE LA UNIDAD
R1.              POZA RICA                             :Remarks 1
R2.                                                    :Remarks 2
R3.  TRACK1            POTENCIAL NATURAL               :Remarks 3
R4.                           MV                       :Remarks 4
R5.                         -|10|+                     :Remarks 5
R6.                   -80_____________20               :Remarks 6
R7.                                                    :Remarks 7
R8.  TRACK2               RESISTIVIDAD                 :Remarks 8
R9.                           SN                       :Remarks 9
R10.                       OHMS-M2/M                   :Remarks 10
R11.                    0_____________20               :Remarks 11
R12.                    0_____________200              :Remarks 12
R13.                          ILD                      :Remarks 13
R14.                       OHMS-M2/M                   :Remarks 14
R15.                    0_____________20               :Remarks 15
R16.                    0_____________200              :Remarks 16
R17.                                                   :Remarks 17
R18.  TRACK3             CONDUCTIVIDAD                 :Remarks 18
R19.                         CILD                      :Remarks 19
R20.                       MILIMHOS/M                  :Remarks 20
R21.                  500_____________0                :Remarks 21
R22.                 1000_____________500              :Remarks 22
R23.                                                   :Remarks 23
R24.                                                   :Remarks 24
R25.                                                   :Remarks 25
R26. TEMPERATURA MAXIMA 70 degC                        :Remarks 26
R27. RM@TF=1.0 @ 70 PRENSA ; RMF@TF=0.75 @ 70 PRENSA   :Remarks 27
R28. RMC@TF=1.0 @ 70 PRENSA                            :Remarks 28
R29.                                                   :Remarks 29
R30.                                                   :Remarks 30
~Curve Information Block
#MNEM.UNIT       API Code            Curve    Description
#--------        --------------      -----    -------------------
DEPT  .M                             :0       Index
CILD  .MM/M                          :1       Calibrated Induction Deep Conductivity
ILD   .OHMM                          :2       Induction Deep Resistivity    
SN    .OHMM                          :3       Short Normal Resistivity (16 inch spacing)
SP    .MV                            :4       Spontaneous Potential         
~Ascii Data Section
    301.0668     596.9059       1.6753       2.3029     -24.4861
    301.2192     594.6894       1.6816       2.3393     -24.5081
    301.3716     591.6833       1.6901       2.3828     -24.7215
    301.5240     597.3467       1.6741       2.3946     -24.9363
    301.6764     602.7054       1.6592       2.4120     -24.9566
    301.8288     602.7054       1.6592       2.4230     -25.1367
    301.9812     606.7134       1.6482       2.4035     -25.1675
    302.1336     611.7234       1.6347       2.3805     -25.3067
    302.2860     607.4599       1.6462       2.3481     -25.4203
    302.4384     614.4664       1.6274       2.3344     -25.4123
    302.5908     617.5036       1.6194       2.3018     -25.2326
    302.7432     616.5593       1.6219       2.2952     -25.3548
    302.8956     609.6221       1.6404       2.3074     -25.1549
    303.0480     605.6984       1.6510       2.3313     -25.0310
    303.2004     609.0283       1.6420       2.3623     -24.8715
    303.3528     611.8412       1.6344       2.3884     -24.7221
    303.5052     611.8719       1.6343       2.4057     -24.6090
    303.6576     608.8622       1.6424       2.3956     -24.7381
    303.8100     606.8420       1.6479       2.3623     -24.7078
    303.9624     611.3861       1.6356       2.3177     -24.7010
    304.1148     615.1971       1.6255       2.2741     -24.5491
    304.2672     620.8964       1.6106       2.2535     -24.6596
    304.4196     630.6432       1.5857       2.2506     -24.8796
    304.5720     640.4001       1.5615       2.2322     -24.9355
    304.7244     651.8247       1.5342       2.1585     -24.8990
    304.8768     665.3163       1.5030       2.1010     -25.0746
    305.0292     678.8078       1.4732       2.0620     -25.0157
    305.1816     692.2994       1.4445       2.0699     -24.8681
    305.3340     705.9118       1.4166       2.0674     -24.7283
    305.4864     718.9379       1.3909       2.0394     -24.7650
    305.6388     714.9299       1.3987       1.9898     -24.9257
    305.7912     722.9459       1.3832       1.9710     -24.9717
    305.9436     715.9319       1.3968       1.9459     -24.9893
    306.0960     707.9158       1.4126       1.9178     -24.9807
    306.2484     693.0423       1.4429       1.8994     -25.1110
    306.4008     683.1566       1.4638       1.8929     -24.9743
    306.5532     673.2709       1.4853       1.9019     -24.9014
    306.7056     663.3853       1.5074       1.9231     -25.0388
    306.8580     653.4996       1.5302       1.9542     -24.8651
    307.0104     643.6140       1.5537       1.9866     -24.7551
    307.1628     633.7283       1.5780       2.0324     -24.9190
    307.3152     623.8427       1.6030       2.0175     -24.9170
    307.4676     621.7435       1.6084       2.0066     -24.9173
    307.6200     617.7355       1.6188       2.0403     -24.9569
    307.7724     611.7234       1.6347       2.0223     -25.1810
    307.9248     612.7255       1.6321       1.9844     -25.3259
    308.0772     606.7134       1.6482       1.9705     -25.3157
    308.2296     603.7074       1.6564       1.9912     -25.3231
    308.3820     604.7094       1.6537       2.0533     -25.2783
    308.5344     603.7074       1.6564       2.1736     -25.0992
    308.6868     607.7155       1.6455       2.2499     -25.1285
    308.8392     613.7275       1.6294       2.2225     -25.1188
    308.9916     614.7294       1.6267       2.1334     -25.1079
    309.1440     621.7435       1.6084       2.0760     -25.0047
    309.2964     629.7595       1.5879       2.0574     -24.9624
    309.4488     633.7675       1.5779       2.0862     -25.1476
    309.6012     648.7976       1.5413       2.0500     -25.0919
    309.7536     654.8096       1.5272       2.0214     -25.2820
    309.9060     655.8116       1.5248       2.0118     -25.3097
    310.0584     665.9445       1.5016       2.0307     -25.2387
    310.2108     680.8617       1.4687       2.0439     -25.0735
    310.3632     690.8818       1.4474       2.0312     -25.0050
    310.5156     700.9018       1.4267       1.9942     -25.0704
    310.6680     702.9058       1.4227       1.9702     -25.1192
    310.8204     703.9078       1.4206       1.9300     -25.1756
    310.9728     701.9038       1.4247       1.8979     -25.1880
    311.1252     696.8938       1.4349       1.9155     -25.1897
    311.2776     696.8938       1.4349       1.9407     -25.3288
    311.4300     696.8938       1.4349       1.9110     -25.1621
    311.5824     690.8818       1.4474       1.8768     -25.1170
    311.7348     685.6349       1.4585       1.8512     -25.1167
    311.8872     685.6340       1.4585       1.8854     -25.1195
    312.0396     689.6815       1.4499       1.9084     -25.1274
    312.1920     683.7206       1.4626       1.9461     -25.0997
    312.3444     683.7773       1.4625       1.9616     -25.2786
    312.4968     684.7984       1.4603       1.9479     -25.3243
    312.6492     683.7724       1.4625       1.9638     -25.3120
    312.8016     686.7317       1.4562       1.9807     -25.3349
    312.9540     687.8757       1.4538       1.9632     -25.1704
    313.1064     690.8818       1.4474       1.9484     -25.2179
    313.2588     687.8757       1.4538       1.9338     -25.3114
    313.4112     692.8857       1.4432       1.9482     -25.3219
    313.5636     697.8958       1.4329       1.9634     -25.3061
    313.7160     701.9038       1.4247       1.9548     -25.3791
    313.8684     709.9199       1.4086       1.9341     -25.3772
    314.0208     720.9419       1.3871       1.9420     -25.3080
    314.1732     725.8248       1.3777       1.9593     -25.3215
    314.3256     728.9579       1.3718       1.9781     -25.3098
    314.4780     727.9559       1.3737       1.9851     -25.3444
    314.6304     723.9479       1.3813       1.9595     -25.1413
    314.7828     716.9338       1.3948       1.9383     -25.2773
    314.9352     706.9138       1.4146       1.9128     -25.3063
    315.0876     702.2523       1.4240       1.8994     -25.1918
    315.2400     695.8918       1.4370       1.9009     -25.0920
    315.3924     679.8597       1.4709       1.9169     -24.9548
    315.5448     664.8297       1.5041       1.9257     -25.0743
    315.6972     651.8036       1.5342       1.9396     -25.1233
    315.8496     646.7936       1.5461       1.9630     -25.1240
    316.0020     641.7836       1.5582       1.9966     -25.1116
    316.1544     634.7695       1.5754       2.0227     -25.1313
    316.3068     632.7655       1.5804       2.0449     -25.1034
    316.4592     636.7736       1.5704       2.0743     -25.2652
    316.6116     641.7836       1.5582       2.0749     -25.3495
    316.7640     643.7876       1.5533       2.0562     -25.1471
    316.9164     645.7916       1.5485       2.0357     -25.2603
    317.0688     645.7916       1.5485       2.0503     -25.4083
    317.2212     649.7996       1.5389       2.0880     -25.3719
    317.3736     649.7996       1.5389       2.1005     -25.3072
    317.5260     650.8016       1.5366       2.1245     -25.2791
    317.6784     648.8063       1.5413       2.1239     -25.1368
    317.8308     645.8154       1.5484       2.1092     -25.3551
    317.9832     644.8508       1.5507       2.0874     -25.2373
    318.1356     645.8990       1.5482       2.0992     -25.0883
    318.2880     648.9500       1.5410       2.1242     -24.9018
    318.4404     648.9752       1.5409       2.1419     -24.9286
    318.5928     647.9754       1.5433       2.1330     -24.9177
    318.7452     643.9412       1.5529       2.1114     -24.9211
    318.8976     636.8812       1.5702       2.1239     -24.9270
    319.0500     630.0944       1.5871       2.1137     -25.0234
    319.2024     624.7679       1.6006       2.0763     -25.1073
    319.3548     620.7372       1.6110       2.0613     -25.1207
    319.5072     613.7063       1.6294       2.0619     -25.1577
    319.6596     606.6797       1.6483       2.0795     -25.3367
    319.8120     602.6516       1.6593       2.1504     -25.3455
