~Version Information
VERS  .          2.0                                   :CWLS Log Ascii Standard - Version 2.0
WRAP  .          NO                                    :One line per depth step
~Well Information Block
#MNEM.UNIT       Data Type                             Information
#---------       ---------                             -------------------------------
STRT  .M         301.0668                              :PROFUNDIDAD INICIAL
STOP  .M         1842.0000                             :PROFUNDIDAD FINAL
STEP  .M         0.1524                                :INCREMENTO
NULL  .          -999.25                               :VALOR NULO 
COMP  .          PETROLEOS MEXICANOS                   :COMPANIA
WELL  .          ABEDUL-1                              :NOMBRE DEL POZO 
FLD   .          ABEDUL                                :CAMPO 
STAT  .          VERACRUZ                              :ESTADO
CNTY  .          COATZINTLA                            :MUNICIPIO
CTRY  .          MEXICO                                :PAIS
DATE  .          03-MAR-79                             :FECHA
UWI   .          1030022740                            :VALOR UNICO DEL POZO
SRVC  .          PEMEX                                 :COMPANIA DE SERVICIOS
~Parameter Information Block
#MNEM.UNIT       Value                                 Description
#---------       ---------                             -------------
FL.              X=                                    :LOCALIZACION DEL CAMPO
FL1.             Y=                                    :LOCALIZACION DEL CAMPO
PDAT.            NIVEL DEL TERRENO                     :DATO PERMANENTE
EPD.M            135.10                                :ELEVACION DEL DATO PERMANENTE
APD.M            3.8                                   :DIFERENCIA ENTRE MR Y NIVEL DE TERRENO
EKB.M            139.58                                :ELEVACION DEL KELLY BUSHING
EDF.M            139.28                                :ELEVACION DE LA MESA ROTARIA
EGL.M            135.10                                :ELEVACION DEL TERRENO
ELZ.M            139.28                                :ELEVACION DEL CERO DE REFERENCIA
LMF.             MESA ROTARIA                          :REGISTRO MEDIDO DESDE
DMF.             MESA ROTARIA                          :PROFUNDIDAD MEDIDA DESDE
SECT.            DISTRITO POZA RICA                    :NOMBRE DEL SECTOR
CN.              PETROLEOS MEXICANOS                   :NOMBRE DE LA COMPANIA
LATI.            Y=78,766.87 M.                        :LATITUD
LONG.            X=119,309.85 M.                       :LONGITUD
NATI.            MEXICO                                :NACION
RANG.            ZONA NORTE                            :NOMBRE DE LA ZONA
SLAB.            ESTADO                                :ESTADO 
STAT.            VERACRUZ                              :NOMBRE DEL ESTADO
CLAB.            MUNICIPIO                             :ETIQUETA DEL MUNICIPIO
COUN.            COATZINTLA                            :NOMBRE DEL MUNICIPIO
SRVC.            REGISTRO IL  1:500                    :NOMBRE DEL SERVICIO
DATE.            03-MAR-79                             :FECHA DEL SERVICIO
BLI.M            1842.0000                             :PRIMERA LECTURA
TLI.M            301.0668                              :ULTIMA LECTURA
QCEN.            FABIOLA NALLELY PEREZ CASTELAN        :NOMBRE DEL INGENIERO DEL CONTROL DE CALIDAD DEL REGISTRO
DLQC.            01-APR-2009                           :FECHA DEL CONTROL DE CALIDAD DEL REGISTRO
CBL1.M           291.0                                 :ZAPATA SCHLUMBERGER
CBD1.M           300.0                                 :ZAPATA PERFORACION
TDL.M            1842.0                                :PROFUNDIDAD REGISTRO
TDD.M            1851.0                                :PROFUNDIDAD PERFORADOR
DFT.             SODICO                                :TIPO DE LODO
DFD.G/C3         1.25                                  :DENSIDAD DE LODO
DFV.S            45                                    :VISCOSIDAD DEL LODO
DFPH.            8.6                                   :PH DEL LODO
DFL.C3           N.R.                                  :PERDIDA DE LODO
MSS.             PRESA                                 :FUENTE DE LA MUESTRA DE LODO
RMS.ohm.m        1.8                                   :RESISTIVIDAD DE LODO
MST.DEGC         29                                    :TEMPERATURA DE LA MUESTRA DE LODO
MFSS.            PRENSA                                :FUENTE DEL FILTRADO DE LODO
RMFS.ohm.m       N.R.                                  :RESISTIVIDAD DEL FILTRADO
MFST.DEGC        N.R.                                  :TEMPERATURA DEL FILTRADO
MCSS.            PRENSA                                :FUENTE DEL ENJARRE DE LODO
RMCS.ohm.m       N.R.                                  :RESISTIVIDAD DEL ENJARRE DE LODO
MCST.DEGC        N.R.                                  :TEMPERATURA DEL ENJARRE
BSAL.PPM         N.R.                                  :SALINIDAD DEL LODO
TCS.             N.R.                                  :HORA EN QUE PARO CIRCULACION
STEM.DEGC        29                                    :TEMPERATURA DE SUPERFICIE
BHT.DEGC         70                                    :TEMPERATURA DE FONDO
MRT.DEGC         70                                    :MAXIMA TEMPERATURA REGISTRADA
BS.IN            8.5                                   :DIAMETRO DE BARRENA
CSIZ.IN          N.R.                                  :DIAMETRO DE T.R.
CWEI.lbm/ft      N.R.                                  :PESO DE LA T.R.
CTD1.M           300.0                                 :FONDO DE LA T.R. DEL PERFORADOR
CTL1.M           291.0                                 :FONDO DE LA T.R. DEL REGISTRO
ENGI.            PEDRO SABATH                          :NOMBRE DEL INGENIERO
WITN.            RAFAEL SANDOVAL CERVANTES             :NOMBRE DEL TESTIGO
LUN.             8-A                                   :NUMERO DE LA UNIDAD
RUN.             UNO                                   :NUMERO DE LA CORRIDA
OS1.             N.R.                                  :SERVICIOS
HIDE.            REGISTRO DE INDUCCION                 :NOMBRE DEL SERVICIO
HID1.            1:500                                 :NOMBRE DEL SERVICIO
LUL.             POZA RICA                             :LUGAR DE LA UNIDAD
R1.              POZA RICA                             :Remarks 1
R2.                                                    :Remarks 2
R3.  TRACK1            POTENCIAL NATURAL               :Remarks 3
R4.                           MV                       :Remarks 4
R5.                         -|10|+                     :Remarks 5
R6.                   -80_____________20               :Remarks 6
R7.                                                    :Remarks 7
R8.  TRACK2               RESISTIVIDAD                 :Remarks 8
R9.                           SN                       :Remarks 9
R10.                       OHMS-M2/M                   :Remarks 10
R11.                    0_____________20               :Remarks 11
R12.                    0_____________200              :Remarks 12
R13.                          ILD                      :Remarks 13
R14.                       OHMS-M2/M                   :Remarks 14
R15.                    0_____________20               :Remarks 15
R16.                    0_____________200              :Remarks 16
R17.                                                   :Remarks 17
R18.  TRACK3             CONDUCTIVIDAD                 :Remarks 18
R19.                         CILD                      :Remarks 19
R20.                       MILIMHOS/M                  :Remarks 20
R21.                  500_____________0                :Remarks 21
R22.                 1000_____________500              :Remarks 22
R23.                                                   :Remarks 23
R24.                                                   :Remarks 24
R25.                                                   :Remarks 25
R26. TEMPERATURA MAXIMA 70 degC                        :Remarks 26
R27. RM@TF=1.0 @ 70 PRENSA ; RMF@TF=0.75 @ 70 PRENSA   :Remarks 27
R28. RMC@TF=1.0 @ 70 PRENSA                            :Remarks 28
R29.                                                   :Remarks 29
R30.                                                   :Remarks 30
~Curve Information Block
#MNEM.UNIT       API Code            Curve    Description
#--------        --------------      -----    -------------------
DEPT  .M                             :0       Index
CILD  .MM/M                          :1       Calibrated Induction Deep Conductivity
ILD   .OHMM                          :2       Induction Deep Resistivity    
SN    .OHMM                          :3       Short Normal Resistivity (16 inch spacing)
SP    .MV                            :4       Spontaneous Potential         
~Ascii Data Section
# ...
   1321.5372     383.2665       3.3138       4.5809     -22.8774
   1321.6896     383.2665       3.2663       4.5468     -22.9380
   1321.8420     382.2645       3.2879       4.4071     -22.9253
   1321.9944     379.6952       3.3096       4.4344     -22.9293
   1322.1469     378.7179       3.3312       4.5419     -22.9321
   1322.2992     378.2565       3.3529       4.6098     -22.8874
   1322.4517     378.2565       3.3745       4.5385     -22.7109
   1322.6040     377.2545       3.3962       4.4597     -22.7366
   1322.7563     374.2737       3.4178       4.4221     -22.7273
   1322.9088     371.2695       3.4394       4.4945     -22.7319
   1323.0612     371.2578       3.4611       4.6863     -22.7173
   1323.2136     371.2337       3.4827       4.6611     -22.7829
   1323.3660     370.2042       3.4961       4.5455     -22.8329
   1323.5184     370.1844       3.4913       4.4623     -22.9368
   1323.6708     370.1833       3.4865       4.5289     -22.8814
   1323.8232     371.2006       3.4817       4.7869     -22.7154
   1323.9756     371.2425       3.4768       4.8956     -22.7276
   1324.1281     371.2425       3.4720       4.7896     -22.7728
   1324.2804     371.2425       3.4672       4.6919     -22.9499
   1324.4329     373.2465       3.4624       4.5676     -22.8686
   1324.5852     375.2505       3.4576       4.4502     -22.7714
   1324.7375     376.2525       3.4528       4.5169     -22.7981
   1324.8900     372.9617       3.4480       4.6613     -22.7140
   1325.0424     369.7543       3.4432       4.7424     -22.7296
   1325.1948     366.5468       3.4384       4.4608     -22.7329
   1325.3472     363.2264       3.4336       4.4942     -22.7259
   1325.4996     360.2204       3.4287       4.6117     -22.7306
   1325.6520     355.2104       3.4239       4.7817     -22.7284
   1325.8044     351.2024       3.4191       4.8617     -22.7300
   1325.9568     349.1984       3.5147       5.0119     -22.7270
   1326.1093     344.1419       3.6157       5.1360     -22.7322
   1326.2616     340.1804       3.7167       5.2253     -22.7273
   1326.4141     332.1643       3.8177       5.4245     -22.7029
   1326.5664     331.1623       3.9187       5.5643     -22.4799
   1326.7188     331.1623       4.0197       5.5202     -22.7214
   1326.8712     334.1683       4.1207       5.3978     -22.5736
   1327.0236     339.8205       4.2217       5.2550     -22.7083
   1327.1760     341.2498       4.2641       5.4669     -22.8298
   1327.3284     343.1864       4.2103       5.4248     -23.0942
   1327.4808     346.1056       4.1565       5.2724     -23.1686
   1327.6332     351.0709       4.1026       5.1408     -23.3509
   1327.7856     354.0518       4.0487       5.0254     -23.2739
   1327.9380     356.0450       3.9949       4.9436     -23.1186
   1328.0905     357.0579       3.9410       4.8914     -23.1171
   1328.2428     358.4648       3.8871       4.9119     -23.1592
   1328.3953     359.9826       3.8333       4.8226     -22.9500
   1328.5476     367.9873       3.7794       4.6733     -23.0372
   1328.7000     372.2445       3.7256       4.6101     -22.9630
   1328.8524     378.2565       3.6717       4.5367     -23.0091
   1329.0048     378.8426       3.6341       4.4992     -22.9045
   1329.1572     380.2719       3.6038       4.4980     -22.9063
   1329.3096     381.2625       3.5735       4.5036     -22.6858
   1329.4620     383.2665       3.5432       4.4699     -22.8954
   1329.6144     389.2786       3.5129       4.4306     -22.9732
   1329.7668     391.2826       3.4826       4.3901     -23.1032
   1329.9192     392.2846       3.4523       4.3428     -22.9439
   1330.0717     394.5115       3.4220       4.2587     -23.0948
   1330.2240     396.5346       3.3646       4.1804     -23.0880
   1330.3763     401.3026       3.3040       4.0999     -22.9092
   1330.5288     406.3126       3.2434       4.0211     -22.9301
   1330.6812     410.3206       3.1828       3.9371     -22.9440
   1330.8336     420.3407       3.1222       3.8967     -22.7692
   1330.9860     427.3547       3.0616       3.9020     -22.7283
   1331.1384     427.3547       3.0010       3.8994     -22.7252
   1331.2908     424.3487       2.9467       3.9005     -22.7331
   1331.4432     417.3347       2.9467       3.9068     -22.7269
   1331.5956     412.3246       2.9467       3.9511     -22.7304
   1331.7480     409.3186       2.9467       3.9991     -22.7274
   1331.9004     405.3106       2.9467       4.0698     -22.7598
   1332.0529     400.2246       2.9467       4.1479     -22.8728
   1332.2052     398.2700       2.9885       4.2322     -22.9347
   1332.3575     396.2926       3.0527       4.2680     -22.8936
   1332.5100     393.2866       3.1170       4.3454     -22.6887
   1332.6624     392.2846       3.1813       4.3790     -22.7822
   1332.8148     388.2766       3.2456       4.4974     -22.4054
   1332.9672     380.9711       3.3098       4.5879     -22.4039
   1333.1196     370.2206       3.3741       4.7032     -22.5139
   1333.2720     361.2224       3.4383       4.9831     -22.4698
   1333.4244     352.8030       3.5062       5.2023     -22.4837
   1333.5768     341.7759       3.6173       5.4314     -22.3898
   1333.7292     339.8100       3.7284       5.5301     -22.3159
   1333.8816     329.8318       3.8395       5.6583     -22.4526
   1334.0341     329.0718       3.9505       5.8657     -22.4163
   1334.1864     328.1538       4.0617       5.8069     -22.3701
   1334.3387     330.0131       4.1727       5.5594     -22.5459
   1334.4912     331.0757       4.2838       5.4453     -22.5624
   1334.6436     331.1623       4.3501       5.2816     -22.7520
   1334.7960     332.1643       4.3042       5.4736     -22.7166
   1334.9484     333.1663       4.2583       5.8256     -22.7403
   1335.1008     335.1703       4.2124       5.7874     -22.7103
   1335.2532     339.1783       4.1665       5.6074     -22.8879
   1335.4056     342.1844       4.1206       5.7037     -22.9264
   1335.5580     346.1924       4.0747       5.5689     -22.9417
   1335.7104     347.1944       4.0288       5.3661     -22.9042
   1335.8628     345.1066       3.9829       5.1941     -23.0817
   1336.0153     343.0854       3.9757       5.2439     -23.0157
   1336.1676     344.1018       3.9842       5.5250     -22.9380
   1336.3199     346.1456       3.9926       5.7271     -22.9283
   1336.4724     347.1970       4.0010       5.5650     -22.9166
   1336.6248     347.2428       4.0094       5.3040     -22.9575
   1336.7772     347.2713       4.0178       5.3842     -22.7482
   1336.9296     346.1924       4.0262       5.6018     -22.8811
   1337.0820     345.7385       4.0346       5.7619     -22.8026
   1337.2344     345.1904       4.0431       5.6675     -22.7614
   1337.3868     344.1884       4.0362       5.6117     -22.5642
   1337.5392     343.1864       4.0026       5.8029     -22.5300
   1337.6917     338.1764       3.9712       6.0861     -22.5276
   1337.8440     334.1683       4.0319       6.1866     -22.5283
   1337.9965     330.7190       4.0924       6.0508     -22.5363
   1338.1488     328.2758       4.1531       5.8676     -22.5230
   1338.3011     326.1523       4.2136       5.7116     -22.5009
   1338.4536     325.1503       4.2742       5.6467     -22.3091
   1338.6060     326.1523       4.3348       5.6819     -22.4187
   1338.7584     328.1563       4.3954       5.9234     -22.3898
   1338.9108     328.1563       4.4340       6.0571     -21.7430
   1339.0632     329.1628       4.4004       6.1363     -22.0176
   1339.2156     330.1603       4.3667       6.0482     -22.4938
   1339.3680     329.1583       4.3331       5.9322     -22.5233
   1339.5204     326.1523       4.2994       5.7947     -22.5426
   1339.6729     325.1503       4.2657       5.8379     -22.5501
   1339.8252     322.1443       4.2321       6.1181     -22.2730
   1339.9777     319.6908       4.2169       6.1809     -21.4816
   1340.1300     318.7307       4.2674       6.0346     -22.4625
   1340.2823     317.1343       4.3179       5.8601     -22.5651
